ballLocX_0,ballLocY_0,ballLocZ_0,ballVelX_0,ballVelY_0,ballVelZ_0,carLocX_0,carLocY_0,carLocZ_0,carPitch_0,carYaw_0,carRoll_0,carVelX_0,carVelY_0,carVelZ_0,ballLocX_1,ballLocY_1,ballLocZ_1,ballVelX_1,ballVelY_1,ballVelZ_1,carLocX_1,carLocY_1,carLocZ_1,carPitch_1,carYaw_1,carRoll_1,carVelX_1,carVelY_1,carVelZ_1,throttle,steer,time
0.0,0.0,92.73999786376953,0.0,0.0,0.0,87.35973358154297,-2459.46630859375,17.010000228881836,-0.009491506032645702,-2.8940465450286865,9.58738019107841e-05,478.6502380371094,138.0908660888672,8.321000099182129,0.0,0.0,92.73999786376953,0.0,0.0,0.0,-242.50970458984375,-1603.113525390625,17.010000228881836,-0.009491506032645702,0.9105134606361389,0.0,465.2711486816406,597.5445556640625,8.310999870300293,0.2676719442377187,-0.5361197949740513,2.8335941769999984
0.0,0.0,92.73999786376953,0.0,0.0,0.0,-242.50970458984375,-1603.113525390625,17.010000228881836,-0.009491506032645702,0.9105134606361389,0.0,465.2711486816406,597.5445556640625,8.310999870300293,0.0,0.0,92.73999786376953,0.0,0.0,0.0,-96.85000610351562,-1438.134521484375,17.010000228881836,-0.009587380103766918,0.817036509513855,-9.58738019107841e-05,584.64501953125,624.906005859375,8.310999870300293,0.4870339836413229,-0.009173054165234618,0.27886090900000227
0.0,0.0,92.73999786376953,0.0,0.0,0.0,-96.85000610351562,-1438.134521484375,17.010000228881836,-0.009587380103766918,0.817036509513855,-9.58738019107841e-05,584.64501953125,624.906005859375,8.310999870300293,0.0,0.0,92.73999786376953,0.0,0.0,0.0,-1239.4840087890625,-3099.200439453125,17.010000228881836,-0.009587380103766918,1.0802100896835327,0.0,-610.0150756835938,-1121.8670654296875,8.310999870300293,-0.6311398600058682,-0.057591955224818525,2.9159825579999996
0.0,0.0,92.73999786376953,0.0,0.0,0.0,-1239.4840087890625,-3099.200439453125,17.010000228881836,-0.009587380103766918,1.0802100896835327,0.0,-610.0150756835938,-1121.8670654296875,8.310999870300293,0.0,0.0,92.73999786376953,0.0,0.0,0.0,-1825.1092529296875,-4081.431884765625,17.010000228881836,-0.009587380103766918,0.949438214302063,0.0,-748.2635498046875,-1071.0574951171875,8.310999870300293,-0.11544439972709464,0.08751145549152173,0.8899645780000007
0.0,0.0,92.73999786376953,0.0,0.0,0.0,-1825.1092529296875,-4081.431884765625,17.010000228881836,-0.009587380103766918,0.949438214302063,0.0,-748.2635498046875,-1071.0574951171875,8.310999870300293,0.0,0.0,92.73999786376953,0.0,0.0,0.0,-1951.443359375,-4257.6357421875,17.010000228881836,-0.009299758821725845,1.033040165901184,0.0,-327.8105773925781,-481.5380554199219,8.310999870300293,0.1663249542094145,-0.356303273588658,0.21504349099999942
0.0,0.0,92.73999786376953,0.0,0.0,0.0,-1951.443359375,-4257.6357421875,17.010000228881836,-0.009299758821725845,1.033040165901184,0.0,-327.8105773925781,-481.5380554199219,8.310999870300293,0.0,0.0,92.73999786376953,0.0,0.0,0.0,-1953.223388671875,-4247.63330078125,17.010000228881836,-0.009587380103766918,1.1183679103851318,-9.58738019107841e-05,41.26095199584961,91.63418579101562,8.310999870300293,0.051605558958673026,0.16599854905888378,1.5408926170000008
0.0,0.0,92.73999786376953,0.0,0.0,0.0,-1953.223388671875,-4247.63330078125,17.010000228881836,-0.009587380103766918,1.1183679103851318,-9.58738019107841e-05,41.26095199584961,91.63418579101562,8.310999870300293,0.0,0.0,92.73999786376953,0.0,0.0,0.0,-2206.368408203125,-4749.57763671875,17.010000228881836,-0.009683254174888134,1.0804977416992188,9.58738019107841e-05,-448.5263977050781,-848.4425659179688,8.310999870300293,-0.9063236300825881,0.019868549219027365,1.0790580490000004
0.0,0.0,92.73999786376953,0.0,0.0,0.0,-2206.368408203125,-4749.57763671875,17.010000228881836,-0.009683254174888134,1.0804977416992188,9.58738019107841e-05,-448.5263977050781,-848.4425659179688,8.310999870300293,0.0,0.0,92.73999786376953,0.0,0.0,0.0,-3136.5556640625,-4427.0517578125,16.355602264404297,-0.01601092517375946,-1.8747162818908691,-0.007382282521575689,196.02784729003906,1225.212646484375,17.97952651977539,-0.8936870959720253,0.9689574239172254,1.3675766629999977
0.0,0.0,92.73999786376953,0.0,0.0,0.0,-3136.5556640625,-4427.0517578125,16.355602264404297,-0.01601092517375946,-1.8747162818908691,-0.007382282521575689,196.02784729003906,1225.212646484375,17.97952651977539,0.0,0.0,92.73999786376953,0.0,0.0,0.0,-3080.29833984375,-4247.86376953125,17.010000228881836,-0.009491506032645702,-2.0472891330718994,0.0,-155.2476348876953,-300.80413818359375,8.301000595092773,0.539351901917283,-0.0031796282264919817,0.8537078350000016
0.0,0.0,92.73999786376953,0.0,0.0,0.0,-3080.29833984375,-4247.86376953125,17.010000228881836,-0.009491506032645702,-2.0472891330718994,0.0,-155.2476348876953,-300.80413818359375,8.301000595092773,0.0,0.0,92.73999786376953,0.0,0.0,0.0,-3109.45947265625,-4304.20751953125,17.010000228881836,-0.009779127314686775,-2.0490148067474365,0.0,3.409860610961914,18.32805061340332,8.310999870300293,-0.23562972882336042,0.375619187646407,0.2548231180000009
0.0,0.0,92.73999786376953,0.0,0.0,0.0,-3109.45947265625,-4304.20751953125,17.010000228881836,-0.009779127314686775,-2.0490148067474365,0.0,3.409860610961914,18.32805061340332,8.310999870300293,0.0,0.0,92.73999786376953,0.0,0.0,0.0,-2603.480224609375,-5080.41552734375,92.61714935302734,0.007669903803616762,-0.06346845626831055,1.0624734163284302,923.6771240234375,-41.46981430053711,-9.456579208374023,0.5017720498483875,0.43244069081265835,2.010939885999999
0.0,0.0,92.73999786376953,0.0,0.0,0.0,-2603.480224609375,-5080.41552734375,92.61714935302734,0.007669903803616762,-0.06346845626831055,1.0624734163284302,923.6771240234375,-41.46981430053711,-9.456579208374023,0.0,0.0,92.73999786376953,0.0,0.0,0.0,-1656.959228515625,-5102.9697265625,1012.716796875,1.1851918697357178,-3.1161861419677734,-1.54740309715271,-264.33740234375,8.25100040435791,614.1290893554688,0.5152632216301036,-0.4893505755786576,1.8311167469999994
0.0,0.0,92.73999786376953,0.0,0.0,0.0,-1656.959228515625,-5102.9697265625,1012.716796875,1.1851918697357178,-3.1161861419677734,-1.54740309715271,-264.33740234375,8.25100040435791,614.1290893554688,0.0,0.0,92.73999786376953,0.0,0.0,0.0,-946.2822265625,-5102.9697265625,853.9996948242188,-0.7528969645500183,-3.1283621788024902,-1.5797126293182373,645.4204711914062,8.261000633239746,429.92108154296875,-0.3806302172424665,0.6844995830291842,1.6928413320000004
0.0,0.0,92.73999786376953,0.0,0.0,0.0,-946.2822265625,-5102.9697265625,853.9996948242188,-0.7528969645500183,-3.1283621788024902,-1.5797126293182373,645.4204711914062,8.261000633239746,429.92108154296875,0.0,0.0,92.73999786376953,0.0,0.0,0.0,-1510.8885498046875,-5102.97998046875,977.3424682617188,1.5076154470443726,-2.988290548324585,-1.4180693626403809,-49.90665054321289,8.371000289916992,-1109.808837890625,-0.31475469022694935,0.7025110896756308,2.8379413620000022
0.0,0.0,92.73999786376953,0.0,0.0,0.0,-1510.8885498046875,-5102.97998046875,977.3424682617188,1.5076154470443726,-2.988290548324585,-1.4180693626403809,-49.90665054321289,8.371000289916992,-1109.808837890625,0.0,0.0,92.73999786376953,0.0,0.0,0.0,-3595.937255859375,-4447.767578125,325.2462158203125,-1.3835548162460327,2.430400848388672,-1.63704514503479,114.52989196777344,-63.31000518798828,1140.202392578125,-0.9782812990131402,-0.5677935671079328,2.8709391330000003
0.0,0.0,92.73999786376953,0.0,0.0,0.0,-3595.937255859375,-4447.767578125,325.2462158203125,-1.3835548162460327,2.430400848388672,-1.63704514503479,114.52989196777344,-63.31000518798828,1140.202392578125,0.0,0.0,92.73999786376953,0.0,0.0,0.0,-3529.6611328125,-4428.58056640625,1759.229248046875,-0.978200376033783,-1.6101045608520508,2.5052783489227295,17.316471099853516,322.59503173828125,501.4396057128906,-0.4622821508775201,0.18139946374136295,1.766959527999994
0.0,0.0,92.73999786376953,0.0,0.0,0.0,-3529.6611328125,-4428.58056640625,1759.229248046875,-0.978200376033783,-1.6101045608520508,2.5052783489227295,17.316471099853516,322.59503173828125,501.4396057128906,0.0,0.0,92.73999786376953,0.0,0.0,0.0,-3245.5439453125,-4794.345703125,1191.8665771484375,-0.7172318696975708,-0.798053503036499,1.5790414810180664,681.8948364257812,-670.6134033203125,-876.1883544921875,0.9419328393475843,-0.1972088893637176,1.226007446000004
0.0,0.0,92.73999786376953,0.0,0.0,0.0,-3245.5439453125,-4794.345703125,1191.8665771484375,-0.7172318696975708,-0.798053503036499,1.5790414810180664,681.8948364257812,-670.6134033203125,-876.1883544921875,0.0,0.0,92.73999786376953,0.0,0.0,0.0,-3194.2822265625,-4845.068359375,1057.5390625,-1.1655378341674805,-0.7877950072288513,1.5871907472610474,-53.48991012573242,62.480159759521484,97.26255798339844,-0.29572275178333474,-0.6892858039500334,1.879010817000001
0.0,0.0,92.73999786376953,0.0,0.0,0.0,-3194.2822265625,-4845.068359375,1057.5390625,-1.1655378341674805,-0.7877950072288513,1.5871907472610474,-53.48991012573242,62.480159759521484,97.26255798339844,0.0,0.0,92.73999786376953,0.0,0.0,0.0,-3032.898193359375,-4973.798828125,370.7549133300781,-1.2663969993591309,-0.6002658605575562,1.6233351230621338,276.0669860839844,-164.10240173339844,-1076.024169921875,0.32087656958019517,0.015850066143887842,1.2649823120000008
0.0,0.0,92.73999786376953,0.0,0.0,0.0,-3032.898193359375,-4973.798828125,370.7549133300781,-1.2663969993591309,-0.6002658605575562,1.6233351230621338,276.0669860839844,-164.10240173339844,-1076.024169921875,0.0,0.0,92.73999786376953,0.0,0.0,0.0,-2967.65087890625,-4963.78857421875,110.00077056884766,-0.8723556995391846,0.4857925474643707,0.39145272970199585,3.9672491550445557,15.373534202575684,-6.62684440612793,-0.18757628039725294,0.5759698190090274,2.653904692999994
0.0,0.0,92.73999786376953,0.0,0.0,0.0,-2967.65087890625,-4963.78857421875,110.00077056884766,-0.8723556995391846,0.4857925474643707,0.39145272970199585,3.9672491550445557,15.373534202575684,-6.62684440612793,0.0,0.0,92.73999786376953,0.0,0.0,0.0,-2967.865234375,-4958.69921875,104.47447204589844,-0.8166530132293701,0.43306195735931396,0.43430832028388977,7.500504970550537,20.35386085510254,-14.110552787780762,-0.21152072219001772,0.2034334678837384,0.38509735700000647
0.0,0.0,92.73999786376953,0.0,0.0,0.0,-2967.865234375,-4958.69921875,104.47447204589844,-0.8166530132293701,0.43306195735931396,0.43430832028388977,7.500504970550537,20.35386085510254,-14.110552787780762,0.0,0.0,92.73999786376953,0.0,0.0,0.0,-2453.006591796875,-5102.9697265625,354.5514221191406,1.1941081285476685,-3.1157066822052,-1.5469237565994263,-143.57107543945312,8.241000175476074,276.1945495605469,0.30919668166635805,-0.6985312696160109,2.099890103
0.0,0.0,92.73999786376953,0.0,0.0,0.0,-2453.006591796875,-5102.9697265625,354.5514221191406,1.1941081285476685,-3.1157066822052,-1.5469237565994263,-143.57107543945312,8.241000175476074,276.1945495605469,0.0,0.0,92.73999786376953,0.0,0.0,0.0,-2668.949951171875,-5095.8330078125,400.1962585449219,-0.01601092517375946,3.0335428714752197,-1.5705087184906006,-148.8248291015625,19.61151123046875,-56.03757858276367,0.05324605713576558,-0.851926902028892,1.7939527349999977
0.0,0.0,92.73999786376953,0.0,0.0,0.0,-2668.949951171875,-5095.8330078125,400.1962585449219,-0.01601092517375946,3.0335428714752197,-1.5705087184906006,-148.8248291015625,19.61151123046875,-56.03757858276367,0.0,0.0,92.73999786376953,0.0,0.0,0.0,-3165.20458984375,-4872.720703125,614.2237548828125,0.8946942687034607,2.4094045162200928,-1.5572781562805176,-243.7593994140625,240.28086853027344,416.9679870605469,0.47482721782860704,0.3534156971019753,1.4501122899999999
0.0,0.0,92.73999786376953,0.0,0.0,0.0,-3165.20458984375,-4872.720703125,614.2237548828125,0.8946942687034607,2.4094045162200928,-1.5572781562805176,-243.7593994140625,240.28086853027344,416.9679870605469,0.0,0.0,92.73999786376953,0.0,0.0,0.0,-2599.853271484375,-5101.208984375,1002.247314453125,-1.015015959739685,-0.055510930716991425,1.5846021175384521,-315.84857177734375,19.59507942199707,780.93798828125,-0.9918953003153848,0.9300161113223058,1.7231416509999988
0.0,0.0,92.73999786376953,0.0,0.0,0.0,-2599.853271484375,-5101.208984375,1002.247314453125,-1.015015959739685,-0.055510930716991425,1.5846021175384521,-315.84857177734375,19.59507942199707,780.93798828125,0.0,0.0,92.73999786376953,0.0,0.0,0.0,-2600.005615234375,-5101.3779296875,977.8569946289062,-1.1651543378829956,-0.06241384148597717,1.5942853689193726,167.39572143554688,2.5420124530792236,-479.65167236328125,0.3415218027846738,0.7047862511046663,0.734699691000003
0.0,0.0,92.73999786376953,0.0,0.0,0.0,-2600.005615234375,-5101.3779296875,977.8569946289062,-1.1651543378829956,-0.06241384148597717,1.5942853689193726,167.39572143554688,2.5420124530792236,-479.65167236328125,0.0,0.0,92.73999786376953,0.0,0.0,0.0,-2595.7314453125,-5101.3896484375,891.8798217773438,-1.201011061668396,-0.06529005616903305,1.5936143398284912,-14.748472213745117,8.698846817016602,-8.319522857666016,-0.14771386862536007,0.11264990056766377,1.539071002
0.0,0.0,92.73999786376953,0.0,0.0,0.0,-2595.7314453125,-5101.3896484375,891.8798217773438,-1.201011061668396,-0.06529005616903305,1.5936143398284912,-14.748472213745117,8.698846817016602,-8.319522857666016,0.0,0.0,92.73999786376953,0.0,0.0,0.0,-2488.05859375,-5103.06005859375,1244.3505859375,-0.4832039475440979,-3.128553867340088,-1.5757818222045898,384.2922668457031,8.468196868896484,247.57522583007812,-0.6283735143978268,-0.6067126147669957,1.9080637839999994
0.0,0.0,92.73999786376953,0.0,0.0,0.0,-2488.05859375,-5103.06005859375,1244.3505859375,-0.4832039475440979,-3.128553867340088,-1.5757818222045898,384.2922668457031,8.468196868896484,247.57522583007812,0.0,0.0,92.73999786376953,0.0,0.0,0.0,-2403.3037109375,-4939.2734375,1896.8704833984375,-0.09587380290031433,-0.14285196363925934,2.4202382564544678,-611.2431640625,121.36223602294922,115.63385009765625,-0.5680079901520134,0.6896477617294492,1.9070520269999989
0.0,0.0,92.73999786376953,0.0,0.0,0.0,-2403.3037109375,-4939.2734375,1896.8704833984375,-0.09587380290031433,-0.14285196363925934,2.4202382564544678,-611.2431640625,121.36223602294922,115.63385009765625,0.0,0.0,92.73999786376953,0.0,0.0,0.0,-2737.235595703125,-4952.58203125,1865.430908203125,0.4953799247741699,0.3284636437892914,2.4257030487060547,-678.6068115234375,-151.11668395996094,-315.5798645019531,-0.25026320523966894,0.6702501424916472,0.49184010900000175
0.0,0.0,92.73999786376953,0.0,0.0,0.0,-2737.235595703125,-4952.58203125,1865.430908203125,0.4953799247741699,0.3284636437892914,2.4257030487060547,-678.6068115234375,-151.11668395996094,-315.5798645019531,0.0,0.0,92.73999786376953,0.0,0.0,0.0,-3687.980224609375,-4351.9296875,554.6614379882812,0.7446517944335938,-0.7984369993209839,1.5619759559631348,-841.3870239257812,852.8800048828125,-1152.9921875,-0.8216825080634584,-0.10406168498519652,1.4109887609999987
0.0,0.0,92.73999786376953,0.0,0.0,0.0,-3687.980224609375,-4351.9296875,554.6614379882812,0.7446517944335938,-0.7984369993209839,1.5619759559631348,-841.3870239257812,852.8800048828125,-1152.9921875,0.0,0.0,92.73999786376953,0.0,0.0,0.0,-3918.85009765625,-4098.8994140625,243.272216796875,0.515321671962738,-0.9944989085197449,1.4838387966156006,111.16329956054688,-168.17071533203125,123.50473022460938,0.6364941344038908,-0.9716254301977443,0.9450125879999973
0.0,0.0,92.73999786376953,0.0,0.0,0.0,-3918.85009765625,-4098.8994140625,243.272216796875,0.515321671962738,-0.9944989085197449,1.4838387966156006,111.16329956054688,-168.17071533203125,123.50473022460938,0.0,0.0,92.73999786376953,0.0,0.0,0.0,-3977.38623046875,-3855.23095703125,100.80048370361328,0.12310195714235306,-1.3782817125320435,0.829500138759613,-75.57809448242188,508.1122131347656,-96.0744400024414,-0.1620183134465294,-0.2414937917848632,1.1829388299999977
0.0,0.0,92.73999786376953,0.0,0.0,0.0,-3977.38623046875,-3855.23095703125,100.80048370361328,0.12310195714235306,-1.3782817125320435,0.829500138759613,-75.57809448242188,508.1122131347656,-96.0744400024414,0.0,0.0,92.73999786376953,0.0,0.0,0.0,-4012.72802734375,-3921.36669921875,231.700439453125,1.2020657062530518,2.211808443069458,-1.2550839185714722,-13.735347747802734,42.45644760131836,44.729679107666016,0.3085872154743283,-0.9310415633727638,2.414171844000009
0.0,0.0,92.73999786376953,0.0,0.0,0.0,-4012.72802734375,-3921.36669921875,231.700439453125,1.2020657062530518,2.211808443069458,-1.2550839185714722,-13.735347747802734,42.45644760131836,44.729679107666016,0.0,0.0,92.73999786376953,0.0,0.0,0.0,-3433.13037109375,-3716.30712890625,17.010000228881836,-0.009587380103766918,-2.3763279914855957,9.58738019107841e-05,462.9251403808594,398.4638671875,8.321000099182129,-0.0989229834941201,-0.27461308522048355,1.822761328999988
0.0,0.0,92.73999786376953,0.0,0.0,0.0,-3433.13037109375,-3716.30712890625,17.010000228881836,-0.009587380103766918,-2.3763279914855957,9.58738019107841e-05,462.9251403808594,398.4638671875,8.321000099182129,0.0,0.0,92.73999786376953,0.0,0.0,0.0,-2732.868408203125,-2015.948974609375,17.010000228881836,-0.009587380103766918,-1.5216131210327148,0.0,-15.74310302734375,705.7229614257812,8.321000099182129,-0.0422676030619773,-0.14020104205578288,2.9642025540000105
0.0,0.0,92.73999786376953,0.0,0.0,0.0,-2732.868408203125,-2015.948974609375,17.010000228881836,-0.009587380103766918,-1.5216131210327148,0.0,-15.74310302734375,705.7229614257812,8.321000099182129,0.0,0.0,92.73999786376953,0.0,0.0,0.0,-2761.698974609375,-2935.86181640625,17.010000228881836,-0.009587380103766918,-1.6718473434448242,0.0,-84.77557373046875,-836.9939575195312,8.321000099182129,0.3549336781504737,-0.04505814662605312,2.36070758999999
0.0,0.0,92.73999786376953,0.0,0.0,0.0,-2761.698974609375,-2935.86181640625,17.010000228881836,-0.009587380103766918,-1.6718473434448242,0.0,-84.77557373046875,-836.9939575195312,8.321000099182129,0.0,0.0,92.73999786376953,0.0,0.0,0.0,-3787.5390625,-3426.38134765625,17.026447296142578,-0.009012137539684772,2.533944606781006,-0.00047936898772604764,-1037.2587890625,677.1945190429688,16.804784774780273,0.951814207050371,-0.730933053990255,1.2739861830000052
0.0,0.0,92.73999786376953,0.0,0.0,0.0,-3787.5390625,-3426.38134765625,17.026447296142578,-0.009012137539684772,2.533944606781006,-0.00047936898772604764,-1037.2587890625,677.1945190429688,16.804784774780273,0.0,0.0,92.73999786376953,0.0,0.0,0.0,-3886.40478515625,-4145.7705078125,415.0496826171875,-1.157676100730896,-0.9214431047439575,1.610296368598938,-148.72569274902344,199.9422149658203,809.3156127929688,-0.7849787330130207,0.6221427371474579,2.1849521489999972
0.0,0.0,92.73999786376953,0.0,0.0,0.0,-3886.40478515625,-4145.7705078125,415.0496826171875,-1.157676100730896,-0.9214431047439575,1.610296368598938,-148.72569274902344,199.9422149658203,809.3156127929688,0.0,0.0,92.73999786376953,0.0,0.0,0.0,-3903.025390625,-4124.71728515625,482.32647705078125,-1.0986179113388062,-0.9234564304351807,1.5694540739059448,-136.9796905517578,192.5238494873047,448.2682189941406,0.5694006084580501,-0.7589704434453615,0.10509103700000821
0.0,0.0,92.73999786376953,0.0,0.0,0.0,-3903.025390625,-4124.71728515625,482.32647705078125,-1.0986179113388062,-0.9234564304351807,1.5694540739059448,-136.9796905517578,192.5238494873047,448.2682189941406,0.0,0.0,92.73999786376953,0.0,0.0,0.0,-3888.565185546875,-4142.55078125,1186.642333984375,-0.8405256271362305,2.2537055015563965,-1.5605378150939941,91.99333953857422,-102.87786102294922,155.3470916748047,-0.40731554951365734,-0.2880184522225202,2.9148799039999886
0.0,0.0,92.73999786376953,0.0,0.0,0.0,-3888.565185546875,-4142.55078125,1186.642333984375,-0.8405256271362305,2.2537055015563965,-1.5605378150939941,91.99333953857422,-102.87786102294922,155.3470916748047,0.0,0.0,92.73999786376953,0.0,0.0,0.0,-4063.427490234375,-3654.72265625,1626.0439453125,0.8480996489524841,-1.2893108129501343,1.8444201946258545,59.12699508666992,-235.5798797607422,220.7655487060547,0.36993853581572056,0.6357281123677077,2.6680239820000082
0.0,0.0,92.73999786376953,0.0,0.0,0.0,-4063.427490234375,-3654.72265625,1626.0439453125,0.8480996489524841,-1.2893108129501343,1.8444201946258545,59.12699508666992,-235.5798797607422,220.7655487060547,0.0,0.0,92.73999786376953,0.0,0.0,0.0,-3368.17236328125,-2118.016357421875,1554.3150634765625,-0.21283982694149017,1.4127004146575928,2.973142385482788,168.39439392089844,1026.1846923828125,-777.4876098632812,0.9167000347013972,-0.6130605632488764,2.7179112679999946
0.0,0.0,92.73999786376953,0.0,0.0,0.0,-3368.17236328125,-2118.016357421875,1554.3150634765625,-0.21283982694149017,1.4127004146575928,2.973142385482788,168.39439392089844,1026.1846923828125,-777.4876098632812,0.0,0.0,92.73999786376953,0.0,0.0,0.0,-3128.314208984375,-586.4337158203125,61.19633865356445,-0.03739078342914581,1.9985852241516113,-1.8429820537567139,39.597896575927734,409.6004333496094,-12.21359920501709,-0.4591599674608777,0.033386655947857946,1.7979839050000095
0.0,0.0,92.73999786376953,0.0,0.0,0.0,-3128.314208984375,-586.4337158203125,61.19633865356445,-0.03739078342914581,1.9985852241516113,-1.8429820537567139,39.597896575927734,409.6004333496094,-12.21359920501709,0.0,0.0,92.73999786376953,0.0,0.0,0.0,-3107.6181640625,-497.9736022949219,17.010000228881836,-0.009683254174888134,2.2339553833007812,-0.00028762139845639467,100.70817565917969,-203.5455322265625,8.321000099182129,-0.31220768938215393,-0.8522026556399027,0.9569580009999896
0.0,0.0,92.73999786376953,0.0,0.0,0.0,-3107.6181640625,-497.9736022949219,17.010000228881836,-0.009683254174888134,2.2339553833007812,-0.00028762139845639467,100.70817565917969,-203.5455322265625,8.321000099182129,0.0,0.0,92.73999786376953,0.0,0.0,0.0,-3476.02783203125,-1643.2197265625,17.010000228881836,-0.009587380103766918,-0.46891874074935913,0.0,1076.212158203125,-584.4544067382812,8.3410005569458,0.8556830560597739,0.7075282025599336,2.3510139230000107
0.0,0.0,92.73999786376953,0.0,0.0,0.0,-3476.02783203125,-1643.2197265625,17.010000228881836,-0.009587380103766918,-0.46891874074935913,0.0,1076.212158203125,-584.4544067382812,8.3410005569458,0.0,0.0,92.73999786376953,0.0,0.0,0.0,92.35350799560547,-2599.080078125,17.010000228881836,-0.009491506032645702,-0.18628279864788055,-9.58738019107841e-05,1385.12646484375,-262.3573913574219,8.310999870300293,0.3633069204304358,0.02265863949892233,2.8488971059999955
0.0,0.0,92.73999786376953,0.0,0.0,0.0,92.35350799560547,-2599.080078125,17.010000228881836,-0.009491506032645702,-0.18628279864788055,-9.58738019107841e-05,1385.12646484375,-262.3573913574219,8.310999870300293,0.0,0.0,92.73999786376953,0.0,0.0,0.0,26.646224975585938,-1968.3905029296875,17.010000228881836,-0.009587380103766918,-1.5021506547927856,0.0,43.4901123046875,-941.4044799804688,8.3410005569458,0.12811287884572753,0.937894381102846,2.3960598970000007
0.0,0.0,92.73999786376953,0.0,0.0,0.0,26.646224975585938,-1968.3905029296875,17.010000228881836,-0.009587380103766918,-1.5021506547927856,0.0,43.4901123046875,-941.4044799804688,8.3410005569458,0.0,0.0,92.73999786376953,0.0,0.0,0.0,-45.02922439575195,-1878.380859375,17.010000228881836,-0.009683254174888134,-0.8345814347267151,0.0,-320.6878967285156,437.6214294433594,8.321000099182129,-0.47769048126949576,-0.5025381149125823,1.1718658540000035
0.0,0.0,92.73999786376953,0.0,0.0,0.0,-45.02922439575195,-1878.380859375,17.010000228881836,-0.009683254174888134,-0.8345814347267151,0.0,-320.6878967285156,437.6214294433594,8.321000099182129,0.0,0.0,92.73999786376953,0.0,0.0,0.0,278.55755615234375,-3723.864501953125,17.010000228881836,-0.009587380103766918,-1.8328194618225098,9.58738019107841e-05,-331.19854736328125,-1278.983642578125,8.321000099182129,0.812680083333329,-0.2198956915951955,2.5062578569999943
0.0,0.0,92.73999786376953,0.0,0.0,0.0,278.55755615234375,-3723.864501953125,17.010000228881836,-0.009587380103766918,-1.8328194618225098,9.58738019107841e-05,-331.19854736328125,-1278.983642578125,8.321000099182129,0.0,0.0,92.73999786376953,0.0,0.0,0.0,778.5506591796875,-5788.5224609375,37.567928314208984,0.11332283169031143,-0.7137804627418518,0.07142598181962967,1016.1137084960938,-903.603515625,222.67233276367188,0.9810372482925225,0.3446941023147654,1.6147367060000022
0.0,0.0,92.73999786376953,0.0,0.0,0.0,778.5506591796875,-5788.5224609375,37.567928314208984,0.11332283169031143,-0.7137804627418518,0.07142598181962967,1016.1137084960938,-903.603515625,222.67233276367188,0.0,0.0,92.73999786376953,0.0,0.0,0.0,875.5773315429688,-5196.1455078125,104.74019622802734,-0.6023750901222229,-1.7019517421722412,-1.4806749820709229,47.21465301513672,532.4456787109375,248.60482788085938,-0.38116517354389634,0.5947456741373733,1.8520136460000032
0.0,0.0,92.73999786376953,0.0,0.0,0.0,875.5773315429688,-5196.1455078125,104.74019622802734,-0.6023750901222229,-1.7019517421722412,-1.4806749820709229,47.21465301513672,532.4456787109375,248.60482788085938,0.0,0.0,92.73999786376953,0.0,0.0,0.0,1033.9697265625,-4630.5009765625,66.13935089111328,-0.34399518370628357,-2.758289098739624,-0.891530454158783,113.11312103271484,338.5870666503906,-168.6638946533203,-0.04962370356668244,0.9366227711784643,1.3055383839999877
0.0,0.0,92.73999786376953,0.0,0.0,0.0,1033.9697265625,-4630.5009765625,66.13935089111328,-0.34399518370628357,-2.758289098739624,-0.891530454158783,113.11312103271484,338.5870666503906,-168.6638946533203,0.0,0.0,92.73999786376953,0.0,0.0,0.0,598.7467041015625,-4156.3486328125,17.010000228881836,-0.009587380103766918,1.2375390529632568,0.0,246.60751342773438,709.5911865234375,8.331000328063965,0.4200909900132912,-0.8533131706146071,2.1088798160000124
0.0,0.0,92.73999786376953,0.0,0.0,0.0,598.7467041015625,-4156.3486328125,17.010000228881836,-0.009587380103766918,1.2375390529632568,0.0,246.60751342773438,709.5911865234375,8.331000328063965,0.0,0.0,92.73999786376953,0.0,0.0,0.0,627.11083984375,-4085.5166015625,17.010000228881836,-0.009779127314686775,1.107150673866272,-0.00028762139845639467,159.54600524902344,361.2364501953125,8.310999870300293,-0.5925946091499739,0.14538915993142565,0.12406551200000138
0.0,0.0,92.73999786376953,0.0,0.0,0.0,627.11083984375,-4085.5166015625,17.010000228881836,-0.009779127314686775,1.107150673866272,-0.00028762139845639467,159.54600524902344,361.2364501953125,8.310999870300293,0.0,0.0,92.73999786376953,0.0,0.0,0.0,1356.848388671875,-4000.90380859375,17.010000228881836,-0.009491506032645702,-0.7645935416221619,0.0,546.2236328125,-525.3131103515625,8.321000099182129,0.3291358109099609,-0.6081121099693525,1.5289794849999936
0.0,0.0,92.73999786376953,0.0,0.0,0.0,1356.848388671875,-4000.90380859375,17.010000228881836,-0.009491506032645702,-0.7645935416221619,0.0,546.2236328125,-525.3131103515625,8.321000099182129,0.0,0.0,92.73999786376953,0.0,0.0,0.0,1762.264404296875,-4407.3935546875,17.010000228881836,-0.009587380103766918,-0.7072610259056091,0.0,676.0892944335938,-579.2888793945312,8.321000099182129,0.26128453494905535,0.11625420191253455,0.6990930999999989
0.0,0.0,92.73999786376953,0.0,0.0,0.0,1762.264404296875,-4407.3935546875,17.010000228881836,-0.009587380103766918,-0.7072610259056091,0.0,676.0892944335938,-579.2888793945312,8.321000099182129,0.0,0.0,92.73999786376953,0.0,0.0,0.0,1545.4822998046875,-3390.05615234375,17.010000228881836,-0.009683254174888134,-1.8625402450561523,0.0,259.4508972167969,1077.5440673828125,8.321000099182129,-0.6836994287617963,0.36411451700949127,2.11344957
0.0,0.0,92.73999786376953,0.0,0.0,0.0,1545.4822998046875,-3390.05615234375,17.010000228881836,-0.009683254174888134,-1.8625402450561523,0.0,259.4508972167969,1077.5440673828125,8.321000099182129,0.0,0.0,92.73999786376953,0.0,0.0,0.0,1566.4151611328125,-3986.66064453125,17.010000228881836,-0.009491506032645702,-1.3589152097702026,0.0,210.59413146972656,-1004.7915649414062,8.321000099182129,0.7892209185408414,0.23255984636399618,1.6979230529999967
0.0,0.0,92.73999786376953,0.0,0.0,0.0,1566.4151611328125,-3986.66064453125,17.010000228881836,-0.009491506032645702,-1.3589152097702026,0.0,210.59413146972656,-1004.7915649414062,8.321000099182129,0.0,0.0,92.73999786376953,0.0,0.0,0.0,3906.875244140625,-3864.12841796875,47.58171463012695,-0.09117598086595535,1.3590110540390015,0.5101444721221924,305.175048828125,1380.89501953125,-101.75582885742188,0.792174447544419,0.46053966034766747,2.5784635389999977
0.0,0.0,92.73999786376953,0.0,0.0,0.0,3906.875244140625,-3864.12841796875,47.58171463012695,-0.09117598086595535,1.3590110540390015,0.5101444721221924,305.175048828125,1380.89501953125,-101.75582885742188,0.0,0.0,92.73999786376953,0.0,0.0,0.0,3949.76171875,-3557.2939453125,46.44649124145508,0.04180097579956055,1.4433799982070923,0.4670012891292572,-34.42844772338867,-104.7590560913086,-9.363211631774902,-0.38775317710127744,-0.28432037362129225,0.5916438460000109
0.0,0.0,92.73999786376953,0.0,0.0,0.0,3949.76171875,-3557.2939453125,46.44649124145508,0.04180097579956055,1.4433799982070923,0.4670012891292572,-34.42844772338867,-104.7590560913086,-9.363211631774902,0.0,0.0,92.73999786376953,0.0,0.0,0.0,3993.54345703125,-3441.47607421875,78.84318542480469,0.5268265008926392,0.9083083868026733,0.5105279684066772,71.4220962524414,88.48565673828125,68.47136688232422,0.19630230112567748,-0.9001618493775696,1.482471801999992
0.0,0.0,92.73999786376953,0.0,0.0,0.0,3993.54345703125,-3441.47607421875,78.84318542480469,0.5268265008926392,0.9083083868026733,0.5105279684066772,71.4220962524414,88.48565673828125,68.47136688232422,0.0,0.0,92.73999786376953,0.0,0.0,0.0,2542.131591796875,-1671.8060302734375,17.010000228881836,-0.009587380103766918,-2.97745680809021,0.0,-1373.9635009765625,-202.31234741210938,8.321000099182129,0.8003843739836758,0.4158667704641912,2.9775555920000016
0.0,0.0,92.73999786376953,0.0,0.0,0.0,2542.131591796875,-1671.8060302734375,17.010000228881836,-0.009587380103766918,-2.97745680809021,0.0,-1373.9635009765625,-202.31234741210938,8.321000099182129,0.0,0.0,92.73999786376953,0.0,0.0,0.0,1846.0648193359375,-1566.5445556640625,17.010000228881836,-0.009587380103766918,2.4150609970092773,0.0,-1000.4185180664062,814.5296020507812,8.3410005569458,0.09250767310705421,-0.9542583569483467,0.5399785529999974
0.0,0.0,92.73999786376953,0.0,0.0,0.0,1846.0648193359375,-1566.5445556640625,17.010000228881836,-0.009587380103766918,2.4150609970092773,0.0,-1000.4185180664062,814.5296020507812,8.3410005569458,0.0,0.0,92.73999786376953,0.0,0.0,0.0,1693.5433349609375,-1388.40869140625,17.010000228881836,-0.009875001385807991,2.0470974445343018,-9.58738019107841e-05,-194.35494995117188,370.236572265625,8.331000328063965,-0.794660486857846,-0.6113350373436639,0.2600382100000047
0.0,0.0,92.73999786376953,0.0,0.0,0.0,1693.5433349609375,-1388.40869140625,17.010000228881836,-0.009875001385807991,2.0470974445343018,-9.58738019107841e-05,-194.35494995117188,370.236572265625,8.331000328063965,0.0,0.0,92.73999786376953,0.0,0.0,0.0,2141.60986328125,-1621.0897216796875,17.010000228881836,-0.009587380103766918,-2.5984675884246826,0.0,-591.6512451171875,-350.3688049316406,8.331000328063965,0.19581081261662558,-0.8169354190969049,2.758482348000001
0.0,0.0,92.73999786376953,0.0,0.0,0.0,2141.60986328125,-1621.0897216796875,17.010000228881836,-0.009587380103766918,-2.5984675884246826,0.0,-591.6512451171875,-350.3688049316406,8.331000328063965,0.0,0.0,92.73999786376953,0.0,0.0,0.0,1877.638427734375,-1691.6717529296875,17.010000228881836,-0.009491506032645702,-3.1245272159576416,0.0,-746.191162109375,-11.3596830368042,8.321000099182129,0.24185588212535936,-0.516001607438821,0.3839595909999929
0.0,0.0,92.73999786376953,0.0,0.0,0.0,1877.638427734375,-1691.6717529296875,17.010000228881836,-0.009491506032645702,-3.1245272159576416,0.0,-746.191162109375,-11.3596830368042,8.321000099182129,0.0,0.0,92.73999786376953,0.0,0.0,0.0,1322.291259765625,-1755.4014892578125,17.010000228881836,-0.009587380103766918,-2.8358511924743652,0.0,-1037.490234375,-318.374755859375,8.321000099182129,0.9231203070316876,0.2988343774684534,0.7167058240000017
0.0,0.0,92.73999786376953,0.0,0.0,0.0,1322.291259765625,-1755.4014892578125,17.010000228881836,-0.009587380103766918,-2.8358511924743652,0.0,-1037.490234375,-318.374755859375,8.321000099182129,0.0,0.0,92.73999786376953,0.0,0.0,0.0,-353.0563049316406,-89.953369140625,17.010000228881836,-0.009491506032645702,1.22239089012146,0.0,448.244140625,1312.1468505859375,8.321000099182129,0.6438032189408918,-0.4420214853600102,2.3351353159999917
0.0,0.0,92.73999786376953,0.0,0.0,0.0,-353.0563049316406,-89.953369140625,17.010000228881836,-0.009491506032645702,1.22239089012146,0.0,448.244140625,1312.1468505859375,8.321000099182129,0.0,0.0,92.73999786376953,0.0,0.0,0.0,-415.96148681640625,-967.970703125,17.010000228881836,-0.009587380103766918,1.7297550439834595,9.58738019107841e-05,116.54866790771484,-888.399169921875,8.310999870300293,-0.3613581267321724,-0.1628871112905439,2.7664704970000003
0.0,0.0,92.73999786376953,0.0,0.0,0.0,-415.96148681640625,-967.970703125,17.010000228881836,-0.009587380103766918,1.7297550439834595,9.58738019107841e-05,116.54866790771484,-888.399169921875,8.310999870300293,0.0,0.0,92.73999786376953,0.0,0.0,0.0,-1308.9002685546875,-468.6782531738281,17.010000228881836,-0.009587380103766918,-2.7575221061706543,0.0,1079.1231689453125,596.1766357421875,8.321000099182129,-0.5930042596146097,0.817623105594719,2.725162050000023
0.0,0.0,92.73999786376953,0.0,0.0,0.0,-1308.9002685546875,-468.6782531738281,17.010000228881836,-0.009587380103766918,-2.7575221061706543,0.0,1079.1231689453125,596.1766357421875,8.321000099182129,0.0,0.0,92.73999786376953,0.0,0.0,0.0,-1254.522216796875,-440.9375915527344,17.010000228881836,-0.009587380103766918,-2.840165376663208,0.0,1038.7113037109375,474.622314453125,8.321000099182129,0.8411468480412778,0.9229850504179382,0.04997053599998935
0.0,0.0,92.73999786376953,0.0,0.0,0.0,-1254.522216796875,-440.9375915527344,17.010000228881836,-0.009587380103766918,-2.840165376663208,0.0,1038.7113037109375,474.622314453125,8.321000099182129,0.0,0.0,92.73999786376953,0.0,0.0,0.0,-2582.026611328125,-644.5718383789062,17.010000228881836,-0.009491506032645702,-2.9850306510925293,9.58738019107841e-05,-1285.6910400390625,-203.3765411376953,8.321000099182129,0.9591810340154423,-0.010163567274525498,2.155975638000001
0.0,0.0,92.73999786376953,0.0,0.0,0.0,-2582.026611328125,-644.5718383789062,17.010000228881836,-0.009491506032645702,-2.9850306510925293,9.58738019107841e-05,-1285.6910400390625,-203.3765411376953,8.321000099182129,0.0,0.0,92.73999786376953,0.0,0.0,0.0,-2839.9248046875,-706.9998779296875,17.010000228881836,-0.009779127314686775,-2.7338414192199707,9.58738019107841e-05,81.42720794677734,56.56660461425781,8.321000099182129,-0.6193056213238899,0.719797560238735,0.4935685620000072
0.0,0.0,92.73999786376953,0.0,0.0,0.0,-2839.9248046875,-706.9998779296875,17.010000228881836,-0.009779127314686775,-2.7338414192199707,9.58738019107841e-05,81.42720794677734,56.56660461425781,8.321000099182129,0.0,0.0,92.73999786376953,0.0,0.0,0.0,-2244.023681640625,-750.9348754882812,17.010000228881836,-0.009587380103766918,2.5468873977661133,0.0,814.1834106445312,-457.649658203125,8.321000099182129,-0.7953812716675712,0.4751398210190392,1.1989975310000034
0.0,0.0,92.73999786376953,0.0,0.0,0.0,-2244.023681640625,-750.9348754882812,17.010000228881836,-0.009587380103766918,2.5468873977661133,0.0,814.1834106445312,-457.649658203125,8.321000099182129,0.0,0.0,92.73999786376953,0.0,0.0,0.0,-1918.9840087890625,-954.22705078125,17.010000228881836,-0.009587380103766918,2.8334543704986572,0.0,871.180908203125,-363.20501708984375,8.310999870300293,-0.09641997646004463,-0.5128760409998021,0.40713938399997573
0.0,0.0,92.73999786376953,0.0,0.0,0.0,-1918.9840087890625,-954.22705078125,17.010000228881836,-0.009587380103766918,2.8334543704986572,0.0,871.180908203125,-363.20501708984375,8.310999870300293,0.0,0.0,92.73999786376953,0.0,0.0,0.0,-186.65342712402344,-1659.8389892578125,17.010000228881836,-0.009683254174888134,2.5884008407592773,0.0,1130.6585693359375,-677.0585327148438,8.310999870300293,-0.588626175547968,0.10269126009355722,1.627777129000009
0.0,0.0,92.73999786376953,0.0,0.0,0.0,-186.65342712402344,-1659.8389892578125,17.010000228881836,-0.009683254174888134,2.5884008407592773,0.0,1130.6585693359375,-677.0585327148438,8.310999870300293,0.0,0.0,92.73999786376953,0.0,0.0,0.0,-716.2689208984375,-1126.4324951171875,17.010000228881836,-0.009587380103766918,2.2670319080352783,0.0,-504.3751525878906,603.6701049804688,8.310999870300293,0.2937347498217586,-0.0895103968474451,2.7680188559999976
0.0,0.0,92.73999786376953,0.0,0.0,0.0,-716.2689208984375,-1126.4324951171875,17.010000228881836,-0.009587380103766918,2.2670319080352783,0.0,-504.3751525878906,603.6701049804688,8.310999870300293,0.0,0.0,92.73999786376953,0.0,0.0,0.0,-924.095947265625,-153.69309997558594,17.010000228881836,-0.009587380103766918,1.2538375854492188,0.0,265.3949279785156,819.2045288085938,8.310999870300293,0.11222036194615126,-0.3563099073941689,1.2555304699999965
0.0,0.0,92.73999786376953,0.0,0.0,0.0,-924.095947265625,-153.69309997558594,17.010000228881836,-0.009587380103766918,1.2538375854492188,0.0,265.3949279785156,819.2045288085938,8.310999870300293,0.0,0.0,92.73999786376953,0.0,0.0,0.0,-862.6443481445312,-685.6953125,17.010000228881836,-0.009587380103766918,2.109415292739868,0.0,330.3459777832031,-656.6721801757812,8.310999870300293,-0.3862327066277458,-0.3769102919459333,1.955985604999995
0.0,0.0,92.73999786376953,0.0,0.0,0.0,-862.6443481445312,-685.6953125,17.010000228881836,-0.009587380103766918,2.109415292739868,0.0,330.3459777832031,-656.6721801757812,8.310999870300293,0.0,0.0,92.73999786376953,0.0,0.0,0.0,870.3806762695312,186.40586853027344,17.010000228881836,-0.009587380103766918,-1.3265098333358765,0.0,-222.77557373046875,1312.516357421875,8.310999870300293,-0.6836610779391143,-0.5628567942236882,2.6039709690000166
0.0,0.0,92.73999786376953,0.0,0.0,0.0,870.3806762695312,186.40586853027344,17.010000228881836,-0.009587380103766918,-1.3265098333358765,0.0,-222.77557373046875,1312.516357421875,8.310999870300293,0.0,0.0,92.73999786376953,0.0,0.0,0.0,222.32809448242188,-516.1255493164062,17.010000228881836,-0.009587380103766918,-2.840069532394409,0.0,-1076.2320556640625,-353.0114440917969,8.310999870300293,0.7551751619954061,-0.47613378815364427,2.211083395000003
0.0,0.0,92.73999786376953,0.0,0.0,0.0,222.32809448242188,-516.1255493164062,17.010000228881836,-0.009587380103766918,-2.840069532394409,0.0,-1076.2320556640625,-353.0114440917969,8.310999870300293,0.0,0.0,92.73999786376953,0.0,0.0,0.0,171.64328002929688,-531.7431640625,17.010000228881836,-0.009587380103766918,-2.8887734413146973,-9.58738019107841e-05,-1003.6542358398438,-288.41656494140625,8.310999870300293,-0.7346652607115574,-0.05922082971458176,0.04802234499999258
0.0,0.0,92.73999786376953,0.0,0.0,0.0,171.64328002929688,-531.7431640625,17.010000228881836,-0.009587380103766918,-2.8887734413146973,-9.58738019107841e-05,-1003.6542358398438,-288.41656494140625,8.310999870300293,0.0,0.0,92.73999786376953,0.0,0.0,0.0,-318.0353088378906,-586.2825317382812,17.010000228881836,-0.009587380103766918,3.0879032611846924,0.0,-1155.030517578125,51.49340057373047,8.310999870300293,0.9096256538991299,-0.2921773591399517,0.4689842589999955
0.0,0.0,92.73999786376953,0.0,0.0,0.0,-318.0353088378906,-586.2825317382812,17.010000228881836,-0.009587380103766918,3.0879032611846924,0.0,-1155.030517578125,51.49340057373047,8.310999870300293,0.0,0.0,92.73999786376953,0.0,0.0,0.0,-1496.8363037109375,-1066.515380859375,17.010000228881836,-0.009587380103766918,-2.1717333793640137,0.0,-724.337646484375,-1017.3424072265625,8.310999870300293,0.3745076080547538,0.460279163168851,1.300483282000016
0.0,0.0,92.73999786376953,0.0,0.0,0.0,-1496.8363037109375,-1066.515380859375,17.010000228881836,-0.009587380103766918,-2.1717333793640137,0.0,-724.337646484375,-1017.3424072265625,8.310999870300293,0.0,0.0,92.73999786376953,0.0,0.0,0.0,-1606.9384765625,-1754.20556640625,17.010000228881836,-0.009587380103766918,-1.1540329456329346,0.0,448.1171569824219,-1106.496337890625,8.331000328063965,0.22646037657567408,0.79509564831808,0.5941402489999916
0.0,0.0,92.73999786376953,0.0,0.0,0.0,-1606.9384765625,-1754.20556640625,17.010000228881836,-0.009587380103766918,-1.1540329456329346,0.0,448.1171569824219,-1106.496337890625,8.331000328063965,0.0,0.0,92.73999786376953,0.0,0.0,0.0,-1538.1455078125,-1898.0020751953125,17.010000228881836,-0.009683254174888134,-1.0781009197235107,9.58738019107841e-05,-270.1852111816406,325.7357177734375,8.331000328063965,-0.9605644765522141,0.8679498789951345,0.6789599040000098
0.0,0.0,92.73999786376953,0.0,0.0,0.0,-1538.1455078125,-1898.0020751953125,17.010000228881836,-0.009683254174888134,-1.0781009197235107,9.58738019107841e-05,-270.1852111816406,325.7357177734375,8.331000328063965,0.0,0.0,92.73999786376953,0.0,0.0,0.0,-1595.2735595703125,-1779.822998046875,17.010000228881836,-0.009683254174888134,-1.4389698505401611,0.0,-151.5677947998047,568.0852661132812,8.331000328063965,-0.6025608442098271,0.6107029780903008,0.25441790499999684
0.0,0.0,92.73999786376953,0.0,0.0,0.0,-1595.2735595703125,-1779.822998046875,17.010000228881836,-0.009683254174888134,-1.4389698505401611,0.0,-151.5677947998047,568.0852661132812,8.331000328063965,0.0,0.0,92.73999786376953,0.0,0.0,0.0,29.634119033813477,-2940.974365234375,17.010000228881836,-0.009491506032645702,0.004218447022140026,0.0,1365.05419921875,-11.103043556213379,8.321000099182129,0.8869205873112247,0.29546844847414455,2.6339716969999927
0.0,0.0,92.73999786376953,0.0,0.0,0.0,29.634119033813477,-2940.974365234375,17.010000228881836,-0.009491506032645702,0.004218447022140026,0.0,1365.05419921875,-11.103043556213379,8.321000099182129,0.0,0.0,92.73999786376953,0.0,0.0,0.0,806.5546875,-2655.310546875,17.010000228881836,-0.009587380103766918,0.8101335763931274,0.0,928.5247802734375,925.8490600585938,8.321000099182129,0.05316362925310103,0.6125433295649085,0.6330182719999868
0.0,0.0,92.73999786376953,0.0,0.0,0.0,806.5546875,-2655.310546875,17.010000228881836,-0.009587380103766918,0.8101335763931274,0.0,928.5247802734375,925.8490600585938,8.321000099182129,0.0,0.0,92.73999786376953,0.0,0.0,0.0,1436.905517578125,-2677.95361328125,17.010000228881836,-0.009587380103766918,-1.6031057834625244,0.0,159.31597900390625,659.309814453125,8.331000328063965,-0.2856993907288401,-0.9789632249416933,2.9450522310000053
0.0,0.0,92.73999786376953,0.0,0.0,0.0,1436.905517578125,-2677.95361328125,17.010000228881836,-0.009587380103766918,-1.6031057834625244,0.0,159.31597900390625,659.309814453125,8.331000328063965,0.0,0.0,92.73999786376953,0.0,0.0,0.0,1226.45068359375,-2168.101318359375,17.010000228881836,-0.009587380103766918,-0.609853208065033,0.0,-629.9811401367188,543.0903930664062,8.331000328063965,-0.33180552716947576,-0.5506306760682682,0.7660788780000019
0.0,0.0,92.73999786376953,0.0,0.0,0.0,1226.45068359375,-2168.101318359375,17.010000228881836,-0.009587380103766918,-0.609853208065033,0.0,-629.9811401367188,543.0903930664062,8.331000328063965,0.0,0.0,92.73999786376953,0.0,0.0,0.0,291.7035217285156,-2933.66552734375,17.010000228881836,-0.009587380103766918,2.1376023292541504,0.0,436.7838134765625,-900.2269897460938,8.321000099182129,-0.28816066311505373,-0.7057629403976651,1.838476548000017
0.0,0.0,92.73999786376953,0.0,0.0,0.0,291.7035217285156,-2933.66552734375,17.010000228881836,-0.009587380103766918,2.1376023292541504,0.0,436.7838134765625,-900.2269897460938,8.321000099182129,0.0,0.0,92.73999786376953,0.0,0.0,0.0,529.966796875,-3203.2216796875,17.010000228881836,-0.009587380103766918,2.732499122619629,0.0,861.4007568359375,-518.777587890625,8.321000099182129,-0.2357182528226447,-0.8113920348924646,0.35997220400000174
0.0,0.0,92.73999786376953,0.0,0.0,0.0,529.966796875,-3203.2216796875,17.010000228881836,-0.009587380103766918,2.732499122619629,0.0,861.4007568359375,-518.777587890625,8.321000099182129,0.0,0.0,92.73999786376953,0.0,0.0,0.0,25.63343620300293,-4154.1103515625,17.010000228881836,-0.009587380103766918,-1.3592028617858887,0.0,-265.3262939453125,749.5116577148438,8.321000099182129,-0.028525632630937103,0.6745774664066455,2.9845028189999994
0.0,0.0,92.73999786376953,0.0,0.0,0.0,25.63343620300293,-4154.1103515625,17.010000228881836,-0.009587380103766918,-1.3592028617858887,0.0,-265.3262939453125,749.5116577148438,8.321000099182129,0.0,0.0,92.73999786376953,0.0,0.0,0.0,79.2663345336914,-4334.17041015625,17.010000228881836,-0.009587380103766918,-1.1751251220703125,9.58738019107841e-05,143.4720001220703,-326.4346618652344,8.321000099182129,0.15492310235918905,0.20251544802730903,1.8600606949999872
0.0,0.0,92.73999786376953,0.0,0.0,0.0,79.2663345336914,-4334.17041015625,17.010000228881836,-0.009587380103766918,-1.1751251220703125,9.58738019107841e-05,143.4720001220703,-326.4346618652344,8.321000099182129,0.0,0.0,92.73999786376953,0.0,0.0,0.0,160.59988403320312,-4042.371337890625,17.010000228881836,-0.009587380103766918,-2.6887807846069336,0.0,448.822265625,340.79254150390625,8.331000328063965,-0.41415566215607424,0.9131315373025506,1.2759646730000043
0.0,0.0,92.73999786376953,0.0,0.0,0.0,160.59988403320312,-4042.371337890625,17.010000228881836,-0.009587380103766918,-2.6887807846069336,0.0,448.822265625,340.79254150390625,8.331000328063965,0.0,0.0,92.73999786376953,0.0,0.0,0.0,1096.36669921875,-3839.7568359375,17.010000228881836,-0.009587380103766918,-3.061825752258301,0.0,780.0203247070312,72.58320617675781,8.321000099182129,-0.18145983303185953,0.07290081146017613,1.5264066259999822
0.0,0.0,92.73999786376953,0.0,0.0,0.0,1096.36669921875,-3839.7568359375,17.010000228881836,-0.009587380103766918,-3.061825752258301,0.0,780.0203247070312,72.58320617675781,8.321000099182129,0.0,0.0,92.73999786376953,0.0,0.0,0.0,1311.13916015625,-3130.021484375,17.010000228881836,-0.009587380103766918,-0.09539443254470825,0.0,-756.0606079101562,227.74815368652344,8.3410005569458,-0.2247292825358631,-0.9897877975548606,1.4204751490000262
0.0,0.0,92.73999786376953,0.0,0.0,0.0,1311.13916015625,-3130.021484375,17.010000228881836,-0.009587380103766918,-0.09539443254470825,0.0,-756.0606079101562,227.74815368652344,8.3410005569458,0.0,0.0,92.73999786376953,0.0,0.0,0.0,1374.6016845703125,-2842.73974609375,17.010000228881836,-0.009587380103766918,1.6895840167999268,0.0,-85.71194458007812,517.9749145507812,8.331000328063965,0.36006264490301154,0.9690072724382783,1.4404409939999994
0.0,0.0,92.73999786376953,0.0,0.0,0.0,1374.6016845703125,-2842.73974609375,17.010000228881836,-0.009587380103766918,1.6895840167999268,0.0,-85.71194458007812,517.9749145507812,8.331000328063965,0.0,0.0,92.73999786376953,0.0,0.0,0.0,1899.199951171875,-2888.739990234375,17.010000228881836,-0.009587380103766918,-2.09503436088562,0.0,304.5410461425781,377.52093505859375,8.321000099182129,-0.15803671013094744,-0.7223045699176425,2.786073320999975
0.0,0.0,92.73999786376953,0.0,0.0,0.0,1899.199951171875,-2888.739990234375,17.010000228881836,-0.009587380103766918,-2.09503436088562,0.0,304.5410461425781,377.52093505859375,8.321000099182129,0.0,0.0,92.73999786376953,0.0,0.0,0.0,1512.51513671875,-3065.000244140625,17.010000228881836,-0.009491506032645702,3.1245272159576416,0.0,-757.614990234375,14.9998779296875,8.310999870300293,0.5911765375054008,-0.5967538066166496,1.3255192370000088
0.0,0.0,92.73999786376953,0.0,0.0,0.0,1512.51513671875,-3065.000244140625,17.010000228881836,-0.009491506032645702,3.1245272159576416,0.0,-757.614990234375,14.9998779296875,8.310999870300293,0.0,0.0,92.73999786376953,0.0,0.0,0.0,918.3001098632812,-1406.249267578125,17.010000228881836,-0.009587380103766918,0.8474285006523132,0.0,658.7051391601562,759.5642700195312,8.310999870300293,0.1931357899256061,-0.38687603324305586,2.4490574920000086
0.0,0.0,92.73999786376953,0.0,0.0,0.0,918.3001098632812,-1406.249267578125,17.010000228881836,-0.009587380103766918,0.8474285006523132,0.0,658.7051391601562,759.5642700195312,8.310999870300293,0.0,0.0,92.73999786376953,0.0,0.0,0.0,889.0517578125,-1473.10009765625,17.010000228881836,-0.009587380103766918,1.2611238956451416,0.0,-98.00532531738281,-230.0723419189453,8.310999870300293,-0.08542236393444513,-0.410179145892811,2.3910812489999955
0.0,0.0,92.73999786376953,0.0,0.0,0.0,889.0517578125,-1473.10009765625,17.010000228881836,-0.009587380103766918,1.2611238956451416,0.0,-98.00532531738281,-230.0723419189453,8.310999870300293,0.0,0.0,92.73999786376953,0.0,0.0,0.0,-625.8590698242188,-1276.66162109375,17.010000228881836,-0.009491506032645702,-2.100019693374634,0.0,-626.351318359375,-1025.7850341796875,8.310999870300293,0.6271479252836465,0.5125089444083,2.731081095999997
0.0,0.0,92.73999786376953,0.0,0.0,0.0,-625.8590698242188,-1276.66162109375,17.010000228881836,-0.009491506032645702,-2.100019693374634,0.0,-626.351318359375,-1025.7850341796875,8.310999870300293,0.0,0.0,92.73999786376953,0.0,0.0,0.0,-671.185791015625,-1325.1502685546875,17.010000228881836,-0.009683254174888134,-1.5008084774017334,0.0,65.4849624633789,518.7864990234375,8.331000328063965,-0.646412700172009,-0.8910528944876821,1.0116446899999971
0.0,0.0,92.73999786376953,0.0,0.0,0.0,-671.185791015625,-1325.1502685546875,17.010000228881836,-0.009683254174888134,-1.5008084774017334,0.0,65.4849624633789,518.7864990234375,8.331000328063965,0.0,0.0,92.73999786376953,0.0,0.0,0.0,-669.7898559570312,-1280.645263671875,17.010000228881836,-0.009683254174888134,-1.379815697669983,0.0001917476038215682,-50.36965560913086,554.8700561523438,8.321000099182129,-0.5259677412281776,-0.035179349714788755,0.08043367600001261
0.0,0.0,92.73999786376953,0.0,0.0,0.0,-669.7898559570312,-1280.645263671875,17.010000228881836,-0.009683254174888134,-1.379815697669983,0.0001917476038215682,-50.36965560913086,554.8700561523438,8.321000099182129,0.0,0.0,92.73999786376953,0.0,0.0,0.0,-204.2474365234375,-1433.5731201171875,17.010000228881836,-0.009587380103766918,0.28426581621170044,0.0,458.5668640136719,150.0306854248047,8.310999870300293,0.17446754017098876,0.5886124204461334,2.3714874860000066
0.0,0.0,92.73999786376953,0.0,0.0,0.0,-204.2474365234375,-1433.5731201171875,17.010000228881836,-0.009587380103766918,0.28426581621170044,0.0,458.5668640136719,150.0306854248047,8.310999870300293,0.0,0.0,92.73999786376953,0.0,0.0,0.0,-716.4227294921875,-1136.7777099609375,17.010000228881836,-0.009587380103766918,-1.4124127626419067,0.0,-133.32171630859375,477.1982116699219,8.310999870300293,-0.14659270619923492,0.5430291453471541,2.888419051999989
0.0,0.0,92.73999786376953,0.0,0.0,0.0,-716.4227294921875,-1136.7777099609375,17.010000228881836,-0.009587380103766918,-1.4124127626419067,0.0,-133.32171630859375,477.1982116699219,8.310999870300293,0.0,0.0,92.73999786376953,0.0,0.0,0.0,-593.5795288085938,-632.2091064453125,17.010000228881836,-0.009587380103766918,-2.9590489864349365,0.0,-808.3035278320312,-140.67379760742188,8.3410005569458,0.4095665273217448,0.9671692394869977,2.841424603000007
0.0,0.0,92.73999786376953,0.0,0.0,0.0,-593.5795288085938,-632.2091064453125,17.010000228881836,-0.009587380103766918,-2.9590489864349365,0.0,-808.3035278320312,-140.67379760742188,8.3410005569458,0.0,0.0,92.73999786376953,0.0,0.0,0.0,-342.2919616699219,-592.6962280273438,17.010000228881836,-0.009491506032645702,-2.3518800735473633,0.0,-808.0823974609375,-874.6677856445312,8.3410005569458,0.6856774843790969,-0.8634418282540495,2.9545253109999976
0.0,0.0,92.73999786376953,0.0,0.0,0.0,-342.2919616699219,-592.6962280273438,17.010000228881836,-0.009491506032645702,-2.3518800735473633,0.0,-808.0823974609375,-874.6677856445312,8.3410005569458,0.0,0.0,92.73999786376953,0.0,0.0,0.0,-2221.580078125,-1250.7109375,17.010000228881836,-0.009491506032645702,-3.1252942085266113,0.0,-1397.649658203125,-32.95819091796875,8.310999870300293,0.5896192767094703,-0.17900959643155367,1.5588278689999981
0.0,0.0,92.73999786376953,0.0,0.0,0.0,-2221.580078125,-1250.7109375,17.010000228881836,-0.009491506032645702,-3.1252942085266113,0.0,-1397.649658203125,-32.95819091796875,8.310999870300293,0.0,0.0,92.73999786376953,0.0,0.0,0.0,-3007.204833984375,-898.7990112304688,17.010000228881836,-0.009587380103766918,2.1001155376434326,9.58738019107841e-05,-741.5377807617188,1161.4649658203125,8.331000328063965,0.9480428510875338,-0.8332295823479268,0.6512607599999853
0.0,0.0,92.73999786376953,0.0,0.0,0.0,-3007.204833984375,-898.7990112304688,17.010000228881836,-0.009587380103766918,2.1001155376434326,9.58738019107841e-05,-741.5377807617188,1161.4649658203125,8.331000328063965,0.0,0.0,92.73999786376953,0.0,0.0,0.0,-4071.03759765625,-1263.39453125,206.2064971923828,-0.8076409101486206,-1.32622230052948,1.2783812284469604,169.58688354492188,-733.5738525390625,-750.9478759765625,0.1525105610814952,0.8147133495558647,2.055256137000015
0.0,0.0,92.73999786376953,0.0,0.0,0.0,-4071.03759765625,-1263.39453125,206.2064971923828,-0.8076409101486206,-1.32622230052948,1.2783812284469604,169.58688354492188,-733.5738525390625,-750.9478759765625,0.0,0.0,92.73999786376953,0.0,0.0,0.0,-1289.178466796875,-152.9460906982422,17.010000228881836,-0.009587380103766918,1.305992841720581,0.0,386.8375549316406,1353.6090087890625,8.321000099182129,0.787244451590577,0.3228045204143364,2.8270697199999972
0.0,0.0,92.73999786376953,0.0,0.0,0.0,-1289.178466796875,-152.9460906982422,17.010000228881836,-0.009587380103766918,1.305992841720581,0.0,386.8375549316406,1353.6090087890625,8.321000099182129,0.0,0.0,92.73999786376953,0.0,0.0,0.0,-1187.8414306640625,-623.4738159179688,17.010000228881836,-0.009587380103766918,1.9273509979248047,0.0,314.81561279296875,-972.8214721679688,8.310999870300293,-0.7820394350344795,-0.27543786598495057,1.7844363309999949
0.0,0.0,92.73999786376953,0.0,0.0,0.0,-1187.8414306640625,-623.4738159179688,17.010000228881836,-0.009587380103766918,1.9273509979248047,0.0,314.81561279296875,-972.8214721679688,8.310999870300293,0.0,0.0,92.73999786376953,0.0,0.0,0.0,-1175.306640625,-661.0051879882812,17.010000228881836,-0.009587380103766918,1.9483473300933838,0.0,328.6240234375,-920.7837524414062,8.310999870300293,0.33355369528655965,0.23823600007317536,0.038026255999994873
0.0,0.0,92.73999786376953,0.0,0.0,0.0,-1175.306640625,-661.0051879882812,17.010000228881836,-0.009587380103766918,1.9483473300933838,0.0,328.6240234375,-920.7837524414062,8.310999870300293,0.0,0.0,92.73999786376953,0.0,0.0,0.0,-1060.4749755859375,-928.6607666015625,17.010000228881836,-0.009587380103766918,2.127439498901367,0.0,481.0107421875,-878.03955078125,8.310999870300293,-0.6863457089746985,-0.34347842963141817,0.30850682800002005
0.0,0.0,92.73999786376953,0.0,0.0,0.0,-1060.4749755859375,-928.6607666015625,17.010000228881836,-0.009587380103766918,2.127439498901367,0.0,481.0107421875,-878.03955078125,8.310999870300293,0.0,0.0,92.73999786376953,0.0,0.0,0.0,-977.0433959960938,-1061.248291015625,17.010000228881836,-0.009587380103766918,2.116222381591797,0.0,-52.00396728515625,67.78353118896484,8.301000595092773,0.1406628220171604,0.5626472796730277,0.7235324209999874
0.0,0.0,92.73999786376953,0.0,0.0,0.0,-977.0433959960938,-1061.248291015625,17.010000228881836,-0.009587380103766918,2.116222381591797,0.0,-52.00396728515625,67.78353118896484,8.301000595092773,0.0,0.0,92.73999786376953,0.0,0.0,0.0,-736.1693115234375,-2641.663818359375,17.010000228881836,-0.009683254174888134,1.389978289604187,9.58738019107841e-05,-199.63575744628906,-1286.546142578125,8.301000595092773,-0.9165644847204759,0.193334456565861,2.000088914999992
0.0,0.0,92.73999786376953,0.0,0.0,0.0,-736.1693115234375,-2641.663818359375,17.010000228881836,-0.009683254174888134,1.389978289604187,9.58738019107841e-05,-199.63575744628906,-1286.546142578125,8.301000595092773,0.0,0.0,92.73999786376953,0.0,0.0,0.0,-782.4647827148438,-2879.190673828125,17.010000228881836,-0.009299758821725845,1.106479525566101,0.0,-140.7145538330078,-447.9030456542969,8.301000595092773,0.7612366113253939,0.8497107796181125,0.2590482580000071
0.0,0.0,92.73999786376953,0.0,0.0,0.0,-782.4647827148438,-2879.190673828125,17.010000228881836,-0.009299758821725845,1.106479525566101,0.0,-140.7145538330078,-447.9030456542969,8.301000595092773,0.0,0.0,92.73999786376953,0.0,0.0,0.0,-815.016357421875,-2941.005859375,17.010000228881836,-0.009587380103766918,1.169180989265442,-0.00028762139845639467,-255.63233947753906,-416.51806640625,8.309433937072754,-0.8034423768723877,-0.8297157325693878,0.16180435300000795
0.0,0.0,92.73999786376953,0.0,0.0,0.0,-815.016357421875,-2941.005859375,17.010000228881836,-0.009587380103766918,1.169180989265442,-0.00028762139845639467,-255.63233947753906,-416.51806640625,8.309433937072754,0.0,0.0,92.73999786376953,0.0,0.0,0.0,-1770.4622802734375,-1669.54150390625,17.010000228881836,-0.009587380103766918,2.8152382373809814,0.0,-1063.30517578125,370.31451416015625,8.301000595092773,0.5146897091118179,0.29347091187782426,2.7275080910000042
0.0,0.0,92.73999786376953,0.0,0.0,0.0,-1770.4622802734375,-1669.54150390625,17.010000228881836,-0.009587380103766918,2.8152382373809814,0.0,-1063.30517578125,370.31451416015625,8.301000595092773,0.0,0.0,92.73999786376953,0.0,0.0,0.0,-2490.391845703125,-1299.592529296875,17.010000228881836,-0.009491506032645702,2.4173619747161865,0.0,-927.4769287109375,801.322998046875,8.310999870300293,0.43292387564915846,-0.3168319441828289,0.6915192239999897
0.0,0.0,92.73999786376953,0.0,0.0,0.0,-2490.391845703125,-1299.592529296875,17.010000228881836,-0.009491506032645702,2.4173619747161865,0.0,-927.4769287109375,801.322998046875,8.310999870300293,0.0,0.0,92.73999786376953,0.0,0.0,0.0,-3188.70849609375,-1839.9139404296875,17.010000228881836,-0.009683254174888134,-0.48301219940185547,0.0,-1007.1646118164062,364.5126037597656,8.331000328063965,-0.7408311059808197,0.8434343471641597,2.2594931129999907
0.0,0.0,92.73999786376953,0.0,0.0,0.0,-3188.70849609375,-1839.9139404296875,17.010000228881836,-0.009683254174888134,-0.48301219940185547,0.0,-1007.1646118164062,364.5126037597656,8.331000328063965,0.0,0.0,92.73999786376953,0.0,0.0,0.0,-3346.4296875,-1756.1336669921875,17.010000228881836,-0.009299758821725845,-0.7341057062149048,-9.58738019107841e-05,-220.3474884033203,159.93576049804688,8.321000099182129,0.17260114160125606,0.5000872859737333,0.25404072700001734
0.0,0.0,92.73999786376953,0.0,0.0,0.0,-3346.4296875,-1756.1336669921875,17.010000228881836,-0.009299758821725845,-0.7341057062149048,-9.58738019107841e-05,-220.3474884033203,159.93576049804688,8.321000099182129,0.0,0.0,92.73999786376953,0.0,0.0,0.0,-3002.850341796875,-2178.35791015625,17.010000228881836,-0.009587380103766918,-0.9651615619659424,0.0,543.7672119140625,-782.740966796875,8.310999870300293,0.9052131180945988,-0.10043802498717103,1.098014685999999
0.0,0.0,92.73999786376953,0.0,0.0,0.0,-3002.850341796875,-2178.35791015625,17.010000228881836,-0.009587380103766918,-0.9651615619659424,0.0,543.7672119140625,-782.740966796875,8.310999870300293,0.0,0.0,92.73999786376953,0.0,0.0,0.0,-2518.74658203125,-4948.00341796875,18.21839141845703,0.03278883919119835,-1.794182300567627,-0.015148060396313667,-304.626708984375,-1330.290283203125,143.45089721679688,0.5643016356915291,-0.1600982314314212,2.357521391000006
0.0,0.0,92.73999786376953,0.0,0.0,0.0,-2518.74658203125,-4948.00341796875,18.21839141845703,0.03278883919119835,-1.794182300567627,-0.015148060396313667,-304.626708984375,-1330.290283203125,143.45089721679688,0.0,0.0,92.73999786376953,0.0,0.0,0.0,-2521.737060546875,-4889.89697265625,16.574665069580078,-0.016682041808962822,-1.8307101726531982,0.0025885924696922302,113.55579376220703,472.581298828125,12.174286842346191,-0.23204411284936066,0.14445190489810744,1.1119787979999955
0.0,0.0,92.73999786376953,0.0,0.0,0.0,-2521.737060546875,-4889.89697265625,16.574665069580078,-0.016682041808962822,-1.8307101726531982,0.0025885924696922302,113.55579376220703,472.581298828125,12.174286842346191,0.0,0.0,92.73999786376953,0.0,0.0,0.0,-1501.335205078125,-5102.97998046875,283.8436279296875,-0.5557804107666016,-0.01131310872733593,1.576836347579956,959.1947631835938,8.361000061035156,-604.8203125,0.716735417202589,0.5433314240967604,2.413017088999993
