ballLocX_0,ballLocY_0,ballLocZ_0,ballVelX_0,ballVelY_0,ballVelZ_0,carLocX_0,carLocY_0,carLocZ_0,carPitch_0,carYaw_0,carRoll_0,carVelX_0,carVelY_0,carVelZ_0,ballLocX_1,ballLocY_1,ballLocZ_1,ballVelX_1,ballVelY_1,ballVelZ_1,carLocX_1,carLocY_1,carLocZ_1,carPitch_1,carYaw_1,carRoll_1,carVelX_1,carVelY_1,carVelZ_1,throttle,steer,time
0.0,0.0,92.73999786376953,0.0,0.0,0.0,1620.764892578125,-3593.1904296875,17.010000228881836,-0.009587380103766918,0.17439444363117218,0.0,-1058.7919921875,-286.12701416015625,8.321000099182129,0.0,0.0,92.73999786376953,0.0,0.0,0.0,-1874.3402099609375,-4021.453857421875,17.010000228881836,-0.009587380103766918,0.13757890462875366,-9.58738019107841e-05,-1396.917236328125,-191.9703826904297,8.321000099182129,-0.9075045534762478,-0.005749476244114479,2.615828316788339
0.0,0.0,92.73999786376953,0.0,0.0,0.0,-1874.3402099609375,-4021.453857421875,17.010000228881836,-0.009587380103766918,0.13757890462875366,-9.58738019107841e-05,-1396.917236328125,-191.9703826904297,8.321000099182129,0.0,0.0,92.73999786376953,0.0,0.0,0.0,-1967.5380859375,-2836.69775390625,17.010000228881836,-0.009587380103766918,2.4578206539154053,0.0,-810.823486328125,680.4503784179688,8.310999870300293,0.5151359433043877,0.520268268041193,2.8609696611704836
0.0,0.0,92.73999786376953,0.0,0.0,0.0,-1967.5380859375,-2836.69775390625,17.010000228881836,-0.009587380103766918,2.4578206539154053,0.0,-810.823486328125,680.4503784179688,8.310999870300293,0.0,0.0,92.73999786376953,0.0,0.0,0.0,-2292.97021484375,-768.8158569335938,17.010000228881836,-0.009587380103766918,0.8737937808036804,-9.58738019107841e-05,869.3563232421875,1076.728759765625,8.310999870300293,0.7287830865420881,-0.41366737321413644,1.884968374458194
0.0,0.0,92.73999786376953,0.0,0.0,0.0,-2292.97021484375,-768.8158569335938,17.010000228881836,-0.009587380103766918,0.8737937808036804,-9.58738019107841e-05,869.3563232421875,1076.728759765625,8.310999870300293,0.0,0.0,92.73999786376953,0.0,0.0,0.0,-1439.5892333984375,491.02239990234375,17.010000228881836,-0.009587380103766918,1.176946759223938,0.0,549.0712280273438,1295.343017578125,8.310999870300293,0.2341255232890993,0.17069977668237932,1.093019897317867
0.0,0.0,92.73999786376953,0.0,0.0,0.0,-1439.5892333984375,491.02239990234375,17.010000228881836,-0.009587380103766918,1.176946759223938,0.0,549.0712280273438,1295.343017578125,8.310999870300293,0.0,0.0,92.73999786376953,0.0,0.0,0.0,-625.07958984375,518.7346801757812,17.010000228881836,-0.009683254174888134,-1.8362709283828735,0.0,422.2576904296875,929.7617797851562,8.3410005569458,-0.7207012305114144,-0.9582597633974743,2.3290877113596267
0.0,0.0,92.73999786376953,0.0,0.0,0.0,-625.07958984375,518.7346801757812,17.010000228881836,-0.009683254174888134,-1.8362709283828735,0.0,422.2576904296875,929.7617797851562,8.3410005569458,0.0,0.0,92.73999786376953,0.0,0.0,0.0,1175.09814453125,2543.2822265625,17.010000228881836,-0.009587380103766918,-2.899127721786499,0.0,1343.6351318359375,380.8575439453125,8.301000595092773,-0.5855743254719171,0.26852902518952126,2.3153014273614936
0.0,0.0,92.73999786376953,0.0,0.0,0.0,1175.09814453125,2543.2822265625,17.010000228881836,-0.009587380103766918,-2.899127721786499,0.0,1343.6351318359375,380.8575439453125,8.301000595092773,0.0,0.0,92.73999786376953,0.0,0.0,0.0,2728.808837890625,4216.0185546875,17.010000228881836,-0.009491506032645702,-1.557949185371399,0.0,59.13688659667969,1408.4947509765625,8.310999870300293,-0.8978910378232112,-0.4380120371850512,1.7660035548824986
0.0,0.0,92.73999786376953,0.0,0.0,0.0,2728.808837890625,4216.0185546875,17.010000228881836,-0.009491506032645702,-1.557949185371399,0.0,59.13688659667969,1408.4947509765625,8.310999870300293,0.0,0.0,92.73999786376953,0.0,0.0,0.0,2721.640869140625,4500.72705078125,17.010000228881836,-0.009587380103766918,-1.5276530981063843,-9.58738019107841e-05,6.724919319152832,-100.30787658691406,8.310999870300293,0.0832660716421153,0.1342946875010619,1.2079790320265076
0.0,0.0,92.73999786376953,0.0,0.0,0.0,2721.640869140625,4500.72705078125,17.010000228881836,-0.009587380103766918,-1.5276530981063843,-9.58738019107841e-05,6.724919319152832,-100.30787658691406,8.310999870300293,0.0,0.0,92.73999786376953,0.0,0.0,0.0,2396.54736328125,5103.015625,362.9189758300781,-0.9317016005516052,0.01764077879488468,-1.585560917854309,-529.6641845703125,-9.023646354675293,736.7426147460938,-0.9715680190311354,-0.18273202640729222,1.5119390420053236
0.0,0.0,92.73999786376953,0.0,0.0,0.0,2396.54736328125,5103.015625,362.9189758300781,-0.9317016005516052,0.01764077879488468,-1.585560917854309,-529.6641845703125,-9.023646354675293,736.7426147460938,0.0,0.0,92.73999786376953,0.0,0.0,0.0,2346.0322265625,5102.98974609375,432.0271301269531,-0.8426347970962524,0.01438106968998909,-1.5815341472625732,-323.8128662109375,-8.3410005569458,435.091796875,0.031220262512583807,-0.8506209191104257,0.10799463454567615
0.0,0.0,92.73999786376953,0.0,0.0,0.0,2346.0322265625,5102.98974609375,432.0271301269531,-0.8426347970962524,0.01438106968998909,-1.5815341472625732,-323.8128662109375,-8.3410005569458,435.091796875,0.0,0.0,92.73999786376953,0.0,0.0,0.0,2153.960693359375,5102.98974609375,573.7847290039062,-0.26681679487228394,0.010066748596727848,-1.5733848810195923,-609.043212890625,-8.361000061035156,224.9559783935547,-0.844001542053335,-0.6128780784001285,0.4590725534131437
0.0,0.0,92.73999786376953,0.0,0.0,0.0,2153.960693359375,5102.98974609375,573.7847290039062,-0.26681679487228394,0.010066748596727848,-1.5733848810195923,-609.043212890625,-8.361000061035156,224.9559783935547,0.0,0.0,92.73999786376953,0.0,0.0,0.0,2709.015625,5091.52001953125,841.2872924804688,1.4439553022384644,2.9198365211486816,1.488440752029419,302.321533203125,-56.65781021118164,-1373.552734375,-0.7665610105617636,0.7663724261313355,2.7908475226116174
0.0,0.0,92.73999786376953,0.0,0.0,0.0,2709.015625,5091.52001953125,841.2872924804688,1.4439553022384644,2.9198365211486816,1.488440752029419,302.321533203125,-56.65781021118164,-1373.552734375,0.0,0.0,92.73999786376953,0.0,0.0,0.0,2720.81103515625,5089.19384765625,451.3327331542969,1.2539334297180176,-0.1439065784215927,-1.5661944150924683,7.351917743682861,-9.649944305419922,19.089088439941406,0.8336267472058189,0.6634480881546095,0.5680537428914363
0.0,0.0,92.73999786376953,0.0,0.0,0.0,2720.81103515625,5089.19384765625,451.3327331542969,1.2539334297180176,-0.1439065784215927,-1.5661944150924683,7.351917743682861,-9.649944305419922,19.089088439941406,0.0,0.0,92.73999786376953,0.0,0.0,0.0,3335.9775390625,4703.96630859375,437.6609802246094,-0.7650729417800903,-0.7724552154541016,-1.5798084735870361,493.5535888671875,-505.5346984863281,-693.066650390625,0.5817636414458762,-0.6073297492157071,2.0590236787342207
0.0,0.0,92.73999786376953,0.0,0.0,0.0,3335.9775390625,4703.96630859375,437.6609802246094,-0.7650729417800903,-0.7724552154541016,-1.5798084735870361,493.5535888671875,-505.5346984863281,-693.066650390625,0.0,0.0,92.73999786376953,0.0,0.0,0.0,3345.143310546875,4694.7666015625,500.985107421875,-1.2318824529647827,2.3270487785339355,1.5983121395111084,41.786964416503906,-53.310462951660156,533.3652954101562,-0.9968293128674014,0.9577588498051055,1.1259553711318304
0.0,0.0,92.73999786376953,0.0,0.0,0.0,3345.143310546875,4694.7666015625,500.985107421875,-1.2318824529647827,2.3270487785339355,1.5983121395111084,41.786964416503906,-53.310462951660156,533.3652954101562,0.0,0.0,92.73999786376953,0.0,0.0,0.0,3433.65625,4606.25390625,852.7494506835938,-1.5297623872756958,2.1184275150299072,1.8083715438842773,51.07160949707031,-62.40413284301758,634.1470336914062,-0.8287107846444078,-0.3885499153040919,0.6500100099646566
0.0,0.0,92.73999786376953,0.0,0.0,0.0,3433.65625,4606.25390625,852.7494506835938,-1.5297623872756958,2.1184275150299072,1.8083715438842773,51.07160949707031,-62.40413284301758,634.1470336914062,0.0,0.0,92.73999786376953,0.0,0.0,0.0,3522.584228515625,4517.33544921875,601.8062744140625,-0.9226894378662109,-0.7695789933204651,-1.5833557844161987,353.48345947265625,-364.9634704589844,-704.0676879882812,0.5647571083618275,0.5151831092075514,0.8920033832831038
0.0,0.0,92.73999786376953,0.0,0.0,0.0,3522.584228515625,4517.33544921875,601.8062744140625,-0.9226894378662109,-0.7695789933204651,-1.5833557844161987,353.48345947265625,-364.9634704589844,-704.0676879882812,0.0,0.0,92.73999786376953,0.0,0.0,0.0,3850.88232421875,4058.82470703125,75.0985107421875,0.5807076096534729,-0.18724152445793152,-0.5169515013694763,-1112.6793212890625,43.676788330078125,-712.033203125,-0.7804767689318948,0.9273783753993695,2.8769496423738374
0.0,0.0,92.73999786376953,0.0,0.0,0.0,3850.88232421875,4058.82470703125,75.0985107421875,0.5807076096534729,-0.18724152445793152,-0.5169515013694763,-1112.6793212890625,43.676788330078125,-712.033203125,0.0,0.0,92.73999786376953,0.0,0.0,0.0,4078.989990234375,3357.107177734375,596.3634643554688,0.6110036969184875,-1.5593873262405396,-1.5641810894012451,-8.371000289916992,-794.355224609375,530.1561279296875,0.8708493490485201,-0.09722977503478007,2.276930840063983
0.0,0.0,92.73999786376953,0.0,0.0,0.0,4078.989990234375,3357.107177734375,596.3634643554688,0.6110036969184875,-1.5593873262405396,-1.5641810894012451,-8.371000289916992,-794.355224609375,530.1561279296875,0.0,0.0,92.73999786376953,0.0,0.0,0.0,4078.989990234375,2869.210205078125,1045.2603759765625,1.0025522708892822,-1.5529638528823853,-1.5559358596801758,-8.371000289916992,-456.4446716308594,681.3025512695312,0.4386528263622209,0.24053646891402694,0.7429964935391133
0.0,0.0,92.73999786376953,0.0,0.0,0.0,4078.989990234375,2869.210205078125,1045.2603759765625,1.0025522708892822,-1.5529638528823853,-1.5559358596801758,-8.371000289916992,-456.4446716308594,681.3025512695312,0.0,0.0,92.73999786376953,0.0,0.0,0.0,4023.950439453125,2213.009521484375,1754.46875,0.5701614618301392,-1.9044371843338013,-2.1223583221435547,-165.68479919433594,-569.203125,351.0614929199219,0.4502267936281116,-0.14260894616982367,1.3543436875350636
0.0,0.0,92.73999786376953,0.0,0.0,0.0,4023.950439453125,2213.009521484375,1754.46875,0.5701614618301392,-1.9044371843338013,-2.1223583221435547,-165.68479919433594,-569.203125,351.0614929199219,0.0,0.0,92.73999786376953,0.0,0.0,0.0,3924.295166015625,1960.3115234375,1889.1492919921875,0.42404982447624207,-2.060232162475586,-2.4728729724884033,-358.8572692871094,-714.2716064453125,334.7829284667969,0.9995116267947992,0.006803615143398687,0.3976566771844432
0.0,0.0,92.73999786376953,0.0,0.0,0.0,3924.295166015625,1960.3115234375,1889.1492919921875,0.42404982447624207,-2.060232162475586,-2.4728729724884033,-358.8572692871094,-714.2716064453125,334.7829284667969,0.0,0.0,92.73999786376953,0.0,0.0,0.0,3989.131103515625,3987.76318359375,263.0689697265625,0.6862646341323853,-1.0924819707870483,-1.5227636098861694,-651.7666015625,1203.2232666015625,-1149.3837890625,-0.9571361821848978,-0.0007659714724526293,2.6639905467422835
0.0,0.0,92.73999786376953,0.0,0.0,0.0,3989.131103515625,3987.76318359375,263.0689697265625,0.6862646341323853,-1.0924819707870483,-1.5227636098861694,-651.7666015625,1203.2232666015625,-1149.3837890625,0.0,0.0,92.73999786376953,0.0,0.0,0.0,3859.2841796875,4046.978271484375,80.38387298583984,0.2303847372531891,-0.7199163436889648,-0.6918253302574158,245.8887176513672,-247.87335205078125,70.6109848022461,0.23510510838056298,-0.16691936978738617,2.1569613428473815
0.0,0.0,92.73999786376953,0.0,0.0,0.0,3859.2841796875,4046.978271484375,80.38387298583984,0.2303847372531891,-0.7199163436889648,-0.6918253302574158,245.8887176513672,-247.87335205078125,70.6109848022461,0.0,0.0,92.73999786376953,0.0,0.0,0.0,4068.1201171875,3691.245849609375,227.96414184570312,0.5228956937789917,-1.388540267944336,-1.39573073387146,81.18411254882812,-565.61181640625,294.42828369140625,0.5528117460087988,0.0029541117940405292,0.8569546317819601
0.0,0.0,92.73999786376953,0.0,0.0,0.0,4068.1201171875,3691.245849609375,227.96414184570312,0.5228956937789917,-1.388540267944336,-1.39573073387146,81.18411254882812,-565.61181640625,294.42828369140625,0.0,0.0,92.73999786376953,0.0,0.0,0.0,3699.228515625,2812.321533203125,16.232696533203125,0.0007669904152862728,-2.9703619480133057,0.012367719784379005,-1215.9007568359375,-243.71148681640625,22.72418975830078,0.9840297777897742,-0.7648516875089106,1.1629480662645548
0.0,0.0,92.73999786376953,0.0,0.0,0.0,3699.228515625,2812.321533203125,16.232696533203125,0.0007669904152862728,-2.9703619480133057,0.012367719784379005,-1215.9007568359375,-243.71148681640625,22.72418975830078,0.0,0.0,92.73999786376953,0.0,0.0,0.0,3468.720703125,2772.1318359375,17.010000228881836,-0.009587380103766918,-2.915426254272461,0.0,32.36355209350586,13.442791938781738,8.321000099182129,-0.034551248337656104,0.7220028373519175,1.058250631958657
0.0,0.0,92.73999786376953,0.0,0.0,0.0,3468.720703125,2772.1318359375,17.010000228881836,-0.009587380103766918,-2.915426254272461,0.0,32.36355209350586,13.442791938781738,8.321000099182129,0.0,0.0,92.73999786376953,0.0,0.0,0.0,3111.160888671875,2543.211181640625,17.010000228881836,-0.009491506032645702,-2.3212006092071533,0.0,-466.8844909667969,-506.6855773925781,8.321000099182129,0.5021916810858799,0.32761571011031904,1.1697613550802046
0.0,0.0,92.73999786376953,0.0,0.0,0.0,3111.160888671875,2543.211181640625,17.010000228881836,-0.009491506032645702,-2.3212006092071533,0.0,-466.8844909667969,-506.6855773925781,8.321000099182129,0.0,0.0,92.73999786376953,0.0,0.0,0.0,3227.639404296875,2711.421875,17.010000228881836,-0.009683254174888134,-2.1165099143981934,0.0,349.23431396484375,544.34814453125,8.310999870300293,-0.6134231016572518,-0.12352301193285864,1.0721835966270277
0.0,0.0,92.73999786376953,0.0,0.0,0.0,3227.639404296875,2711.421875,17.010000228881836,-0.009683254174888134,-2.1165099143981934,0.0,349.23431396484375,544.34814453125,8.310999870300293,0.0,0.0,92.73999786376953,0.0,0.0,0.0,3122.0146484375,2513.72998046875,17.010000228881836,-0.009491506032645702,-2.061861991882324,0.0,-361.87994384765625,-677.3135375976562,8.310999870300293,0.9220837323604001,0.028977464620892207,0.9318413436175916
0.0,0.0,92.73999786376953,0.0,0.0,0.0,3122.0146484375,2513.72998046875,17.010000228881836,-0.009491506032645702,-2.061861991882324,0.0,-361.87994384765625,-677.3135375976562,8.310999870300293,0.0,0.0,92.73999786376953,0.0,0.0,0.0,2738.0966796875,1748.202880859375,17.010000228881836,-0.009587380103766918,-2.013253927230835,-9.58738019107841e-05,-516.7352294921875,-1088.5693359375,8.310999870300293,0.9317253701581992,0.020294410456594345,0.8480124910766875
0.0,0.0,92.73999786376953,0.0,0.0,0.0,2738.0966796875,1748.202880859375,17.010000228881836,-0.009587380103766918,-2.013253927230835,-9.58738019107841e-05,-516.7352294921875,-1088.5693359375,8.310999870300293,0.0,0.0,92.73999786376953,0.0,0.0,0.0,2643.2919921875,1548.0220947265625,17.010000228881836,-0.009875001385807991,-2.0172805786132812,0.0,-275.5047302246094,-574.283935546875,8.310999870300293,-0.4047018566808651,-0.050498260713336345,0.22095998817493268
0.0,0.0,92.73999786376953,0.0,0.0,0.0,2643.2919921875,1548.0220947265625,17.010000228881836,-0.009875001385807991,-2.0172805786132812,0.0,-275.5047302246094,-574.283935546875,8.310999870300293,0.0,0.0,92.73999786376953,0.0,0.0,0.0,2107.919921875,-757.0225830078125,17.010000228881836,-0.009587380103766918,-1.615665316581726,0.0,-68.11036682128906,-1408.0938720703125,8.310999870300293,0.9916343013427174,0.08337946368977688,2.145998520167602
0.0,0.0,92.73999786376953,0.0,0.0,0.0,2107.919921875,-757.0225830078125,17.010000228881836,-0.009587380103766918,-1.615665316581726,0.0,-68.11036682128906,-1408.0938720703125,8.310999870300293,0.0,0.0,92.73999786376953,0.0,0.0,0.0,878.3675537109375,-859.468017578125,17.010000228881836,-0.009587380103766918,1.1405147314071655,0.0,-646.4339599609375,-1083.945556640625,8.321000099182129,-0.9655921467832087,-0.7454396660722901,2.4849571610324404
0.0,0.0,92.73999786376953,0.0,0.0,0.0,878.3675537109375,-859.468017578125,17.010000228881836,-0.009587380103766918,1.1405147314071655,0.0,-646.4339599609375,-1083.945556640625,8.321000099182129,0.0,0.0,92.73999786376953,0.0,0.0,0.0,776.176025390625,-1100.1719970703125,17.010000228881836,-0.009683254174888134,1.2445378303527832,9.58738019107841e-05,-423.4560241699219,-1230.9085693359375,8.321000099182129,-0.967908707949605,0.009023521365979828,0.2059526867056647
0.0,0.0,92.73999786376953,0.0,0.0,0.0,776.176025390625,-1100.1719970703125,17.010000228881836,-0.009683254174888134,1.2445378303527832,9.58738019107841e-05,-423.4560241699219,-1230.9085693359375,8.321000099182129,0.0,0.0,92.73999786376953,0.0,0.0,0.0,727.6781616210938,-1242.56787109375,17.010000228881836,-0.009395631961524487,1.243674874305725,0.0,165.6342010498047,488.1470031738281,8.321000099182129,0.7869166290202646,0.0010406034447379838,1.0370598057868605
0.0,0.0,92.73999786376953,0.0,0.0,0.0,727.6781616210938,-1242.56787109375,17.010000228881836,-0.009395631961524487,1.243674874305725,0.0,165.6342010498047,488.1470031738281,8.321000099182129,0.0,0.0,92.73999786376953,0.0,0.0,0.0,719.4497680664062,-1270.6033935546875,17.010000228881836,-0.009683254174888134,1.3347550630569458,0.0,-71.58872985839844,-258.0701599121094,8.310999870300293,-0.2162999050534976,-0.15931715309448474,1.081948904722978
0.0,0.0,92.73999786376953,0.0,0.0,0.0,719.4497680664062,-1270.6033935546875,17.010000228881836,-0.009683254174888134,1.3347550630569458,0.0,-71.58872985839844,-258.0701599121094,8.310999870300293,0.0,0.0,92.73999786376953,0.0,0.0,0.0,960.08740234375,-2142.605224609375,17.010000228881836,-0.009587380103766918,2.351592540740967,0.0,726.2269287109375,-829.1890258789062,8.310999870300293,-0.8512246477974981,-0.3998930182257615,1.2609369836620914
0.0,0.0,92.73999786376953,0.0,0.0,0.0,960.08740234375,-2142.605224609375,17.010000228881836,-0.009587380103766918,2.351592540740967,0.0,726.2269287109375,-829.1890258789062,8.310999870300293,0.0,0.0,92.73999786376953,0.0,0.0,0.0,3059.801025390625,-2177.926513671875,17.010000228881836,-0.009587380103766918,-2.3289663791656494,0.0,983.4654541015625,927.1258544921875,8.310999870300293,-0.5440414705849116,-0.4294486331803771,1.8740678485881759
0.0,0.0,92.73999786376953,0.0,0.0,0.0,3059.801025390625,-2177.926513671875,17.010000228881836,-0.009587380103766918,-2.3289663791656494,0.0,983.4654541015625,927.1258544921875,8.310999870300293,0.0,0.0,92.73999786376953,0.0,0.0,0.0,2458.142333984375,-2166.8193359375,17.010000228881836,-0.009491506032645702,2.810060977935791,0.0,-1057.599853515625,344.90789794921875,8.310999870300293,0.9995269627619694,-0.5241068394881038,1.706956090093641
0.0,0.0,92.73999786376953,0.0,0.0,0.0,2458.142333984375,-2166.8193359375,17.010000228881836,-0.009491506032645702,2.810060977935791,0.0,-1057.599853515625,344.90789794921875,8.310999870300293,0.0,0.0,92.73999786376953,0.0,0.0,0.0,2532.857666015625,-2211.97509765625,17.010000228881836,-0.009779127314686775,2.7272260189056396,0.0,668.2532958984375,-297.5340270996094,8.310999870300293,-0.8214236262258391,-0.023980601207157285,1.1010103126705246
0.0,0.0,92.73999786376953,0.0,0.0,0.0,2532.857666015625,-2211.97509765625,17.010000228881836,-0.009779127314686775,2.7272260189056396,0.0,668.2532958984375,-297.5340270996094,8.310999870300293,0.0,0.0,92.73999786376953,0.0,0.0,0.0,2617.6640625,-2251.087646484375,17.010000228881836,-0.009395631961524487,2.78772234916687,9.58738019107841e-05,-109.70586395263672,63.48431396484375,8.301000595092773,0.9084995137582486,-0.7585450315878477,0.32901210568596895
0.0,0.0,92.73999786376953,0.0,0.0,0.0,2617.6640625,-2251.087646484375,17.010000228881836,-0.009395631961524487,2.78772234916687,9.58738019107841e-05,-109.70586395263672,63.48431396484375,8.301000595092773,0.0,0.0,92.73999786376953,0.0,0.0,0.0,3322.06787109375,-2605.64599609375,17.010000228881836,-0.009587380103766918,-2.528383731842041,0.0,-1001.29150390625,-757.096435546875,8.331000328063965,0.8386268950358278,-0.7966219868855325,2.93690579108312
0.0,0.0,92.73999786376953,0.0,0.0,0.0,3322.06787109375,-2605.64599609375,17.010000228881836,-0.009587380103766918,-2.528383731842041,0.0,-1001.29150390625,-757.096435546875,8.331000328063965,0.0,0.0,92.73999786376953,0.0,0.0,0.0,2476.0556640625,-2479.081298828125,17.010000228881836,-0.009587380103766918,2.1068267822265625,0.0,-692.9104614257812,1059.9844970703125,8.3410005569458,0.9918293091760344,-0.952427922758507,0.7579695317630168
0.0,0.0,92.73999786376953,0.0,0.0,0.0,2476.0556640625,-2479.081298828125,17.010000228881836,-0.009587380103766918,2.1068267822265625,0.0,-692.9104614257812,1059.9844970703125,8.3410005569458,0.0,0.0,92.73999786376953,0.0,0.0,0.0,4022.458251953125,-2202.931396484375,104.89600372314453,-0.1414138525724411,-1.6727101802825928,-0.8910511136054993,-139.37979125976562,-1288.551025390625,-153.31361389160156,0.5880320331271063,-0.6562024484568836,2.521794114140775
0.0,0.0,92.73999786376953,0.0,0.0,0.0,4022.458251953125,-2202.931396484375,104.89600372314453,-0.1414138525724411,-1.6727101802825928,-0.8910511136054993,-139.37979125976562,-1288.551025390625,-153.31361389160156,0.0,0.0,92.73999786376953,0.0,0.0,0.0,3994.0986328125,-1386.3892822265625,75.97979736328125,0.021859226748347282,-1.5282284021377563,-0.7152185440063477,-39.712486267089844,859.5450439453125,-25.324642181396484,-0.3689851080257983,-0.043073217427855456,2.772183681577232
0.0,0.0,92.73999786376953,0.0,0.0,0.0,3994.0986328125,-1386.3892822265625,75.97979736328125,0.021859226748347282,-1.5282284021377563,-0.7152185440063477,-39.712486267089844,859.5450439453125,-25.324642181396484,0.0,0.0,92.73999786376953,0.0,0.0,0.0,3184.0927734375,-2164.89892578125,17.010000228881836,-0.009587380103766918,2.933929920196533,0.0,1277.734619140625,-428.98541259765625,8.3410005569458,-0.9386008376113673,-0.8499940245699343,2.6589062775645687
0.0,0.0,92.73999786376953,0.0,0.0,0.0,3184.0927734375,-2164.89892578125,17.010000228881836,-0.009587380103766918,2.933929920196533,0.0,1277.734619140625,-428.98541259765625,8.3410005569458,0.0,0.0,92.73999786376953,0.0,0.0,0.0,4079.0068359375,-2779.75634765625,480.18804931640625,-0.6045801639556885,1.558524489402771,1.5785621404647827,-8.908210754394531,-966.5223999023438,727.621337890625,-0.8429478040408006,0.39270140800259007,1.1020079111284957
0.0,0.0,92.73999786376953,0.0,0.0,0.0,4079.0068359375,-2779.75634765625,480.18804931640625,-0.6045801639556885,1.558524489402771,1.5785621404647827,-8.908210754394531,-966.5223999023438,727.621337890625,0.0,0.0,92.73999786376953,0.0,0.0,0.0,4078.989990234375,-2816.949951171875,507.2149353027344,-0.5742840766906738,1.5590996742248535,1.5776033401489258,-8.435125350952148,-941.1751708984375,650.81982421875,0.30614629174098684,-0.1633543196534253,0.038046077552166935
0.0,0.0,92.73999786376953,0.0,0.0,0.0,4078.989990234375,-2816.949951171875,507.2149353027344,-0.5742840766906738,1.5590996742248535,1.5776033401489258,-8.435125350952148,-941.1751708984375,650.81982421875,0.0,0.0,92.73999786376953,0.0,0.0,0.0,4078.989990234375,-2917.167724609375,570.0475463867188,-0.5504114627838135,1.5598666667938232,1.57654869556427,-8.35099983215332,-551.9385375976562,324.1296691894531,0.962447585002112,0.059440237207069174,0.1248549829377481
0.0,0.0,92.73999786376953,0.0,0.0,0.0,4078.989990234375,-2917.167724609375,570.0475463867188,-0.5504114627838135,1.5598666667938232,1.57654869556427,-8.35099983215332,-551.9385375976562,324.1296691894531,0.0,0.0,92.73999786376953,0.0,0.0,0.0,4078.989990234375,-2270.603759765625,1087.049560546875,0.9955535531044006,-1.553059697151184,-1.5559358596801758,-8.381000518798828,809.1075439453125,-1006.7642211914062,-0.9838553870467894,-0.8083949148291778,2.1400874024240863
0.0,0.0,92.73999786376953,0.0,0.0,0.0,4078.989990234375,-2270.603759765625,1087.049560546875,0.9955535531044006,-1.553059697151184,-1.5559358596801758,-8.381000518798828,809.1075439453125,-1006.7642211914062,0.0,0.0,92.73999786376953,0.0,0.0,0.0,3946.31884765625,-434.78497314453125,44.48540496826172,-0.0721929743885994,-1.704444408416748,-0.4477306306362152,121.43441009521484,1624.7679443359375,66.97179412841797,-0.7605922499107304,0.512668224434256,1.4669576305238508
0.0,0.0,92.73999786376953,0.0,0.0,0.0,3946.31884765625,-434.78497314453125,44.48540496826172,-0.0721929743885994,-1.704444408416748,-0.4477306306362152,121.43441009521484,1624.7679443359375,66.97179412841797,0.0,0.0,92.73999786376953,0.0,0.0,0.0,3495.4794921875,-808.638916015625,17.010000228881836,-0.009587380103766918,-2.5606932640075684,0.0,-907.7033081054688,-609.0482788085938,8.321000099182129,0.8023668486502523,-0.35780951628236424,1.931021857402044
0.0,0.0,92.73999786376953,0.0,0.0,0.0,3495.4794921875,-808.638916015625,17.010000228881836,-0.009587380103766918,-2.5606932640075684,0.0,-907.7033081054688,-609.0482788085938,8.321000099182129,0.0,0.0,92.73999786376953,0.0,0.0,0.0,2266.803955078125,-1274.288330078125,17.010000228881836,-0.009491506032645702,-2.9597201347351074,0.0,-1353.87255859375,-257.3035888671875,8.321000099182129,0.9106979196083211,-0.1510335560208252,1.0409830889646514
0.0,0.0,92.73999786376953,0.0,0.0,0.0,2266.803955078125,-1274.288330078125,17.010000228881836,-0.009491506032645702,-2.9597201347351074,0.0,-1353.87255859375,-257.3035888671875,8.321000099182129,0.0,0.0,92.73999786376953,0.0,0.0,0.0,1990.3594970703125,-1325.491455078125,17.010000228881836,-0.009683254174888134,-2.9420793056488037,0.0,213.12002563476562,51.349727630615234,8.310999870300293,-0.5160854461951689,0.16812342335018463,0.7190716869211542
0.0,0.0,92.73999786376953,0.0,0.0,0.0,1990.3594970703125,-1325.491455078125,17.010000228881836,-0.009683254174888134,-2.9420793056488037,0.0,213.12002563476562,51.349727630615234,8.310999870300293,0.0,0.0,92.73999786376953,0.0,0.0,0.0,2029.0177001953125,-1317.4111328125,17.010000228881836,-0.009683254174888134,-2.956939697265625,0.0,255.1043243408203,47.30256652832031,8.310999870300293,-0.0944384621328922,-0.024593697274616407,0.1608987843910228
0.0,0.0,92.73999786376953,0.0,0.0,0.0,2029.0177001953125,-1317.4111328125,17.010000228881836,-0.009683254174888134,-2.956939697265625,0.0,255.1043243408203,47.30256652832031,8.310999870300293,0.0,0.0,92.73999786376953,0.0,0.0,0.0,1409.723876953125,-1796.3834228515625,17.010000228881836,-0.009587380103766918,-1.285571813583374,0.0,-457.49896240234375,1028.1641845703125,8.331000328063965,-0.6057443207331628,0.8488534230911862,2.6329755136725908
0.0,0.0,92.73999786376953,0.0,0.0,0.0,1409.723876953125,-1796.3834228515625,17.010000228881836,-0.009587380103766918,-1.285571813583374,0.0,-457.49896240234375,1028.1641845703125,8.331000328063965,0.0,0.0,92.73999786376953,0.0,0.0,0.0,1359.708984375,-1619.412841796875,17.010000228881836,-0.009587380103766918,-1.4348472356796265,0.0,7.940118789672852,-57.44512176513672,8.321000099182129,0.033141335918984716,0.008743273254373856,1.5440289782105623
0.0,0.0,92.73999786376953,0.0,0.0,0.0,1359.708984375,-1619.412841796875,17.010000228881836,-0.009587380103766918,-1.4348472356796265,0.0,7.940118789672852,-57.44512176513672,8.321000099182129,0.0,0.0,92.73999786376953,0.0,0.0,0.0,1368.802490234375,-1705.1280517578125,17.010000228881836,-0.009491506032645702,-1.473963737487793,0.0,41.61238479614258,-463.4369812011719,8.321000099182129,0.9713326735143525,-0.09420847570151597,0.3463988621204521
0.0,0.0,92.73999786376953,0.0,0.0,0.0,1368.802490234375,-1705.1280517578125,17.010000228881836,-0.009491506032645702,-1.473963737487793,0.0,41.61238479614258,-463.4369812011719,8.321000099182129,0.0,0.0,92.73999786376953,0.0,0.0,0.0,1348.3974609375,-1468.0616455078125,17.010000228881836,-0.009683254174888134,-1.4771276712417603,0.0,-19.504627227783203,212.05599975585938,8.310999870300293,-0.05790218807087255,-0.01155910903522041,2.75099993458835
0.0,0.0,92.73999786376953,0.0,0.0,0.0,1348.3974609375,-1468.0616455078125,17.010000228881836,-0.009683254174888134,-1.4771276712417603,0.0,-19.504627227783203,212.05599975585938,8.310999870300293,0.0,0.0,92.73999786376953,0.0,0.0,0.0,1631.449462890625,-2211.857421875,17.010000228881836,-0.009587380103766918,-1.0203847885131836,0.0,519.2442016601562,-852.4534301757812,8.310999870300293,0.7144891925753367,0.16246962673819157,1.4849557451958475
0.0,0.0,92.73999786376953,0.0,0.0,0.0,1631.449462890625,-2211.857421875,17.010000228881836,-0.009587380103766918,-1.0203847885131836,0.0,519.2442016601562,-852.4534301757812,8.310999870300293,0.0,0.0,92.73999786376953,0.0,0.0,0.0,3373.362548828125,-4667.3330078125,407.5076599121094,1.4878654479980469,-2.3138182163238525,-1.5269819498062134,-70.54759979248047,-44.96879577636719,942.2219848632812,0.22842358345057978,0.01507360296337056,2.936445927360225
0.0,0.0,92.73999786376953,0.0,0.0,0.0,3373.362548828125,-4667.3330078125,407.5076599121094,1.4878654479980469,-2.3138182163238525,-1.5269819498062134,-70.54759979248047,-44.96879577636719,942.2219848632812,0.0,0.0,92.73999786376953,0.0,0.0,0.0,2409.6982421875,-5102.9697265625,924.6719360351562,-0.8119552135467529,-3.1275951862335205,-1.580863118171692,483.54302978515625,8.261000633239746,621.1386108398438,-0.6236381965761497,-0.6088645746405417,2.9604367119630552
0.0,0.0,92.73999786376953,0.0,0.0,0.0,2409.6982421875,-5102.9697265625,924.6719360351562,-0.8119552135467529,-3.1275951862335205,-1.580863118171692,483.54302978515625,8.261000633239746,621.1386108398438,0.0,0.0,92.73999786376953,0.0,0.0,0.0,2706.34375,-5091.7841796875,1187.101318359375,-0.7142598032951355,-2.9878110885620117,-1.5763570070266724,648.48486328125,110.51126098632812,556.38330078125,-0.8141120889801732,-0.0011004418620362006,0.4910696107383785
0.0,0.0,92.73999786376953,0.0,0.0,0.0,2706.34375,-5091.7841796875,1187.101318359375,-0.7142598032951355,-2.9878110885620117,-1.5763570070266724,648.48486328125,110.51126098632812,556.38330078125,0.0,0.0,92.73999786376953,0.0,0.0,0.0,3394.410888671875,-4645.4990234375,1319.4207763671875,0.6113871932029724,-2.3444020748138428,-1.5641810894012451,517.7491455078125,529.1764526367188,-446.59136962890625,-0.15208226071445674,-0.5286642092825262,1.1859333237245266
0.0,0.0,92.73999786376953,0.0,0.0,0.0,3394.410888671875,-4645.4990234375,1319.4207763671875,0.6113871932029724,-2.3444020748138428,-1.5641810894012451,517.7491455078125,529.1764526367188,-446.59136962890625,0.0,0.0,92.73999786376953,0.0,0.0,0.0,3495.509033203125,-2950.318603515625,17.010000228881836,-0.009683254174888134,-0.8848192691802979,9.58738019107841e-05,-950.2236938476562,1169.065673828125,8.321000099182129,-0.1319735414728732,-0.032909503289516306,2.141955457214692
0.0,0.0,92.73999786376953,0.0,0.0,0.0,3495.509033203125,-2950.318603515625,17.010000228881836,-0.009683254174888134,-0.8848192691802979,9.58738019107841e-05,-950.2236938476562,1169.065673828125,8.321000099182129,0.0,0.0,92.73999786376953,0.0,0.0,0.0,864.6796875,-1696.3992919921875,17.010000228881836,-0.009587380103766918,0.10488593578338623,0.0,-1468.833740234375,-104.56314849853516,8.310999870300293,-0.5416876100811475,-0.29171471832741797,2.036023979741074
0.0,0.0,92.73999786376953,0.0,0.0,0.0,864.6796875,-1696.3992919921875,17.010000228881836,-0.009587380103766918,0.10488593578338623,0.0,-1468.833740234375,-104.56314849853516,8.310999870300293,0.0,0.0,92.73999786376953,0.0,0.0,0.0,-1729.40771484375,-2020.8841552734375,17.010000228881836,-0.009587380103766918,0.11361045390367508,0.0,-1460.398193359375,-167.9747772216797,8.310999870300293,-0.994014968612126,0.010687033710823484,1.775961983088692
0.0,0.0,92.73999786376953,0.0,0.0,0.0,-1729.40771484375,-2020.8841552734375,17.010000228881836,-0.009587380103766918,0.11361045390367508,0.0,-1460.398193359375,-167.9747772216797,8.310999870300293,0.0,0.0,92.73999786376953,0.0,0.0,0.0,-2020.6334228515625,-2047.1680908203125,17.010000228881836,-0.009491506032645702,0.03269296512007713,0.0,307.36077880859375,35.740997314453125,8.301000595092773,0.5911512258495581,0.6776187513322888,0.8090098743275149
0.0,0.0,92.73999786376953,0.0,0.0,0.0,-2020.6334228515625,-2047.1680908203125,17.010000228881836,-0.009491506032645702,0.03269296512007713,0.0,307.36077880859375,35.740997314453125,8.301000595092773,0.0,0.0,92.73999786376953,0.0,0.0,0.0,-2413.05712890625,-2095.971435546875,17.010000228881836,-0.009683254174888134,0.12444419413805008,9.58738019107841e-05,-429.5147399902344,-53.704952239990234,8.310999870300293,-0.17170686312819816,-0.0017639862203117447,1.9929797158755775
0.0,0.0,92.73999786376953,0.0,0.0,0.0,-2413.05712890625,-2095.971435546875,17.010000228881836,-0.009683254174888134,0.12444419413805008,9.58738019107841e-05,-429.5147399902344,-53.704952239990234,8.310999870300293,0.0,0.0,92.73999786376953,0.0,0.0,0.0,-602.5451049804688,-2018.078369140625,17.010000228881836,-0.009491506032645702,-0.012271846644580364,0.0,1362.6248779296875,-15.040597915649414,8.310999870300293,0.9832017906739645,-0.03341588203915643,2.1979735980456923
0.0,0.0,92.73999786376953,0.0,0.0,0.0,-602.5451049804688,-2018.078369140625,17.010000228881836,-0.009491506032645702,-0.012271846644580364,0.0,1362.6248779296875,-15.040597915649414,8.310999870300293,0.0,0.0,92.73999786376953,0.0,0.0,0.0,-747.05908203125,-1771.4173583984375,17.010000228881836,-0.009587380103766918,-1.3112659454345703,9.58738019107841e-05,-177.9993438720703,440.82879638671875,8.321000099182129,-0.17440959967986702,0.5801534499154908,2.7029362468607303
0.0,0.0,92.73999786376953,0.0,0.0,0.0,-747.05908203125,-1771.4173583984375,17.010000228881836,-0.009587380103766918,-1.3112659454345703,9.58738019107841e-05,-177.9993438720703,440.82879638671875,8.321000099182129,0.0,0.0,92.73999786376953,0.0,0.0,0.0,-842.2427368164062,-1472.8179931640625,17.010000228881836,-0.009587380103766918,-0.9931566715240479,0.0,-270.0157775878906,498.4189758300781,8.301000595092773,-0.17323269143652065,-0.3968883793765677,0.6090263546653603
0.0,0.0,92.73999786376953,0.0,0.0,0.0,-842.2427368164062,-1472.8179931640625,17.010000228881836,-0.009587380103766918,-0.9931566715240479,0.0,-270.0157775878906,498.4189758300781,8.301000595092773,0.0,0.0,92.73999786376953,0.0,0.0,0.0,-860.888916015625,-1441.228271484375,17.010000228881836,-0.009491506032645702,-0.9593132138252258,9.58738019107841e-05,-217.67984008789062,322.22479248046875,8.241000175476074,0.9236815350829171,0.8735174882485818,0.07093879310126283
0.0,0.0,92.73999786376953,0.0,0.0,0.0,-860.888916015625,-1441.228271484375,17.010000228881836,-0.009491506032645702,-0.9593132138252258,9.58738019107841e-05,-217.67984008789062,322.22479248046875,8.241000175476074,0.0,0.0,92.73999786376953,0.0,0.0,0.0,-1352.54248046875,-2092.184326171875,17.010000228881836,-0.009491506032645702,-3.090587854385376,0.0,-853.2777099609375,-48.68084716796875,8.310999870300293,0.4428048184538249,-0.5850772620500049,2.0490496763255948
0.0,0.0,92.73999786376953,0.0,0.0,0.0,-1352.54248046875,-2092.184326171875,17.010000228881836,-0.009491506032645702,-3.090587854385376,0.0,-853.2777099609375,-48.68084716796875,8.310999870300293,0.0,0.0,92.73999786376953,0.0,0.0,0.0,-3445.114990234375,460.8503112792969,17.010000228881836,-0.009587380103766918,1.4948642253875732,0.0,91.7896499633789,1405.97021484375,8.310999870300293,0.9977516020478169,-0.25852808456489296,2.8488529316737043
0.0,0.0,92.73999786376953,0.0,0.0,0.0,-3445.114990234375,460.8503112792969,17.010000228881836,-0.009587380103766918,1.4948642253875732,0.0,91.7896499633789,1405.97021484375,8.310999870300293,0.0,0.0,92.73999786376953,0.0,0.0,0.0,-2587.791259765625,641.1074829101562,17.010000228881836,-0.009587380103766918,-1.6903510093688965,0.0,241.19825744628906,904.966064453125,8.331000328063965,-0.47673926578346926,-0.8000659638228969,2.7489818011196974
0.0,0.0,92.73999786376953,0.0,0.0,0.0,-2587.791259765625,641.1074829101562,17.010000228881836,-0.009587380103766918,-1.6903510093688965,0.0,241.19825744628906,904.966064453125,8.331000328063965,0.0,0.0,92.73999786376953,0.0,0.0,0.0,-2051.66357421875,379.7427978515625,17.010000228881836,-0.009491506032645702,0.07305583357810974,0.0,1026.528076171875,54.66121292114258,8.321000099182129,0.9959781463379709,0.7214600107509311,1.4469963168427142
0.0,0.0,92.73999786376953,0.0,0.0,0.0,-2051.66357421875,379.7427978515625,17.010000228881836,-0.009491506032645702,0.07305583357810974,0.0,1026.528076171875,54.66121292114258,8.321000099182129,0.0,0.0,92.73999786376953,0.0,0.0,0.0,655.03857421875,2073.43896484375,17.010000228881836,-0.009587380103766918,0.89287269115448,9.58738019107841e-05,889.7108764648438,1093.5048828125,8.321000099182129,0.8868833742905156,0.126145990617162,2.476000578793986
0.0,0.0,92.73999786376953,0.0,0.0,0.0,655.03857421875,2073.43896484375,17.010000228881836,-0.009587380103766918,0.89287269115448,9.58738019107841e-05,889.7108764648438,1093.5048828125,8.321000099182129,0.0,0.0,92.73999786376953,0.0,0.0,0.0,972.9356079101562,4284.2705078125,17.010000228881836,-0.009587380103766918,2.0255258083343506,0.0,-601.3699951171875,1273.4825439453125,8.321000099182129,0.9902873273667695,0.319775473112713,1.6730148059695154
0.0,0.0,92.73999786376953,0.0,0.0,0.0,972.9356079101562,4284.2705078125,17.010000228881836,-0.009587380103766918,2.0255258083343506,0.0,-601.3699951171875,1273.4825439453125,8.321000099182129,0.0,0.0,92.73999786376953,0.0,0.0,0.0,861.8765869140625,4498.615234375,17.010000228881836,-0.009779127314686775,2.0838170051574707,0.0,182.71420288085938,-324.3716735839844,8.310999870300293,-0.602231710371123,0.0007676537884086633,0.8819948344618069
0.0,0.0,92.73999786376953,0.0,0.0,0.0,861.8765869140625,4498.615234375,17.010000228881836,-0.009779127314686775,2.0838170051574707,0.0,182.71420288085938,-324.3716735839844,8.310999870300293,0.0,0.0,92.73999786376953,0.0,0.0,0.0,878.0530395507812,4469.6220703125,17.010000228881836,-0.009395631961524487,2.0882272720336914,0.0,12.325447082519531,-11.824966430664062,8.301000595092773,0.942757200628804,-0.37503082190135123,0.1258888268123144
0.0,0.0,92.73999786376953,0.0,0.0,0.0,878.0530395507812,4469.6220703125,17.010000228881836,-0.009395631961524487,2.0882272720336914,0.0,12.325447082519531,-11.824966430664062,8.301000595092773,0.0,0.0,92.73999786376953,0.0,0.0,0.0,883.6235961914062,4456.6787109375,17.010000228881836,-0.009683254174888134,2.1368353366851807,-9.58738019107841e-05,81.43759155273438,-183.2173309326172,8.301000595092773,-0.9143649029555758,-0.6303704392481717,0.18699888233859951
0.0,0.0,92.73999786376953,0.0,0.0,0.0,883.6235961914062,4456.6787109375,17.010000228881836,-0.009683254174888134,2.1368353366851807,-9.58738019107841e-05,81.43759155273438,-183.2173309326172,8.301000595092773,0.0,0.0,92.73999786376953,0.0,0.0,0.0,2368.413818359375,3702.0947265625,17.010000228881836,-0.009587380103766918,3.077261447906494,0.0,1281.7847900390625,-122.78604888916016,8.310999870300293,-0.8249450255773813,-0.2281937002240356,1.934024846799403
0.0,0.0,92.73999786376953,0.0,0.0,0.0,2368.413818359375,3702.0947265625,17.010000228881836,-0.009587380103766918,3.077261447906494,0.0,1281.7847900390625,-122.78604888916016,8.310999870300293,0.0,0.0,92.73999786376953,0.0,0.0,0.0,3589.652099609375,4007.0458984375,17.010000228881836,-0.009587380103766918,-2.474790334701538,0.0,1152.3548583984375,812.28955078125,8.310999870300293,-0.9786057573634519,-0.4223394880479047,0.9429913398939362
0.0,0.0,92.73999786376953,0.0,0.0,0.0,3589.652099609375,4007.0458984375,17.010000228881836,-0.009587380103766918,-2.474790334701538,0.0,1152.3548583984375,812.28955078125,8.310999870300293,0.0,0.0,92.73999786376953,0.0,0.0,0.0,4054.6806640625,3803.900390625,630.9330444335938,0.05493568629026413,1.7999347448349,1.5658109188079834,-257.25799560546875,988.3256225585938,52.94856643676758,0.9974388317908081,0.842952728571623,2.7210099672063848
0.0,0.0,92.73999786376953,0.0,0.0,0.0,4054.6806640625,3803.900390625,630.9330444335938,0.05493568629026413,1.7999347448349,1.5658109188079834,-257.25799560546875,988.3256225585938,52.94856643676758,0.0,0.0,92.73999786376953,0.0,0.0,0.0,4078.989990234375,3264.893310546875,614.7846069335938,-0.0409381128847599,1.5610171556472778,1.5711798667907715,-8.371000289916992,-1006.1435546875,15.389087677001953,-0.8734026412257941,0.00023041770551944624,1.560905467139719
0.0,0.0,92.73999786376953,0.0,0.0,0.0,4078.989990234375,3264.893310546875,614.7846069335938,-0.0409381128847599,1.5610171556472778,1.5711798667907715,-8.371000289916992,-1006.1435546875,15.389087677001953,0.0,0.0,92.73999786376953,0.0,0.0,0.0,4058.001708984375,3754.385009765625,213.56756591796875,-0.8315134644508362,1.9492101669311523,1.315388560295105,-289.56402587890625,705.8421630859375,-819.2220458984375,0.6276964100661742,0.3748156402348921,1.6740104222562877
0.0,0.0,92.73999786376953,0.0,0.0,0.0,4058.001708984375,3754.385009765625,213.56756591796875,-0.8315134644508362,1.9492101669311523,1.315388560295105,-289.56402587890625,705.8421630859375,-819.2220458984375,0.0,0.0,92.73999786376953,0.0,0.0,0.0,3687.859130859375,4117.53466796875,30.289886474609375,0.029816752299666405,2.2397077083587646,0.2979757785797119,-575.4378662109375,696.0242309570312,40.20668411254883,0.004625449099307621,-0.5018263170470196,0.5530826868387351
0.0,0.0,92.73999786376953,0.0,0.0,0.0,3687.859130859375,4117.53466796875,30.289886474609375,0.029816752299666405,2.2397077083587646,0.2979757785797119,-575.4378662109375,696.0242309570312,40.20668411254883,0.0,0.0,92.73999786376953,0.0,0.0,0.0,3891.64794921875,4009.14111328125,87.06536865234375,-0.6831966638565063,-3.0482115745544434,0.3153289258480072,517.719482421875,-97.82012939453125,391.4676208496094,-0.7396592617512903,-0.8707710009964397,1.181882615254068
0.0,0.0,92.73999786376953,0.0,0.0,0.0,3891.64794921875,4009.14111328125,87.06536865234375,-0.6831966638565063,-3.0482115745544434,0.3153289258480072,517.719482421875,-97.82012939453125,391.4676208496094,0.0,0.0,92.73999786376953,0.0,0.0,0.0,3750.669189453125,3224.93408203125,17.010000228881836,-0.009491506032645702,-1.1518278121948242,0.0,425.0931396484375,-1004.20654296875,8.321000099182129,0.890939684681139,0.605114117491162,1.4400105791309556
0.0,0.0,92.73999786376953,0.0,0.0,0.0,3750.669189453125,3224.93408203125,17.010000228881836,-0.009491506032645702,-1.1518278121948242,0.0,425.0931396484375,-1004.20654296875,8.321000099182129,0.0,0.0,92.73999786376953,0.0,0.0,0.0,4038.491455078125,2250.592529296875,127.59424591064453,0.10958375036716461,-1.4814419746398926,-0.9893217086791992,64.62476348876953,-1101.056640625,113.64636993408203,0.203101699386654,-0.17421135444043376,0.9320038816575789
0.0,0.0,92.73999786376953,0.0,0.0,0.0,4038.491455078125,2250.592529296875,127.59424591064453,0.10958375036716461,-1.4814419746398926,-0.9893217086791992,64.62476348876953,-1101.056640625,113.64636993408203,0.0,0.0,92.73999786376953,0.0,0.0,0.0,4035.975830078125,1876.7620849609375,123.9571533203125,-0.14400245249271393,-1.6555488109588623,-0.9813641905784607,-115.24712371826172,-1168.83740234375,-154.8020782470703,0.5951823005007956,-0.49498165424745155,0.327138104381703
0.0,0.0,92.73999786376953,0.0,0.0,0.0,4035.975830078125,1876.7620849609375,123.9571533203125,-0.14400245249271393,-1.6555488109588623,-0.9813641905784607,-115.24712371826172,-1168.83740234375,-154.8020782470703,0.0,0.0,92.73999786376953,0.0,0.0,0.0,3987.6962890625,2143.128662109375,70.89358520507812,-0.0626055896282196,-1.6315803527832031,-0.6718835830688477,5.520898342132568,406.3617248535156,14.379154205322266,-0.1517994008451783,0.0548919316445391,2.750965954510292
0.0,0.0,92.73999786376953,0.0,0.0,0.0,3987.6962890625,2143.128662109375,70.89358520507812,-0.0626055896282196,-1.6315803527832031,-0.6718835830688477,5.520898342132568,406.3617248535156,14.379154205322266,0.0,0.0,92.73999786376953,0.0,0.0,0.0,4043.139892578125,3088.91943359375,134.6710205078125,-0.17362745106220245,-1.674052357673645,-1.017125129699707,66.18338012695312,858.2395629882812,115.62088012695312,-0.4296140735722067,0.07896350426326644,1.4789390060430776
0.0,0.0,92.73999786376953,0.0,0.0,0.0,4043.139892578125,3088.91943359375,134.6710205078125,-0.17362745106220245,-1.674052357673645,-1.017125129699707,66.18338012695312,858.2395629882812,115.62088012695312,0.0,0.0,92.73999786376953,0.0,0.0,0.0,4078.989990234375,2021.4669189453125,714.6971435546875,1.071964979171753,-1.5508545637130737,-1.5532513856887817,-8.371000289916992,-349.1384582519531,613.3137817382812,0.5440933959481664,0.24453967062234835,2.7118642292001596
0.0,0.0,92.73999786376953,0.0,0.0,0.0,4078.989990234375,2021.4669189453125,714.6971435546875,1.071964979171753,-1.5508545637130737,-1.5532513856887817,-8.371000289916992,-349.1384582519531,613.3137817382812,0.0,0.0,92.73999786376953,0.0,0.0,0.0,2909.203369140625,933.813720703125,1939.0037841796875,-0.12597817182540894,-2.726938486099243,3.088286876678467,-991.3749389648438,-444.9729919433594,-322.93341064453125,0.7883853475387304,-0.00039029879759777106,2.987913003071526
0.0,0.0,92.73999786376953,0.0,0.0,0.0,2909.203369140625,933.813720703125,1939.0037841796875,-0.12597817182540894,-2.726938486099243,3.088286876678467,-991.3749389648438,-444.9729919433594,-322.93341064453125,0.0,0.0,92.73999786376953,0.0,0.0,0.0,587.6778564453125,-113.07473754882812,59.75698471069336,-0.04832039400935173,-2.4942526817321777,-1.568782925605774,-601.7023315429688,-291.31072998046875,-56.65996170043945,0.8854645777212343,-0.012499543340714252,2.4019874381314708
0.0,0.0,92.73999786376953,0.0,0.0,0.0,587.6778564453125,-113.07473754882812,59.75698471069336,-0.04832039400935173,-2.4942526817321777,-1.568782925605774,-601.7023315429688,-291.31072998046875,-56.65996170043945,0.0,0.0,92.73999786376953,0.0,0.0,0.0,-1516.560791015625,-1732.798095703125,17.010000228881836,-0.009587380103766918,-2.4739274978637695,-9.58738019107841e-05,-976.4865112304688,-769.8695678710938,8.310999870300293,0.43382557412952816,-0.000406742600390295,2.918958646528182
0.0,0.0,92.73999786376953,0.0,0.0,0.0,-1516.560791015625,-1732.798095703125,17.010000228881836,-0.009587380103766918,-2.4739274978637695,-9.58738019107841e-05,-976.4865112304688,-769.8695678710938,8.310999870300293,0.0,0.0,92.73999786376953,0.0,0.0,0.0,-1601.2183837890625,-1801.4857177734375,17.010000228881836,-0.009683254174888134,-2.6863839626312256,0.0,329.625244140625,210.55638122558594,8.310999870300293,-0.38730135434918156,0.5080691707691244,1.119049203436191
0.0,0.0,92.73999786376953,0.0,0.0,0.0,-1601.2183837890625,-1801.4857177734375,17.010000228881836,-0.009683254174888134,-2.6863839626312256,0.0,329.625244140625,210.55638122558594,8.310999870300293,0.0,0.0,92.73999786376953,0.0,0.0,0.0,-3130.022216796875,-2411.784423828125,17.010000228881836,-0.009491506032645702,-2.758481025695801,0.0,-1204.885498046875,-485.558349609375,8.310999870300293,0.8690861650504634,0.0002101176116396605,2.1599082651159733
0.0,0.0,92.73999786376953,0.0,0.0,0.0,-3130.022216796875,-2411.784423828125,17.010000228881836,-0.009491506032645702,-2.758481025695801,0.0,-1204.885498046875,-485.558349609375,8.310999870300293,0.0,0.0,92.73999786376953,0.0,0.0,0.0,-3262.022705078125,-2465.617431640625,17.010000228881836,-0.009683254174888134,-2.4480416774749756,0.0,480.0872802734375,246.30181884765625,8.331000328063965,-0.9169454850360282,-0.9862298243857099,0.8619508359240626
0.0,0.0,92.73999786376953,0.0,0.0,0.0,-3262.022705078125,-2465.617431640625,17.010000228881836,-0.009683254174888134,-2.4480416774749756,0.0,480.0872802734375,246.30181884765625,8.331000328063965,0.0,0.0,92.73999786376953,0.0,0.0,0.0,-2352.614501953125,-1821.38037109375,17.010000228881836,-0.009587380103766918,-2.7935707569122314,0.0,876.607666015625,347.052734375,8.301000595092773,-0.34429932310590294,0.17241927949045163,1.4960043675727093
0.0,0.0,92.73999786376953,0.0,0.0,0.0,-2352.614501953125,-1821.38037109375,17.010000228881836,-0.009587380103766918,-2.7935707569122314,0.0,876.607666015625,347.052734375,8.301000595092773,0.0,0.0,92.73999786376953,0.0,0.0,0.0,-1403.87158203125,-1915.5296630859375,17.010000228881836,-0.009587380103766918,2.4130475521087646,0.0,980.9619140625,-731.5869140625,8.310999870300293,-0.8218283236362676,0.6018915176620574,0.909067895310784
0.0,0.0,92.73999786376953,0.0,0.0,0.0,-1403.87158203125,-1915.5296630859375,17.010000228881836,-0.009587380103766918,2.4130475521087646,0.0,980.9619140625,-731.5869140625,8.310999870300293,0.0,0.0,92.73999786376953,0.0,0.0,0.0,-2838.020751953125,-4543.228515625,17.010000228881836,-0.009587380103766918,-0.271898090839386,9.58738019107841e-05,-1377.2567138671875,297.19964599609375,8.310999870300293,-0.7421023122786843,0.4745276797647245,2.975941538408364
0.0,0.0,92.73999786376953,0.0,0.0,0.0,-2838.020751953125,-4543.228515625,17.010000228881836,-0.009587380103766918,-0.271898090839386,9.58738019107841e-05,-1377.2567138671875,297.19964599609375,8.310999870300293,0.0,0.0,92.73999786376953,0.0,0.0,0.0,-3740.686279296875,-4178.70361328125,75.66848754882812,-0.20862138271331787,-0.5385231375694275,0.7007415890693665,-1150.337890625,721.873779296875,284.66802978515625,-0.35026925421548305,0.07048564288168715,0.7009690835091646
0.0,0.0,92.73999786376953,0.0,0.0,0.0,-3740.686279296875,-4178.70361328125,75.66848754882812,-0.20862138271331787,-0.5385231375694275,0.7007415890693665,-1150.337890625,721.873779296875,284.66802978515625,0.0,0.0,92.73999786376953,0.0,0.0,0.0,-4078.846923828125,-3560.62255859375,1475.377685546875,-1.0161664485931396,1.5949565172195435,-1.5864237546920776,13.688451766967773,-467.740966796875,907.4461059570312,-0.9937431338855917,-0.5486336952668778,1.6389237263346388
0.0,0.0,92.73999786376953,0.0,0.0,0.0,-4078.846923828125,-3560.62255859375,1475.377685546875,-1.0161664485931396,1.5949565172195435,-1.5864237546920776,13.688451766967773,-467.740966796875,907.4461059570312,0.0,0.0,92.73999786376953,0.0,0.0,0.0,-3428.51123046875,-4297.265625,14.534167289733887,0.18513230979442596,-1.8017562627792358,0.07756190001964569,401.11090087890625,1482.0684814453125,-117.05130004882812,-0.7091108312687435,-0.6565916568815133,2.2819681034670793
0.0,0.0,92.73999786376953,0.0,0.0,0.0,-3428.51123046875,-4297.265625,14.534167289733887,0.18513230979442596,-1.8017562627792358,0.07756190001964569,401.11090087890625,1482.0684814453125,-117.05130004882812,0.0,0.0,92.73999786376953,0.0,0.0,0.0,-3394.346923828125,-4154.72900390625,14.907217025756836,-0.0070946612395346165,-1.7638862133026123,-0.009587380103766918,250.5834197998047,1239.4432373046875,43.68040084838867,0.25180071385372826,0.1349756111228035,0.10515050201317422
0.0,0.0,92.73999786376953,0.0,0.0,0.0,-3394.346923828125,-4154.72900390625,14.907217025756836,-0.0070946612395346165,-1.7638862133026123,-0.009587380103766918,250.5834197998047,1239.4432373046875,43.68040084838867,0.0,0.0,92.73999786376953,0.0,0.0,0.0,-2888.865478515625,-5044.92236328125,714.6990966796875,0.6644054055213928,-0.3603896200656891,1.582588791847229,741.3928833007812,-276.4760437011719,601.9691772460938,0.8539363385878436,0.07878973029989621,2.5248950794298537
0.0,0.0,92.73999786376953,0.0,0.0,0.0,-2888.865478515625,-5044.92236328125,714.6990966796875,0.6644054055213928,-0.3603896200656891,1.582588791847229,741.3928833007812,-276.4760437011719,601.9691772460938,0.0,0.0,92.73999786376953,0.0,0.0,0.0,-2875.642578125,-5049.603515625,698.29248046875,0.6622003316879272,-0.3531031906604767,1.5651397705078125,-464.2728576660156,177.85955810546875,-430.9474792480469,-0.8268200729392204,-0.03469960678150454,0.750982944549321
0.0,0.0,92.73999786376953,0.0,0.0,0.0,-2875.642578125,-5049.603515625,698.29248046875,0.6622003316879272,-0.3531031906604767,1.5651397705078125,-464.2728576660156,177.85955810546875,-430.9474792480469,0.0,0.0,92.73999786376953,0.0,0.0,0.0,-2865.955322265625,-5053.09814453125,754.8306884765625,1.3347550630569458,-0.3624029755592346,1.5302417278289795,64.48143005371094,-14.94027328491211,354.7210693359375,0.7580623288935326,-0.7036409207198812,0.9989735184756796
0.0,0.0,92.73999786376953,0.0,0.0,0.0,-2865.955322265625,-5053.09814453125,754.8306884765625,1.3347550630569458,-0.3624029755592346,1.5302417278289795,64.48143005371094,-14.94027328491211,354.7210693359375,0.0,0.0,92.73999786376953,0.0,0.0,0.0,-2637.34765625,-3290.0771484375,17.010000228881836,-0.009587380103766918,-1.655357003211975,0.0,130.50677490234375,1378.2012939453125,8.321000099182129,-0.6353586112345226,-0.07929981748042085,2.55992797356123
0.0,0.0,92.73999786376953,0.0,0.0,0.0,-2637.34765625,-3290.0771484375,17.010000228881836,-0.009587380103766918,-1.655357003211975,0.0,130.50677490234375,1378.2012939453125,8.321000099182129,0.0,0.0,92.73999786376953,0.0,0.0,0.0,-2613.024658203125,-2989.99462890625,17.010000228881836,-0.009395631961524487,-1.6450026035308838,0.0,-17.01634407043457,-229.173583984375,8.321000099182129,0.9886784240488681,-0.0019445493108913926,0.582030315326648
0.0,0.0,92.73999786376953,0.0,0.0,0.0,-2613.024658203125,-2989.99462890625,17.010000228881836,-0.009395631961524487,-1.6450026035308838,0.0,-17.01634407043457,-229.173583984375,8.321000099182129,0.0,0.0,92.73999786376953,0.0,0.0,0.0,-2238.969482421875,-3814.309326171875,17.010000228881836,-0.009491506032645702,-0.7379406094551086,0.0,767.4573364257812,-708.9898681640625,8.321000099182129,0.7202596613886578,0.32166899224264534,1.3169905204077281
0.0,0.0,92.73999786376953,0.0,0.0,0.0,-2238.969482421875,-3814.309326171875,17.010000228881836,-0.009491506032645702,-0.7379406094551086,0.0,767.4573364257812,-708.9898681640625,8.321000099182129,0.0,0.0,92.73999786376953,0.0,0.0,0.0,-2125.0205078125,-3923.34521484375,17.010000228881836,-0.009875001385807991,-0.8114758133888245,0.0,195.8108367919922,-213.17913818359375,8.321000099182129,-0.2511194541307893,-0.49842260488467977,0.23397549073604296
0.0,0.0,92.73999786376953,0.0,0.0,0.0,-2125.0205078125,-3923.34521484375,17.010000228881836,-0.009875001385807991,-0.8114758133888245,0.0,195.8108367919922,-213.17913818359375,8.321000099182129,0.0,0.0,92.73999786376953,0.0,0.0,0.0,-1591.0594482421875,-4125.2744140625,17.010000228881836,-0.009491506032645702,0.037870150059461594,9.58738019107841e-05,642.1499633789062,29.86058235168457,8.321000099182129,0.29982833092863337,0.37316499096627875,1.362067642442355
0.0,0.0,92.73999786376953,0.0,0.0,0.0,-1591.0594482421875,-4125.2744140625,17.010000228881836,-0.009491506032645702,0.037870150059461594,9.58738019107841e-05,642.1499633789062,29.86058235168457,8.321000099182129,0.0,0.0,92.73999786376953,0.0,0.0,0.0,-1537.0390625,-4122.5908203125,17.010000228881836,-0.009683254174888134,0.09769540280103683,0.0,-163.37940979003906,-18.904491424560547,8.310999870300293,-0.3529382973448483,0.07587430872656013,0.5390599581308777
0.0,0.0,92.73999786376953,0.0,0.0,0.0,-1537.0390625,-4122.5908203125,17.010000228881836,-0.009683254174888134,0.09769540280103683,0.0,-163.37940979003906,-18.904491424560547,8.310999870300293,0.0,0.0,92.73999786376953,0.0,0.0,0.0,-3340.216552734375,-3950.679931640625,17.010000228881836,-0.009683254174888134,-0.25233983993530273,0.0,-1195.5911865234375,294.14349365234375,8.310999870300293,-0.6416190712969774,0.07995913941681891,2.2168110206454514
0.0,0.0,92.73999786376953,0.0,0.0,0.0,-3340.216552734375,-3950.679931640625,17.010000228881836,-0.009683254174888134,-0.25233983993530273,0.0,-1195.5911865234375,294.14349365234375,8.310999870300293,0.0,0.0,92.73999786376953,0.0,0.0,0.0,-3585.4814453125,-3883.902587890625,17.010000228881836,-0.009395631961524487,-0.46671366691589355,-9.58738019107841e-05,80.54057312011719,-25.914892196655273,8.301000595092773,0.992559702895208,0.5969333466040484,0.43900335298420146
0.0,0.0,92.73999786376953,0.0,0.0,0.0,-3585.4814453125,-3883.902587890625,17.010000228881836,-0.009395631961524487,-0.46671366691589355,-9.58738019107841e-05,80.54057312011719,-25.914892196655273,8.301000595092773,0.0,0.0,92.73999786376953,0.0,0.0,0.0,-3582.697265625,-3884.161865234375,17.010000228881836,-0.009683254174888134,-0.4291311204433441,0.0,-87.95764923095703,37.34565734863281,8.301000595092773,-0.6868696686924298,0.15514885243933874,0.1700337620391963
0.0,0.0,92.73999786376953,0.0,0.0,0.0,-3582.697265625,-3884.161865234375,17.010000228881836,-0.009683254174888134,-0.4291311204433441,0.0,-87.95764923095703,37.34565734863281,8.301000595092773,0.0,0.0,92.73999786376953,0.0,0.0,0.0,-4078.97998046875,-3377.041259765625,500.57470703125,-0.9990049600601196,-1.5888205766677856,1.5860402584075928,8.310999870300293,415.9564208984375,620.7311401367188,-0.6803881222405264,0.0022459458324028837,1.704954380329383
0.0,0.0,92.73999786376953,0.0,0.0,0.0,-4078.97998046875,-3377.041259765625,500.57470703125,-0.9990049600601196,-1.5888205766677856,1.5860402584075928,8.310999870300293,415.9564208984375,620.7311401367188,0.0,0.0,92.73999786376953,0.0,0.0,0.0,-3411.53076171875,-2600.765380859375,17.010000228881836,-0.009683254174888134,2.286590099334717,9.58738019107841e-05,977.3225708007812,-883.3394775390625,8.3410005569458,-0.8439687590145362,0.8557824485814501,2.029924272564415
0.0,0.0,92.73999786376953,0.0,0.0,0.0,-3411.53076171875,-2600.765380859375,17.010000228881836,-0.009683254174888134,2.286590099334717,9.58738019107841e-05,977.3225708007812,-883.3394775390625,8.3410005569458,0.0,0.0,92.73999786376953,0.0,0.0,0.0,-3321.49755859375,-2699.90478515625,17.010000228881836,-0.009587380103766918,2.2156434059143066,-0.0003834952076431364,779.3131713867188,-1047.0323486328125,8.291000366210938,-0.730055529927004,-0.7272575446629465,0.10223840932457051
0.0,0.0,92.73999786376953,0.0,0.0,0.0,-3321.49755859375,-2699.90478515625,17.010000228881836,-0.009587380103766918,2.2156434059143066,-0.0003834952076431364,779.3131713867188,-1047.0323486328125,8.291000366210938,0.0,0.0,92.73999786376953,0.0,0.0,0.0,-3342.923095703125,-2297.17041015625,17.010000228881836,-0.009491506032645702,1.4710875749588013,0.0,87.49996948242188,945.3876953125,8.310999870300293,0.7679517101933485,-0.41626520269264367,1.7278133451659698
0.0,0.0,92.73999786376953,0.0,0.0,0.0,-3342.923095703125,-2297.17041015625,17.010000228881836,-0.009491506032645702,1.4710875749588013,0.0,87.49996948242188,945.3876953125,8.310999870300293,0.0,0.0,92.73999786376953,0.0,0.0,0.0,-2972.5732421875,1351.33056640625,17.010000228881836,-0.009587380103766918,1.536281704902649,-9.58738019107841e-05,49.908992767333984,1409.117431640625,8.310999870300293,0.9939149431395619,0.02286141616027748,2.7862163211411826
0.0,0.0,92.73999786376953,0.0,0.0,0.0,-2972.5732421875,1351.33056640625,17.010000228881836,-0.009587380103766918,1.536281704902649,-9.58738019107841e-05,49.908992767333984,1409.117431640625,8.310999870300293,0.0,0.0,92.73999786376953,0.0,0.0,0.0,-2964.80078125,1546.700927734375,17.010000228881836,-0.009875001385807991,1.5183533430099487,0.0,48.241363525390625,922.0801391601562,8.310999870300293,-0.9982086523066824,-0.12968217601276252,0.16021266998180295
0.0,0.0,92.73999786376953,0.0,0.0,0.0,-2964.80078125,1546.700927734375,17.010000228881836,-0.009875001385807991,1.5183533430099487,0.0,48.241363525390625,922.0801391601562,8.310999870300293,0.0,0.0,92.73999786376953,0.0,0.0,0.0,-2958.333740234375,1655.277099609375,17.010000228881836,-0.009779127314686775,1.5005208253860474,0.0,-15.39661693572998,-224.69728088378906,8.310999870300293,-0.9849006339072881,0.006144434001985924,0.416497780959304
0.0,0.0,92.73999786376953,0.0,0.0,0.0,-2958.333740234375,1655.277099609375,17.010000228881836,-0.009779127314686775,1.5005208253860474,0.0,-15.39661693572998,-224.69728088378906,8.310999870300293,0.0,0.0,92.73999786376953,0.0,0.0,0.0,-2885.034423828125,2379.011474609375,17.010000228881836,-0.009587380103766918,1.4483654499053955,9.58738019107841e-05,70.98114013671875,574.1473388671875,8.310999870300293,0.18886113901431423,-0.014953357740701452,2.5649791121628596
