ballLocX_0,ballLocY_0,ballLocZ_0,ballVelX_0,ballVelY_0,ballVelZ_0,carLocX_0,carLocY_0,carLocZ_0,carPitch_0,carYaw_0,carRoll_0,carVelX_0,carVelY_0,carVelZ_0,ballLocX_1,ballLocY_1,ballLocZ_1,ballVelX_1,ballVelY_1,ballVelZ_1,carLocX_1,carLocY_1,carLocZ_1,carPitch_1,carYaw_1,carRoll_1,carVelX_1,carVelY_1,carVelZ_1,throttle,steer,time
0.0,0.0,92.73999786376953,0.0,0.0,0.0,-2047.97998046875,-2560.010009765625,17.010000228881836,-0.009683254174888134,0.7853981852531433,0.0,-0.01655438169836998,-0.01655438169836998,8.321000099182129,0.0,0.0,92.73999786376953,0.0,0.0,0.0,-1416.341552734375,-2376.36181640625,17.010000228881836,-0.009491506032645702,-0.10939200222492218,0.0,458.702880859375,-57.871707916259766,8.321000099182129,0.12967491143745125,-0.27519937518421567,2.835974765261373
0.0,0.0,92.73999786376953,0.0,0.0,0.0,-1416.341552734375,-2376.36181640625,17.010000228881836,-0.009491506032645702,-0.10939200222492218,0.0,458.702880859375,-57.871707916259766,8.321000099182129,0.0,0.0,92.73999786376953,0.0,0.0,0.0,-1091.6982421875,-2675.12548828125,17.010000228881836,-0.009587380103766918,-1.3686943054199219,0.0,146.66180419921875,-727.8695068359375,8.331000328063965,0.4730926075986742,-0.7917164546936828,0.7780061679505001
0.0,0.0,92.73999786376953,0.0,0.0,0.0,-1091.6982421875,-2675.12548828125,17.010000228881836,-0.009587380103766918,-1.3686943054199219,0.0,146.66180419921875,-727.8695068359375,8.331000328063965,0.0,0.0,92.73999786376953,0.0,0.0,0.0,-1023.1712646484375,-4754.115234375,17.010000228881836,-0.009587380103766918,-1.5621676445007324,9.58738019107841e-05,9.563560485839844,-1083.45556640625,8.310999870300293,0.23749443333028086,-0.0069759024762916545,2.2369495970670665
0.0,0.0,92.73999786376953,0.0,0.0,0.0,-1023.1712646484375,-4754.115234375,17.010000228881836,-0.009587380103766918,-1.5621676445007324,9.58738019107841e-05,9.563560485839844,-1083.45556640625,8.310999870300293,0.0,0.0,92.73999786376953,0.0,0.0,0.0,-1262.6744384765625,-5102.97998046875,278.0888977050781,0.47515055537223816,-3.1310465335845947,-1.566290259361267,-655.0685424804688,8.390478134155273,300.9283752441406,0.9773319107575349,-0.881759206990481,0.8682787759583013
0.0,0.0,92.73999786376953,0.0,0.0,0.0,-1262.6744384765625,-5102.97998046875,278.0888977050781,0.47515055537223816,-3.1310465335845947,-1.566290259361267,-655.0685424804688,8.390478134155273,300.9283752441406,0.0,0.0,92.73999786376953,0.0,0.0,0.0,-1425.2913818359375,-4324.525390625,17.010000228881836,-0.009683254174888134,-0.17429856956005096,0.0,-1076.819580078125,316.0220642089844,8.331000328063965,-0.9047690884939069,-0.7079384742252974,2.1269223875195706
0.0,0.0,92.73999786376953,0.0,0.0,0.0,-1425.2913818359375,-4324.525390625,17.010000228881836,-0.009683254174888134,-0.17429856956005096,0.0,-1076.819580078125,316.0220642089844,8.331000328063965,0.0,0.0,92.73999786376953,0.0,0.0,0.0,-2595.431396484375,-4325.15869140625,17.010000228881836,-0.009587380103766918,0.0348980613052845,9.58738019107841e-05,-1241.2657470703125,-43.31174850463867,8.321000099182129,-0.31648575745077945,-0.0005489163624768712,0.9907140941718229
0.0,0.0,92.73999786376953,0.0,0.0,0.0,-2595.431396484375,-4325.15869140625,17.010000228881836,-0.009587380103766918,0.0348980613052845,9.58738019107841e-05,-1241.2657470703125,-43.31174850463867,8.321000099182129,0.0,0.0,92.73999786376953,0.0,0.0,0.0,-2851.9111328125,-4333.3193359375,17.010000228881836,-0.009491506032645702,-0.017257284373044968,-9.58738019107841e-05,67.50489044189453,1.0736713409423828,8.321000099182129,0.31639877978175224,0.16010066070697554,0.5540324300201522
0.0,0.0,92.73999786376953,0.0,0.0,0.0,-2851.9111328125,-4333.3193359375,17.010000228881836,-0.009491506032645702,-0.017257284373044968,-9.58738019107841e-05,67.50489044189453,1.0736713409423828,8.321000099182129,0.0,0.0,92.73999786376953,0.0,0.0,0.0,-3276.7919921875,-4763.09765625,589.8857421875,-0.7505959868431091,2.369425058364868,-1.5797126293182373,385.5823059082031,-374.372314453125,559.780517578125,-0.7203775488562543,-0.4037160945020458,2.0199211039221225
0.0,0.0,92.73999786376953,0.0,0.0,0.0,-3276.7919921875,-4763.09765625,589.8857421875,-0.7505959868431091,2.369425058364868,-1.5797126293182373,385.5823059082031,-374.372314453125,559.780517578125,0.0,0.0,92.73999786376953,0.0,0.0,0.0,-3211.6435546875,-4828.205078125,670.8726196289062,-0.6538593173027039,2.3697125911712646,-1.577123999595642,414.4120178222656,-395.8092346191406,445.0665588378906,-0.03183808770962038,-0.13666434031360145,0.16035566947691393
0.0,0.0,92.73999786376953,0.0,0.0,0.0,-3211.6435546875,-4828.205078125,670.8726196289062,-0.6538593173027039,2.3697125911712646,-1.577123999595642,414.4120178222656,-395.8092346191406,445.0665588378906,0.0,0.0,92.73999786376953,0.0,0.0,0.0,-3479.107666015625,-4560.79248046875,885.478515625,1.3132792711257935,2.393585205078125,-1.5348436832427979,-116.9800796508789,128.4100799560547,640.253662109375,0.797613804691213,0.8771069892210636,1.3746932236078848
0.0,0.0,92.73999786376953,0.0,0.0,0.0,-3479.107666015625,-4560.79248046875,885.478515625,1.3132792711257935,2.393585205078125,-1.5348436832427979,-116.9800796508789,128.4100799560547,640.253662109375,0.0,0.0,92.73999786376953,0.0,0.0,0.0,-3488.203369140625,-4551.6865234375,944.4814453125,1.442421317100525,2.4306883811950684,-1.4966858625411987,-86.6185073852539,97.85820007324219,641.0396728515625,0.6830084334741688,-0.5032924410037072,0.08812478390794176
0.0,0.0,92.73999786376953,0.0,0.0,0.0,-3488.203369140625,-4551.6865234375,944.4814453125,1.442421317100525,2.4306883811950684,-1.4966858625411987,-86.6185073852539,97.85820007324219,641.0396728515625,0.0,0.0,92.73999786376953,0.0,0.0,0.0,-3483.763916015625,-4556.14599609375,877.133056640625,1.463129997253418,2.446507692337036,-1.4811543226242065,67.82267761230469,-56.30268096923828,-699.3718872070312,-0.9955647654164034,-0.11450724859174982,0.5669720437402894
0.0,0.0,92.73999786376953,0.0,0.0,0.0,-3483.763916015625,-4556.14599609375,877.133056640625,1.463129997253418,2.446507692337036,-1.4811543226242065,67.82267761230469,-56.30268096923828,-699.3718872070312,0.0,0.0,92.73999786376953,0.0,0.0,0.0,-3239.98388671875,-4799.916015625,336.3833312988281,0.025310682132840157,2.365781784057617,-1.5706045627593994,393.4548034667969,-382.0380554199219,-138.22354125976562,0.005401684381610039,0.8112841073340482,0.9778526346311924
0.0,0.0,92.73999786376953,0.0,0.0,0.0,-3239.98388671875,-4799.916015625,336.3833312988281,0.025310682132840157,2.365781784057617,-1.5706045627593994,393.4548034667969,-382.0380554199219,-138.22354125976562,0.0,0.0,92.73999786376953,0.0,0.0,0.0,-2686.6982421875,-5094.8427734375,373.425048828125,-0.14112623035907745,3.020695686340332,-1.575110673904419,980.8248901367188,-133.3197021484375,111.48567199707031,-0.9058059811205637,0.029833886138040965,0.8250323306284262
0.0,0.0,92.73999786376953,0.0,0.0,0.0,-2686.6982421875,-5094.8427734375,373.425048828125,-0.14112623035907745,3.020695686340332,-1.575110673904419,980.8248901367188,-133.3197021484375,111.48567199707031,0.0,0.0,92.73999786376953,0.0,0.0,0.0,-2614.496337890625,-5100.89306640625,381.37091064453125,-0.14361895620822906,3.0922176837921143,-1.5746313333511353,1009.3187255859375,-59.75132369995117,117.56002044677734,-0.6657951800632944,0.025787671230821544,0.06915427266917007
0.0,0.0,92.73999786376953,0.0,0.0,0.0,-2614.496337890625,-5100.89306640625,381.37091064453125,-0.14361895620822906,3.0922176837921143,-1.5746313333511353,1009.3187255859375,-59.75132369995117,117.56002044677734,0.0,0.0,92.73999786376953,0.0,0.0,0.0,-2390.323486328125,-5103.06982421875,402.7389221191406,0.15243934094905853,-3.130854845046997,-1.5692623853683472,1001.6788940429688,10.140111923217773,-34.88917541503906,-0.06661198701955873,-0.9322409089149184,0.2229042149738305
0.0,0.0,92.73999786376953,0.0,0.0,0.0,-2390.323486328125,-5103.06982421875,402.7389221191406,0.15243934094905853,-3.130854845046997,-1.5692623853683472,1001.6788940429688,10.140111923217773,-34.88917541503906,0.0,0.0,92.73999786376953,0.0,0.0,0.0,-2509.964599609375,-5102.96044921875,422.2110595703125,0.30909714102745056,-3.132005214691162,-1.5676324367523193,-600.5787353515625,10.336576461791992,162.84071350097656,0.7352470704569181,-0.027717457473822947,1.2058733998568876
0.0,0.0,92.73999786376953,0.0,0.0,0.0,-2509.964599609375,-5102.96044921875,422.2110595703125,0.30909714102745056,-3.132005214691162,-1.5676324367523193,-600.5787353515625,10.336576461791992,162.84071350097656,0.0,0.0,92.73999786376953,0.0,0.0,0.0,-2874.4580078125,-5050.00927734375,737.5532836914062,1.377418875694275,2.846109628677368,-1.5391579866409302,-5.419838905334473,10.213018417358398,39.49299240112305,0.0760086169468912,0.48628020907016073,1.3837443837302246
0.0,0.0,92.73999786376953,0.0,0.0,0.0,-2874.4580078125,-5050.00927734375,737.5532836914062,1.377418875694275,2.846109628677368,-1.5391579866409302,-5.419838905334473,10.213018417358398,39.49299240112305,0.0,0.0,92.73999786376953,0.0,0.0,0.0,-2558.784912109375,-5102.4267578125,897.1325073242188,0.4621117115020752,-0.02406432293355465,1.5726178884506226,-472.0631408691406,20.598379135131836,-149.061767578125,-0.3187035385213072,0.9730725840265483,2.8474118931972185
0.0,0.0,92.73999786376953,0.0,0.0,0.0,-2558.784912109375,-5102.4267578125,897.1325073242188,0.4621117115020752,-0.02406432293355465,1.5726178884506226,-472.0631408691406,20.598379135131836,-149.061767578125,0.0,0.0,92.73999786376953,0.0,0.0,0.0,-2685.09130859375,-5094.29736328125,813.4373168945312,0.5469599962234497,-0.12770390510559082,1.5627429485321045,-558.8331909179688,69.06765747070312,-416.0752868652344,-0.5796622318030845,-0.3162438609009072,0.2448035257728982
0.0,0.0,92.73999786376953,0.0,0.0,0.0,-2685.09130859375,-5094.29736328125,813.4373168945312,0.5469599962234497,-0.12770390510559082,1.5627429485321045,-558.8331909179688,69.06765747070312,-416.0752868652344,0.0,0.0,92.73999786376953,0.0,0.0,0.0,-2762.43408203125,-5080.9609375,741.672607421875,0.5032415986061096,-0.21312744915485382,1.5607296228408813,18.320316314697266,4.582291126251221,-58.5289421081543,0.08581404016229921,-0.47568501791710655,0.4489467733225787
0.0,0.0,92.73999786376953,0.0,0.0,0.0,-2762.43408203125,-5080.9609375,741.672607421875,0.5032415986061096,-0.21312744915485382,1.5607296228408813,18.320316314697266,4.582291126251221,-58.5289421081543,0.0,0.0,92.73999786376953,0.0,0.0,0.0,-2914.724609375,-5034.0146484375,591.2389526367188,0.6867440342903137,-0.39442479610443115,1.5745353698730469,-350.6458435058594,152.8095703125,-330.4454345703125,-0.17607502603625524,0.10333694473016607,0.8530044477090506
0.0,0.0,92.73999786376953,0.0,0.0,0.0,-2914.724609375,-5034.0146484375,591.2389526367188,0.6867440342903137,-0.39442479610443115,1.5745353698730469,-350.6458435058594,152.8095703125,-330.4454345703125,0.0,0.0,92.73999786376953,0.0,0.0,0.0,-2785.46142578125,-5076.3466796875,639.3993530273438,0.5291274785995483,-0.23479492962360382,1.5821094512939453,398.1449890136719,-88.45648193359375,210.23719787597656,0.6752633239899373,0.19129706312199382,1.0290371093600683
0.0,0.0,92.73999786376953,0.0,0.0,0.0,-2785.46142578125,-5076.3466796875,639.3993530273438,0.5291274785995483,-0.23479492962360382,1.5821094512939453,398.1449890136719,-88.45648193359375,210.23719787597656,0.0,0.0,92.73999786376953,0.0,0.0,0.0,-3044.2587890625,-4966.2490234375,1107.374267578125,-0.4622075855731964,2.5629942417144775,-1.553443193435669,477.7027282714844,-291.1534423828125,420.3361511230469,-0.8267980009873814,-0.9639523338713866,1.8222567245866514
0.0,0.0,92.73999786376953,0.0,0.0,0.0,-3044.2587890625,-4966.2490234375,1107.374267578125,-0.4622075855731964,2.5629942417144775,-1.553443193435669,477.7027282714844,-291.1534423828125,420.3361511230469,0.0,0.0,92.73999786376953,0.0,0.0,0.0,-1057.7864990234375,-5102.97998046875,365.0639343261719,0.8109005689620972,-3.1276910305023193,-1.5608254671096802,1114.4266357421875,8.361000061035156,-1135.390869140625,-0.7297857372918339,-0.24905788755783034,1.9589885943036371
0.0,0.0,92.73999786376953,0.0,0.0,0.0,-1057.7864990234375,-5102.97998046875,365.0639343261719,0.8109005689620972,-3.1276910305023193,-1.5608254671096802,1114.4266357421875,8.361000061035156,-1135.390869140625,0.0,0.0,92.73999786376953,0.0,0.0,0.0,-432.7922668457031,-5117.921875,138.15875244140625,0.6525170803070068,-1.2210487127304077,0.7898083329200745,789.0189208984375,-14.477848052978516,28.166038513183594,-0.7836680122992976,0.42215752952142543,0.6916370214082974
0.0,0.0,92.73999786376953,0.0,0.0,0.0,-432.7922668457031,-5117.921875,138.15875244140625,0.6525170803070068,-1.2210487127304077,0.7898083329200745,789.0189208984375,-14.477848052978516,28.166038513183594,0.0,0.0,92.73999786376953,0.0,0.0,0.0,396.8663330078125,-5654.55126953125,28.903701782226562,0.02895388752222061,-1.78574538230896,-0.008436894044280052,-147.6585235595703,-639.2633666992188,32.92367935180664,0.28218034323841723,-0.6306593767195143,1.8873585897814564
0.0,0.0,92.73999786376953,0.0,0.0,0.0,396.8663330078125,-5654.55126953125,28.903701782226562,0.02895388752222061,-1.78574538230896,-0.008436894044280052,-147.6585235595703,-639.2633666992188,32.92367935180664,0.0,0.0,92.73999786376953,0.0,0.0,0.0,369.4407043457031,-5749.626953125,33.3294563293457,0.05158010497689247,-1.9057793617248535,-0.023393206298351288,-239.54444885253906,-700.9642333984375,54.14463424682617,0.8000753188924367,-0.11573103891042802,0.143654744284337
0.0,0.0,92.73999786376953,0.0,0.0,0.0,369.4407043457031,-5749.626953125,33.3294563293457,0.05158010497689247,-1.9057793617248535,-0.023393206298351288,-239.54444885253906,-700.9642333984375,54.14463424682617,0.0,0.0,92.73999786376953,0.0,0.0,0.0,-312.3428039550781,-4384.607421875,231.0794219970703,0.3278883993625641,1.8268752098083496,3.0913548469543457,-291.3333740234375,953.0703125,-637.0513916015625,0.8671452009505533,0.003948880693379712,2.4349735988951977
0.0,0.0,92.73999786376953,0.0,0.0,0.0,-312.3428039550781,-4384.607421875,231.0794219970703,0.3278883993625641,1.8268752098083496,3.0913548469543457,-291.3333740234375,953.0703125,-637.0513916015625,0.0,0.0,92.73999786376953,0.0,0.0,0.0,-1475.5694580078125,-2380.777099609375,17.0,-0.009491506032645702,-3.012162923812866,9.58738019107841e-05,-1279.7276611328125,-135.98573303222656,8.430999755859375,0.9878650019929054,0.5639661777996704,2.9979988565703692
0.0,0.0,92.73999786376953,0.0,0.0,0.0,-1475.5694580078125,-2380.777099609375,17.0,-0.009491506032645702,-3.012162923812866,9.58738019107841e-05,-1279.7276611328125,-135.98573303222656,8.430999755859375,0.0,0.0,92.73999786376953,0.0,0.0,0.0,-1772.9959716796875,-1100.057373046875,17.0,-0.009587380103766918,-0.3569381535053253,0.0,-1031.0225830078125,491.8245544433594,8.430999755859375,-0.5969557870072046,-0.5798885493540087,2.8755049227222216
0.0,0.0,92.73999786376953,0.0,0.0,0.0,-1772.9959716796875,-1100.057373046875,17.0,-0.009587380103766918,-0.3569381535053253,0.0,-1031.0225830078125,491.8245544433594,8.430999755859375,0.0,0.0,92.73999786376953,0.0,0.0,0.0,-1894.2523193359375,-1053.6956787109375,17.0,-0.009299758821725845,-0.3345995545387268,0.0001917476038215682,-678.3444213867188,211.34213256835938,8.41100025177002,0.9619108928816794,0.4518906852226049,0.14036264105626373
0.0,0.0,92.73999786376953,0.0,0.0,0.0,-1894.2523193359375,-1053.6956787109375,17.0,-0.009299758821725845,-0.3345995545387268,0.0001917476038215682,-678.3444213867188,211.34213256835938,8.41100025177002,0.0,0.0,92.73999786376953,0.0,0.0,0.0,-2240.259521484375,-896.5447998046875,17.0,-0.009683254174888134,-0.5869393944740295,0.0,-755.8851318359375,461.1756896972656,8.421000480651855,-0.6569759524229999,0.2201165617210203,0.5009929261972488
0.0,0.0,92.73999786376953,0.0,0.0,0.0,-2240.259521484375,-896.5447998046875,17.0,-0.009683254174888134,-0.5869393944740295,0.0,-755.8851318359375,461.1756896972656,8.421000480651855,0.0,0.0,92.73999786376953,0.0,0.0,0.0,-2852.031982421875,-431.68084716796875,17.0,-0.009587380103766918,-0.7300789952278137,9.58738019107841e-05,-85.70988464355469,75.1354751586914,8.421000480651855,-0.0002218903931578975,0.04943595351602022,1.4979873882940353
0.0,0.0,92.73999786376953,0.0,0.0,0.0,-2852.031982421875,-431.68084716796875,17.0,-0.009587380103766918,-0.7300789952278137,9.58738019107841e-05,-85.70988464355469,75.1354751586914,8.421000480651855,0.0,0.0,92.73999786376953,0.0,0.0,0.0,-2880.634765625,-405.06732177734375,17.0,-0.009587380103766918,-0.6977695226669312,0.0,-111.67033386230469,101.84073638916016,8.421000480651855,-0.10689681682905872,-0.18497819974388988,0.3080245936478221
0.0,0.0,92.73999786376953,0.0,0.0,0.0,-2880.634765625,-405.06732177734375,17.0,-0.009587380103766918,-0.6977695226669312,0.0,-111.67033386230469,101.84073638916016,8.421000480651855,0.0,0.0,92.73999786376953,0.0,0.0,0.0,-1292.5263671875,-2163.218017578125,17.0,-0.009587380103766918,-0.9415766000747681,0.0,820.9577026367188,-1123.4896240234375,8.421000480651855,0.8577756618428762,-0.04444457173516715,2.6239342644063512
0.0,0.0,92.73999786376953,0.0,0.0,0.0,-1292.5263671875,-2163.218017578125,17.0,-0.009587380103766918,-0.9415766000747681,0.0,820.9577026367188,-1123.4896240234375,8.421000480651855,0.0,0.0,92.73999786376953,0.0,0.0,0.0,232.09326171875,-1949.6142578125,17.0,-0.009587380103766918,1.4876737594604492,0.0,147.77809143066406,1270.5574951171875,8.440999984741211,0.40887324893086385,0.7566710819416049,1.523004654421186
0.0,0.0,92.73999786376953,0.0,0.0,0.0,232.09326171875,-1949.6142578125,17.0,-0.009587380103766918,1.4876737594604492,0.0,147.77809143066406,1270.5574951171875,8.440999984741211,0.0,0.0,92.73999786376953,0.0,0.0,0.0,179.60781860351562,-1116.0377197265625,17.0,-0.009587380103766918,1.6997466087341309,0.0,-162.3531951904297,1272.6617431640625,8.430999755859375,0.07472546177381723,0.05470862395928782,0.6530033716732433
0.0,0.0,92.73999786376953,0.0,0.0,0.0,179.60781860351562,-1116.0377197265625,17.0,-0.009587380103766918,1.6997466087341309,0.0,-162.3531951904297,1272.6617431640625,8.430999755859375,0.0,0.0,92.73999786376953,0.0,0.0,0.0,493.30084228515625,-255.44662475585938,17.0,-0.009587380103766918,0.5554928183555603,0.0,1110.645263671875,745.0711669921875,8.440999984741211,0.9905160608259453,-0.7821651495328938,0.7890437468019798
0.0,0.0,92.73999786376953,0.0,0.0,0.0,493.30084228515625,-255.44662475585938,17.0,-0.009587380103766918,0.5554928183555603,0.0,1110.645263671875,745.0711669921875,8.440999984741211,0.0,0.0,92.73999786376953,0.0,0.0,0.0,1368.93359375,341.4736633300781,17.0,-0.009587380103766918,0.7972865104675293,0.0,953.3084716796875,957.1978149414062,8.430999755859375,0.1668063299547542,0.24331643177595447,0.7948820905450162
0.0,0.0,92.73999786376953,0.0,0.0,0.0,1368.93359375,341.4736633300781,17.0,-0.009587380103766918,0.7972865104675293,0.0,953.3084716796875,957.1978149414062,8.430999755859375,0.0,0.0,92.73999786376953,0.0,0.0,0.0,1359.105712890625,328.43414306640625,17.0,-0.009587380103766918,0.7721675634384155,0.0,-531.8494873046875,-535.2969970703125,8.430999755859375,-0.8262712412813797,0.08991429200560484,1.2291573988363567
0.0,0.0,92.73999786376953,0.0,0.0,0.0,1359.105712890625,328.43414306640625,17.0,-0.009587380103766918,0.7721675634384155,0.0,-531.8494873046875,-535.2969970703125,8.430999755859375,0.0,0.0,92.73999786376953,0.0,0.0,0.0,2520.00927734375,-460.1038818359375,17.0,-0.009587380103766918,-2.0014615058898926,0.0,679.5778198242188,1133.102294921875,8.440999984741211,-0.8888057115042804,-0.7920660797501516,2.235840147518843
0.0,0.0,92.73999786376953,0.0,0.0,0.0,2520.00927734375,-460.1038818359375,17.0,-0.009587380103766918,-2.0014615058898926,0.0,679.5778198242188,1133.102294921875,8.440999984741211,0.0,0.0,92.73999786376953,0.0,0.0,0.0,2359.741943359375,-489.8971862792969,17.0,-0.009491506032645702,-2.7994191646575928,0.0,-811.9652099609375,-296.3836364746094,8.430999755859375,0.9996530208772114,-0.753860110156701,1.2611250067606221
0.0,0.0,92.73999786376953,0.0,0.0,0.0,2359.741943359375,-489.8971862792969,17.0,-0.009491506032645702,-2.7994191646575928,0.0,-811.9652099609375,-296.3836364746094,8.430999755859375,0.0,0.0,92.73999786376953,0.0,0.0,0.0,2296.08740234375,-509.16912841796875,17.0,-0.009491506032645702,-2.9307661056518555,-9.58738019107841e-05,-872.4287109375,-216.9192657470703,8.430999755859375,0.44487458671965263,-0.11606900557572353,0.0668501402102919
0.0,0.0,92.73999786376953,0.0,0.0,0.0,2296.08740234375,-509.16912841796875,17.0,-0.009491506032645702,-2.9307661056518555,-9.58738019107841e-05,-872.4287109375,-216.9192657470703,8.430999755859375,0.0,0.0,92.73999786376953,0.0,0.0,0.0,-794.5115356445312,-1691.2034912109375,17.0,-0.009683254174888134,-2.567500352859497,0.0,-1186.3232421875,-761.91552734375,8.430999755859375,0.9778784713596146,0.08147642207566147,2.571966548878507
0.0,0.0,92.73999786376953,0.0,0.0,0.0,-794.5115356445312,-1691.2034912109375,17.0,-0.009683254174888134,-2.567500352859497,0.0,-1186.3232421875,-761.91552734375,8.430999755859375,0.0,0.0,92.73999786376953,0.0,0.0,0.0,-906.0689086914062,-1754.905517578125,17.0,-0.009587380103766918,-2.354948043823242,0.0,138.53878784179688,119.8787612915039,8.430999755859375,-0.061193717847095486,-0.3315138143730088,2.4379876318179257
0.0,0.0,92.73999786376953,0.0,0.0,0.0,-906.0689086914062,-1754.905517578125,17.0,-0.009587380103766918,-2.354948043823242,0.0,138.53878784179688,119.8787612915039,8.430999755859375,0.0,0.0,92.73999786376953,0.0,0.0,0.0,-652.0282592773438,-434.7907409667969,17.0,-0.009587380103766918,-0.3454332947731018,0.0,1257.9677734375,-411.18695068359375,8.430999755859375,0.901703604776351,-0.6680039001192608,2.970934857075541
0.0,0.0,92.73999786376953,0.0,0.0,0.0,-652.0282592773438,-434.7907409667969,17.0,-0.009587380103766918,-0.3454332947731018,0.0,1257.9677734375,-411.18695068359375,8.430999755859375,0.0,0.0,92.73999786376953,0.0,0.0,0.0,-1380.3619384765625,-26.36219596862793,17.0,-0.009683254174888134,-0.49739328026771545,9.58738019107841e-05,-992.365234375,537.2257080078125,8.430999755859375,-0.7596241501766483,0.01029401610874906,2.0809915160240138
0.0,0.0,92.73999786376953,0.0,0.0,0.0,-1380.3619384765625,-26.36219596862793,17.0,-0.009683254174888134,-0.49739328026771545,9.58738019107841e-05,-992.365234375,537.2257080078125,8.430999755859375,0.0,0.0,92.73999786376953,0.0,0.0,0.0,-1478.152587890625,12.561294555664062,17.0,-0.009491506032645702,-0.6845389008522034,0.0,301.5093078613281,-267.407958984375,8.421000480651855,0.47473147456610465,-0.4859727513598172,0.9840050109288399
0.0,0.0,92.73999786376953,0.0,0.0,0.0,-1478.152587890625,12.561294555664062,17.0,-0.009491506032645702,-0.6845389008522034,0.0,301.5093078613281,-267.407958984375,8.421000480651855,0.0,0.0,92.73999786376953,0.0,0.0,0.0,-2481.278076171875,939.6240234375,17.0,-0.009683254174888134,-0.7334345579147339,0.0,-923.9603271484375,834.4254150390625,8.421000480651855,-0.8649430132658962,-0.008321791348323431,1.956897686834509
0.0,0.0,92.73999786376953,0.0,0.0,0.0,-2481.278076171875,939.6240234375,17.0,-0.009683254174888134,-0.7334345579147339,0.0,-923.9603271484375,834.4254150390625,8.421000480651855,0.0,0.0,92.73999786376953,0.0,0.0,0.0,-2412.7470703125,-1189.076416015625,17.0,-0.009491506032645702,-2.036167860031128,0.0,-614.26220703125,-1255.751708984375,8.421000480651855,0.8957149518665549,-0.24737472932703897,2.965968385501725
0.0,0.0,92.73999786376953,0.0,0.0,0.0,-2412.7470703125,-1189.076416015625,17.0,-0.009491506032645702,-2.036167860031128,0.0,-614.26220703125,-1255.751708984375,8.421000480651855,0.0,0.0,92.73999786376953,0.0,0.0,0.0,-2552.68359375,-1444.7122802734375,17.0,-0.009779127314686775,-2.1237964630126953,0.0,98.43617248535156,149.4071807861328,8.421000480651855,-0.9854751769088254,-0.1266863791824397,0.541056570883427
0.0,0.0,92.73999786376953,0.0,0.0,0.0,-2552.68359375,-1444.7122802734375,17.0,-0.009779127314686775,-2.1237964630126953,0.0,98.43617248535156,149.4071807861328,8.421000480651855,0.0,0.0,92.73999786376953,0.0,0.0,0.0,-2648.252197265625,-413.39544677734375,17.0,-0.009587380103766918,-0.8754236698150635,0.0,-697.4848022460938,958.5331420898438,8.421000480651855,-0.9685745178472116,-0.4474446642493903,1.3899550924951853
0.0,0.0,92.73999786376953,0.0,0.0,0.0,-2648.252197265625,-413.39544677734375,17.0,-0.009587380103766918,-0.8754236698150635,0.0,-697.4848022460938,958.5331420898438,8.421000480651855,0.0,0.0,92.73999786376953,0.0,0.0,0.0,-4078.97998046875,1318.02001953125,712.576904296875,-0.9812683463096619,-1.5881494283676147,1.5854650735855103,8.301000595092773,664.3186645507812,943.6207885742188,-0.7922908299449227,-0.07854802614284523,2.061020574654094
0.0,0.0,92.73999786376953,0.0,0.0,0.0,-4078.97998046875,1318.02001953125,712.576904296875,-0.9812683463096619,-1.5881494283676147,1.5854650735855103,8.301000595092773,664.3186645507812,943.6207885742188,0.0,0.0,92.73999786376953,0.0,0.0,0.0,-3758.943359375,2264.071533203125,1994.7249755859375,-0.32645028829574585,-2.546599864959717,2.965472459793091,771.1046142578125,542.9409790039062,278.7205810546875,-0.7790824434903664,-0.025062656286744183,1.6639223034188717
0.0,0.0,92.73999786376953,0.0,0.0,0.0,-3758.943359375,2264.071533203125,1994.7249755859375,-0.32645028829574585,-2.546599864959717,2.965472459793091,771.1046142578125,542.9409790039062,278.7205810546875,0.0,0.0,92.73999786376953,0.0,0.0,0.0,-3774.22607421875,2260.551513671875,258.2159423828125,-0.13163472712039948,-2.5647199153900146,3.076686143875122,-120.17549133300781,-77.52041625976562,-1518.2694091796875,0.8844557679383224,-0.5209482196670235,2.537618636487082
0.0,0.0,92.73999786376953,0.0,0.0,0.0,-3774.22607421875,2260.551513671875,258.2159423828125,-0.13163472712039948,-2.5647199153900146,3.076686143875122,-120.17549133300781,-77.52041625976562,-1518.2694091796875,0.0,0.0,92.73999786376953,0.0,0.0,0.0,-3043.03857421875,2693.40087890625,17.010000228881836,-0.009587380103766918,-2.2379820346832275,-9.58738019107841e-05,673.1788330078125,815.2780151367188,8.321000099182129,-0.7179331903564692,-0.1518886654734516,2.5009770688274955
0.0,0.0,92.73999786376953,0.0,0.0,0.0,-3043.03857421875,2693.40087890625,17.010000228881836,-0.009587380103766918,-2.2379820346832275,-9.58738019107841e-05,673.1788330078125,815.2780151367188,8.321000099182129,0.0,0.0,92.73999786376953,0.0,0.0,0.0,-4073.7861328125,3662.229736328125,248.22640991210938,0.23297333717346191,1.5056021213531494,-1.507327914237976,-55.651676177978516,-1101.6905517578125,-175.80287170410156,-0.38936497296759853,-0.6287253802892881,2.572962165165265
0.0,0.0,92.73999786376953,0.0,0.0,0.0,-4073.7861328125,3662.229736328125,248.22640991210938,0.23297333717346191,1.5056021213531494,-1.507327914237976,-55.651676177978516,-1101.6905517578125,-175.80287170410156,0.0,0.0,92.73999786376953,0.0,0.0,0.0,-4043.8408203125,2675.630859375,135.7589111328125,-0.16116385161876678,1.4775111675262451,-1.0192344188690186,-70.37162017822266,-1273.1849365234375,129.51255798339844,-0.5580860483697762,0.34144363449516735,0.8224943019656621
0.0,0.0,92.73999786376953,0.0,0.0,0.0,-4043.8408203125,2675.630859375,135.7589111328125,-0.16116385161876678,1.4775111675262451,-1.0192344188690186,-70.37162017822266,-1273.1849365234375,129.51255798339844,0.0,0.0,92.73999786376953,0.0,0.0,0.0,-4054.495849609375,2429.662109375,156.75778198242188,-0.17794176936149597,1.5082865953445435,-1.1373509168624878,41.519073486328125,343.01422119140625,-78.602783203125,0.8722381604990042,-0.03681628177737472,0.6564424387388783
0.0,0.0,92.73999786376953,0.0,0.0,0.0,-4054.495849609375,2429.662109375,156.75778198242188,-0.17794176936149597,1.5082865953445435,-1.1373509168624878,41.519073486328125,343.01422119140625,-78.602783203125,0.0,0.0,92.73999786376953,0.0,0.0,0.0,-2953.70703125,4642.72216796875,17.010000228881836,-0.009587380103766918,0.7835765480995178,0.0,833.5987548828125,836.8302001953125,8.321000099182129,0.3449549203386362,-0.11732618077497287,2.9209518612729255
0.0,0.0,92.73999786376953,0.0,0.0,0.0,-2953.70703125,4642.72216796875,17.010000228881836,-0.009587380103766918,0.7835765480995178,0.0,833.5987548828125,836.8302001953125,8.321000099182129,0.0,0.0,92.73999786376953,0.0,0.0,0.0,-2884.444091796875,4709.57470703125,17.010000228881836,-0.009683254174888134,0.4933665692806244,0.0,-429.0711669921875,-340.95233154296875,8.331000328063965,-0.9682528859394752,0.8213826498465104,0.7941503861977424
0.0,0.0,92.73999786376953,0.0,0.0,0.0,-2884.444091796875,4709.57470703125,17.010000228881836,-0.009683254174888134,0.4933665692806244,0.0,-429.0711669921875,-340.95233154296875,8.331000328063965,0.0,0.0,92.73999786376953,0.0,0.0,0.0,-2529.723876953125,5102.931640625,641.152587890625,1.2164467573165894,3.1185829639434814,1.5477865934371948,-297.76617431640625,-10.437045097351074,790.1600341796875,0.9396143329415716,0.411583634136869,1.9568147188106053
0.0,0.0,92.73999786376953,0.0,0.0,0.0,-2529.723876953125,5102.931640625,641.152587890625,1.2164467573165894,3.1185829639434814,1.5477865934371948,-297.76617431640625,-10.437045097351074,790.1600341796875,0.0,0.0,92.73999786376953,0.0,0.0,0.0,-2740.71142578125,5085.56982421875,1209.8885498046875,1.452296257019043,-3.060483455657959,1.4656227827072144,0.3266395032405853,-8.351011276245117,-13.127338409423828,0.03426760875378232,-0.09903116071804284,2.786678450202629
0.0,0.0,92.73999786376953,0.0,0.0,0.0,-2740.71142578125,5085.56982421875,1209.8885498046875,1.452296257019043,-3.060483455657959,1.4656227827072144,0.3266395032405853,-8.351011276245117,-13.127338409423828,0.0,0.0,92.73999786376953,0.0,0.0,0.0,-2695.43603515625,5093.1142578125,789.963134765625,1.4491324424743652,-3.0945186614990234,1.4883449077606201,121.3890380859375,7.240263938903809,-1027.4005126953125,-0.7259140833343878,-0.008430873660086663,0.7663422229936998
0.0,0.0,92.73999786376953,0.0,0.0,0.0,-2695.43603515625,5093.1142578125,789.963134765625,1.4491324424743652,-3.0945186614990234,1.4883449077606201,121.3890380859375,7.240263938903809,-1027.4005126953125,0.0,0.0,92.73999786376953,0.0,0.0,0.0,-3613.732421875,4426.1875,994.1773071289062,-0.4734248220920563,-2.36702823638916,1.5758776664733887,592.870849609375,581.3108520507812,566.810791015625,-0.9990586957357932,0.8800627387432892,2.3700719329935396
0.0,0.0,92.73999786376953,0.0,0.0,0.0,-3613.732421875,4426.1875,994.1773071289062,-0.4734248220920563,-2.36702823638916,1.5758776664733887,592.870849609375,581.3108520507812,566.810791015625,0.0,0.0,92.73999786376953,0.0,0.0,0.0,-3527.709716796875,4512.2001953125,1034.2120361328125,-0.3524320721626282,-2.3663570880889893,1.574439525604248,-89.80520629882812,-101.24520874023438,-59.098968505859375,0.23196667976356056,-0.9549231676517453,0.6257929746755053
0.0,0.0,92.73999786376953,0.0,0.0,0.0,-3527.709716796875,4512.2001953125,1034.2120361328125,-0.3524320721626282,-2.3663570880889893,1.574439525604248,-89.80520629882812,-101.24520874023438,-59.098968505859375,0.0,0.0,92.73999786376953,0.0,0.0,0.0,-3569.762939453125,4470.146484375,1002.0164794921875,-0.41781800985336304,-2.366548776626587,1.574823021888733,-269.3291015625,-280.6894226074219,-233.4691619873047,0.9829219425313112,0.7056532360088306,0.217111744336151
0.0,0.0,92.73999786376953,0.0,0.0,0.0,-3569.762939453125,4470.146484375,1002.0164794921875,-0.41781800985336304,-2.366548776626587,1.574823021888733,-269.3291015625,-280.6894226074219,-233.4691619873047,0.0,0.0,92.73999786376953,0.0,0.0,0.0,-3566.702392578125,4473.21728515625,887.0186767578125,-0.7126299738883972,-2.368945598602295,1.5793291330337524,34.974483489990234,23.520463943481445,-73.9913558959961,-0.11654527271144277,-0.2353429260751279,1.3310393005087775
0.0,0.0,92.73999786376953,0.0,0.0,0.0,-3566.702392578125,4473.21728515625,887.0186767578125,-0.7126299738883972,-2.368945598602295,1.5793291330337524,34.974483489990234,23.520463943481445,-73.9913558959961,0.0,0.0,92.73999786376953,0.0,0.0,0.0,-3662.489013671875,2934.622802734375,17.010000228881836,-0.009395631961524487,-1.1601688861846924,-0.0003834952076431364,573.6491088867188,-1317.8118896484375,8.323989868164062,0.9787069891102087,0.009490216517336987,1.9978855896435448
0.0,0.0,92.73999786376953,0.0,0.0,0.0,-3662.489013671875,2934.622802734375,17.010000228881836,-0.009395631961524487,-1.1601688861846924,-0.0003834952076431364,573.6491088867188,-1317.8118896484375,8.323989868164062,0.0,0.0,92.73999786376953,0.0,0.0,0.0,-3657.0390625,2922.103515625,17.010000228881836,-0.009491506032645702,-1.1599770784378052,-0.00028762139845639467,573.8087768554688,-1317.7320556640625,8.31258773803711,0.5154638015734474,-0.11666085700642027,0.012006011075811784
0.0,0.0,92.73999786376953,0.0,0.0,0.0,-3657.0390625,2922.103515625,17.010000228881836,-0.009491506032645702,-1.1599770784378052,-0.00028762139845639467,573.8087768554688,-1317.7320556640625,8.31258773803711,0.0,0.0,92.73999786376953,0.0,0.0,0.0,-2999.333740234375,1979.3262939453125,17.010000228881836,-0.009587380103766918,-0.6877027750015259,0.0,1083.81884765625,-914.0330200195312,8.310999870300293,0.865548928944145,0.30916074954868444,0.8179681555698579
0.0,0.0,92.73999786376953,0.0,0.0,0.0,-2999.333740234375,1979.3262939453125,17.010000228881836,-0.009587380103766918,-0.6877027750015259,0.0,1083.81884765625,-914.0330200195312,8.310999870300293,0.0,0.0,92.73999786376953,0.0,0.0,0.0,-3098.624267578125,2106.34326171875,17.010000228881836,-0.009587380103766918,-0.962956428527832,-9.58738019107841e-05,-560.2725219726562,729.7852172851562,8.310999870300293,-0.9286643728077705,0.26754608751916853,1.3810188983035658
0.0,0.0,92.73999786376953,0.0,0.0,0.0,-3098.624267578125,2106.34326171875,17.010000228881836,-0.009587380103766918,-0.962956428527832,-9.58738019107841e-05,-560.2725219726562,729.7852172851562,8.310999870300293,0.0,0.0,92.73999786376953,0.0,0.0,0.0,-3152.326904296875,2135.51220703125,17.010000228881836,-0.009587380103766918,-1.3887319564819336,9.58738019107841e-05,19.18537712097168,-298.488525390625,8.310999870300293,0.3345620762714272,-0.9717099222653315,0.9419804325720662
0.0,0.0,92.73999786376953,0.0,0.0,0.0,-3152.326904296875,2135.51220703125,17.010000228881836,-0.009587380103766918,-1.3887319564819336,9.58738019107841e-05,19.18537712097168,-298.488525390625,8.310999870300293,0.0,0.0,92.73999786376953,0.0,0.0,0.0,-3137.822998046875,674.908935546875,17.010000228881836,-0.009587380103766918,-1.604543924331665,9.58738019107841e-05,-36.50093078613281,-1101.1812744140625,8.310999870300293,0.5180844958916194,-0.02126949890011755,1.9148708431391697
0.0,0.0,92.73999786376953,0.0,0.0,0.0,-3137.822998046875,674.908935546875,17.010000228881836,-0.009587380103766918,-1.604543924331665,9.58738019107841e-05,-36.50093078613281,-1101.1812744140625,8.310999870300293,0.0,0.0,92.73999786376953,0.0,0.0,0.0,-1773.319580078125,-243.3836669921875,17.010000228881836,-0.009587380103766918,0.4998859763145447,9.58738019107841e-05,1191.14306640625,610.7536010742188,8.321000099182129,0.7982717312597178,0.5978819648484053,1.6170988885399709
0.0,0.0,92.73999786376953,0.0,0.0,0.0,-1773.319580078125,-243.3836669921875,17.010000228881836,-0.009587380103766918,0.4998859763145447,9.58738019107841e-05,1191.14306640625,610.7536010742188,8.321000099182129,0.0,0.0,92.73999786376953,0.0,0.0,0.0,-3459.40283203125,-328.20172119140625,17.010000228881836,-0.009683254174888134,-0.32395756244659424,0.0,-1243.1597900390625,376.2962951660156,8.321000099182129,-0.7435002794206437,0.22122657639782609,2.8430004295648246
0.0,0.0,92.73999786376953,0.0,0.0,0.0,-3459.40283203125,-328.20172119140625,17.010000228881836,-0.009683254174888134,-0.32395756244659424,0.0,-1243.1597900390625,376.2962951660156,8.321000099182129,0.0,0.0,92.73999786376953,0.0,0.0,0.0,-4078.97998046875,-90.19523620605469,1139.1522216796875,-1.2234455347061157,1.599174976348877,-1.5974491834640503,8.301000595092773,-9.64824104309082,-20.165786743164062,-0.042173957540029505,-0.16422742657736514,2.8788355367054095
0.0,0.0,92.73999786376953,0.0,0.0,0.0,-4078.97998046875,-90.19523620605469,1139.1522216796875,-1.2234455347061157,1.599174976348877,-1.5974491834640503,8.301000595092773,-9.64824104309082,-20.165786743164062,0.0,0.0,92.73999786376953,0.0,0.0,0.0,-4078.97998046875,-144.8615264892578,1026.8575439453125,-0.46738478541374207,1.5816301107406616,-1.5756858587265015,8.291000366210938,-16.496219635009766,-71.18133544921875,-0.014882111225118733,-0.3975717694161706,2.881967933566685
0.0,0.0,92.73999786376953,0.0,0.0,0.0,-4078.97998046875,-144.8615264892578,1026.8575439453125,-0.46738478541374207,1.5816301107406616,-1.5756858587265015,8.291000366210938,-16.496219635009766,-71.18133544921875,0.0,0.0,92.73999786376953,0.0,0.0,0.0,-3938.855224609375,842.4276733398438,1875.700927734375,0.7695789933204651,-0.35895150899887085,2.8910744190216064,531.78173828125,-205.68209838867188,514.4383544921875,0.7522293573777381,0.41159520484183243,2.418001399412887
0.0,0.0,92.73999786376953,0.0,0.0,0.0,-3938.855224609375,842.4276733398438,1875.700927734375,0.7695789933204651,-0.35895150899887085,2.8910744190216064,531.78173828125,-205.68209838867188,514.4383544921875,0.0,0.0,92.73999786376953,0.0,0.0,0.0,-3825.46435546875,795.0123291015625,1963.61474609375,0.4760134220123291,-0.373140811920166,2.9627881050109863,610.9794921875,-254.8799285888672,364.50750732421875,0.3992937149295198,-0.0005835411936962677,0.19799511876178144
0.0,0.0,92.73999786376953,0.0,0.0,0.0,-3825.46435546875,795.0123291015625,1963.61474609375,0.4760134220123291,-0.373140811920166,2.9627881050109863,610.9794921875,-254.8799285888672,364.50750732421875,0.0,0.0,92.73999786376953,0.0,0.0,0.0,-3737.609130859375,759.327880859375,2002.297607421875,0.28608742356300354,-0.36499154567718506,3.026639938354492,689.4288940429688,-282.15716552734375,240.95565795898438,0.6536005466913823,0.11758594060993391,0.1370575121316051
0.0,0.0,92.73999786376953,0.0,0.0,0.0,-3737.609130859375,759.327880859375,2002.297607421875,0.28608742356300354,-0.36499154567718506,3.026639938354492,689.4288940429688,-282.15716552734375,240.95565795898438,0.0,0.0,92.73999786376953,0.0,0.0,0.0,-2552.0556640625,313.59222412109375,1728.20556640625,-0.1769830286502838,-0.3466796576976776,-3.1167614459991455,918.6593017578125,-339.845947265625,-615.5531005859375,0.5673484669044857,-0.013530123623801887,1.4639073521845347
0.0,0.0,92.73999786376953,0.0,0.0,0.0,-2552.0556640625,313.59222412109375,1728.20556640625,-0.1769830286502838,-0.3466796576976776,-3.1167614459991455,918.6593017578125,-339.845947265625,-615.5531005859375,0.0,0.0,92.73999786376953,0.0,0.0,0.0,-2151.86767578125,165.6217041015625,1399.75830078125,-0.18263958394527435,-0.34629616141319275,-3.1165695190429688,933.2117919921875,-345.0312805175781,-899.1917114257812,0.5540338879445259,-0.005905066680714604,0.4330152137304424
0.0,0.0,92.73999786376953,0.0,0.0,0.0,-2151.86767578125,165.6217041015625,1399.75830078125,-0.18263958394527435,-0.34629616141319275,-3.1165695190429688,933.2117919921875,-345.0312805175781,-899.1917114257812,0.0,0.0,92.73999786376953,0.0,0.0,0.0,-882.0646362304688,-315.6506652832031,31.21506690979004,-0.05445631965994835,-0.322519451379776,0.4210777282714844,41.04426193237305,-95.25365447998047,-93.83816528320312,-0.8829523152683182,-0.6648277476156598,1.9809802176480673
0.0,0.0,92.73999786376953,0.0,0.0,0.0,-882.0646362304688,-315.6506652832031,31.21506690979004,-0.05445631965994835,-0.322519451379776,0.4210777282714844,41.04426193237305,-95.25365447998047,-93.83816528320312,0.0,0.0,92.73999786376953,0.0,0.0,0.0,-1144.2880859375,-188.435791015625,17.010000228881836,-0.009683254174888134,-1.1431992053985596,0.0,-436.2023010253906,643.2769165039062,8.3410005569458,-0.998146521822071,0.8328257018911985,0.7570526359903909
0.0,0.0,92.73999786376953,0.0,0.0,0.0,-1144.2880859375,-188.435791015625,17.010000228881836,-0.009683254174888134,-1.1431992053985596,0.0,-436.2023010253906,643.2769165039062,8.3410005569458,0.0,0.0,92.73999786376953,0.0,0.0,0.0,-1238.6546630859375,-284.7558288574219,17.010000228881836,-0.009491506032645702,-2.157639741897583,9.58738019107841e-05,-364.9998779296875,-514.2691040039062,8.331000328063965,0.9040072711612956,-0.9794462817253492,0.8210982870925818
0.0,0.0,92.73999786376953,0.0,0.0,0.0,-1238.6546630859375,-284.7558288574219,17.010000228881836,-0.009491506032645702,-2.157639741897583,9.58738019107841e-05,-364.9998779296875,-514.2691040039062,8.331000328063965,0.0,0.0,92.73999786376953,0.0,0.0,0.0,-1510.565673828125,-554.1738891601562,17.010000228881836,-0.009587380103766918,-2.438837766647339,0.0,-512.288818359375,-432.56866455078125,8.310999870300293,0.048583032180479435,-0.08853611056669547,0.5828435718612042
0.0,0.0,92.73999786376953,0.0,0.0,0.0,-1510.565673828125,-554.1738891601562,17.010000228881836,-0.009587380103766918,-2.438837766647339,0.0,-512.288818359375,-432.56866455078125,8.310999870300293,0.0,0.0,92.73999786376953,0.0,0.0,0.0,-2354.353515625,-2074.8779296875,17.010000228881836,-0.009491506032645702,-1.742698073387146,0.0,-243.38662719726562,-1338.6368408203125,8.310999870300293,0.9423653184517976,0.19613823450813633,1.6249901953316481
0.0,0.0,92.73999786376953,0.0,0.0,0.0,-2354.353515625,-2074.8779296875,17.010000228881836,-0.009491506032645702,-1.742698073387146,0.0,-243.38662719726562,-1338.6368408203125,8.310999870300293,0.0,0.0,92.73999786376953,0.0,0.0,0.0,-3905.127197265625,-4122.0810546875,1067.8277587890625,0.9973751306533813,2.2308874130249023,-1.5703169107437134,-298.5710144042969,397.1490478515625,762.8607177734375,0.569762203423162,-0.20697266026287722,2.928979654711455
0.0,0.0,92.73999786376953,0.0,0.0,0.0,-3905.127197265625,-4122.0810546875,1067.8277587890625,0.9973751306533813,2.2308874130249023,-1.5703169107437134,-298.5710144042969,397.1490478515625,762.8607177734375,0.0,0.0,92.73999786376953,0.0,0.0,0.0,-1950.2508544921875,-4443.8173828125,1606.14208984375,-0.17362745106220245,-0.42884349822998047,-2.95205020904541,1129.988525390625,-455.59649658203125,-732.9609375,0.9423799046678013,0.32393010836920777,2.888837572678426
0.0,0.0,92.73999786376953,0.0,0.0,0.0,-1950.2508544921875,-4443.8173828125,1606.14208984375,-0.17362745106220245,-0.42884349822998047,-2.95205020904541,1129.988525390625,-455.59649658203125,-732.9609375,0.0,0.0,92.73999786376953,0.0,0.0,0.0,-792.797607421875,-4911.56005859375,540.2288818359375,-0.17669540643692017,-0.4300898611545563,-2.9512832164764404,1184.057373046875,-479.6304931640625,-1393.052490234375,0.9038835838620817,-0.5258281533777621,0.9980512425240136
0.0,0.0,92.73999786376953,0.0,0.0,0.0,-792.797607421875,-4911.56005859375,540.2288818359375,-0.17669540643692017,-0.4300898611545563,-2.9512832164764404,1184.057373046875,-479.6304931640625,-1393.052490234375,0.0,0.0,92.73999786376953,0.0,0.0,0.0,878.989990234375,-5217.8642578125,289.7853088378906,1.5352271795272827,1.3055135011672974,1.3056093454360962,-8.291000366210938,20.805713653564453,593.732177734375,0.9912340969192766,-0.024210388252182063,2.434922628778139
0.0,0.0,92.73999786376953,0.0,0.0,0.0,878.989990234375,-5217.8642578125,289.7853088378906,1.5352271795272827,1.3055135011672974,1.3056093454360962,-8.291000366210938,20.805713653564453,593.732177734375,0.0,0.0,92.73999786376953,0.0,0.0,0.0,-879.7950439453125,-5206.525390625,233.7578125,-1.525447964668274,-2.040194511413574,2.03904390335083,12.283560752868652,26.875226974487305,679.9144897460938,-0.964326085368396,0.019544482507240328,2.738071364393562
0.0,0.0,92.73999786376953,0.0,0.0,0.0,-879.7950439453125,-5206.525390625,233.7578125,-1.525447964668274,-2.040194511413574,2.03904390335083,12.283560752868652,26.875226974487305,679.9144897460938,0.0,0.0,92.73999786376953,0.0,0.0,0.0,556.2853393554688,-5111.98779296875,17.010000228881836,-0.009491506032645702,0.13153885304927826,0.0,1198.8658447265625,157.12179565429688,8.321000099182129,0.72150124099085,0.04078477813241661,2.4449037103696867
0.0,0.0,92.73999786376953,0.0,0.0,0.0,556.2853393554688,-5111.98779296875,17.010000228881836,-0.009491506032645702,0.13153885304927826,0.0,1198.8658447265625,157.12179565429688,8.321000099182129,0.0,0.0,92.73999786376953,0.0,0.0,0.0,2554.4072265625,-4053.140380859375,17.010000228881836,-0.009587380103766918,0.9130061864852905,-9.58738019107841e-05,649.7163696289062,839.0577392578125,8.321000099182129,0.3128579446559355,0.048129798296395625,2.3968986382766957
0.0,0.0,92.73999786376953,0.0,0.0,0.0,2554.4072265625,-4053.140380859375,17.010000228881836,-0.009587380103766918,0.9130061864852905,-9.58738019107841e-05,649.7163696289062,839.0577392578125,8.321000099182129,0.0,0.0,92.73999786376953,0.0,0.0,0.0,2637.14501953125,-3944.901123046875,17.010000228881836,-0.009683254174888134,0.9371663928031921,0.0,-206.59225463867188,-237.53704833984375,8.321000099182129,-0.6358211965309088,-0.36815555984324133,0.683067245724942
0.0,0.0,92.73999786376953,0.0,0.0,0.0,2637.14501953125,-3944.901123046875,17.010000228881836,-0.009683254174888134,0.9371663928031921,0.0,-206.59225463867188,-237.53704833984375,8.321000099182129,0.0,0.0,92.73999786376953,0.0,0.0,0.0,2406.18017578125,-2908.640380859375,17.010000228881836,-0.009587380103766918,3.1282660961151123,-9.58738019107841e-05,1196.8837890625,124.3567123413086,8.331000328063965,-0.6831251430458403,0.7810541519047909,2.5771230257220736
0.0,0.0,92.73999786376953,0.0,0.0,0.0,2406.18017578125,-2908.640380859375,17.010000228881836,-0.009587380103766918,3.1282660961151123,-9.58738019107841e-05,1196.8837890625,124.3567123413086,8.331000328063965,0.0,0.0,92.73999786376953,0.0,0.0,0.0,2597.497314453125,-2912.640625,17.010000228881836,-0.009299758821725845,3.0071775913238525,-9.58738019107841e-05,515.9605712890625,-59.59228515625,8.321000099182129,0.13082572350453003,0.04488323285934997,0.21081212103362645
0.0,0.0,92.73999786376953,0.0,0.0,0.0,2597.497314453125,-2912.640625,17.010000228881836,-0.009299758821725845,3.0071775913238525,-9.58738019107841e-05,515.9605712890625,-59.59228515625,8.321000099182129,0.0,0.0,92.73999786376953,0.0,0.0,0.0,1625.7615966796875,-2843.764892578125,17.010000228881836,-0.009491506032645702,3.1165695190429688,0.0,-1181.2525634765625,31.009910583496094,8.321000099182129,0.982362579159999,0.040429923517523295,1.563025540842517
0.0,0.0,92.73999786376953,0.0,0.0,0.0,1625.7615966796875,-2843.764892578125,17.010000228881836,-0.009491506032645702,3.1165695190429688,0.0,-1181.2525634765625,31.009910583496094,8.321000099182129,0.0,0.0,92.73999786376953,0.0,0.0,0.0,2392.3896484375,-3593.609130859375,17.010000228881836,-0.009587380103766918,1.8620609045028687,0.0,430.7738037109375,-1172.4715576171875,8.321000099182129,-0.9840683293260092,0.42561196426210174,2.056002849795874
0.0,0.0,92.73999786376953,0.0,0.0,0.0,2392.3896484375,-3593.609130859375,17.010000228881836,-0.009587380103766918,1.8620609045028687,0.0,430.7738037109375,-1172.4715576171875,8.321000099182129,0.0,0.0,92.73999786376953,0.0,0.0,0.0,2818.722900390625,-5067.384765625,762.8107299804688,-1.52573561668396,-2.601151943206787,-1.8381884098052979,30.97452163696289,17.080656051635742,964.9873046875,-0.9911830047483978,-0.04677658421767078,1.8189858589073538
0.0,0.0,92.73999786376953,0.0,0.0,0.0,2818.722900390625,-5067.384765625,762.8107299804688,-1.52573561668396,-2.601151943206787,-1.8381884098052979,30.97452163696289,17.080656051635742,964.9873046875,0.0,0.0,92.73999786376953,0.0,0.0,0.0,2722.94140625,-4533.74365234375,2029.5120849609375,-0.0012463594321161509,-1.2866263389587402,-3.141017436981201,-278.31427001953125,956.4781494140625,12.242399215698242,-0.8931521732880022,-0.00019466110100100847,1.8951046317394855
0.0,0.0,92.73999786376953,0.0,0.0,0.0,2722.94140625,-4533.74365234375,2029.5120849609375,-0.0012463594321161509,-1.2866263389587402,-3.141017436981201,-278.31427001953125,956.4781494140625,12.242399215698242,0.0,0.0,92.73999786376953,0.0,0.0,0.0,2499.289794921875,-2700.705322265625,1127.403076171875,0.14170147478580475,-1.9862174987792969,3.064222574234009,-97.35210418701172,1023.0487670898438,-1075.4044189453125,-0.20679512297661662,-0.9221756970898397,1.816140593705569
0.0,0.0,92.73999786376953,0.0,0.0,0.0,2499.289794921875,-2700.705322265625,1127.403076171875,0.14170147478580475,-1.9862174987792969,3.064222574234009,-97.35210418701172,1023.0487670898438,-1075.4044189453125,0.0,0.0,92.73999786376953,0.0,0.0,0.0,2289.3583984375,-1052.831787109375,17.010000228881836,-0.009587380103766918,-0.3605813682079315,0.0,-446.75555419921875,282.37152099609375,8.3410005569458,-0.2019727294982746,-0.9384491972458532,2.630857705308358
0.0,0.0,92.73999786376953,0.0,0.0,0.0,2289.3583984375,-1052.831787109375,17.010000228881836,-0.009587380103766918,-0.3605813682079315,0.0,-446.75555419921875,282.37152099609375,8.3410005569458,0.0,0.0,92.73999786376953,0.0,0.0,0.0,2281.162841796875,-1047.8299560546875,17.010000228881836,-0.009587380103766918,-0.41014811396598816,0.0,72.2344970703125,-44.53908920288086,8.310999870300293,0.056948945857938194,-0.7357168191088983,1.2159247069430705
0.0,0.0,92.73999786376953,0.0,0.0,0.0,2281.162841796875,-1047.8299560546875,17.010000228881836,-0.009587380103766918,-0.41014811396598816,0.0,72.2344970703125,-44.53908920288086,8.310999870300293,0.0,0.0,92.73999786376953,0.0,0.0,0.0,2269.290771484375,-1044.893310546875,17.010000228881836,-0.009683254174888134,-0.497201532125473,0.0,-50.255985260009766,22.095348358154297,8.321000099182129,-0.06612015878922883,0.37085165455218627,0.6290612918489273
0.0,0.0,92.73999786376953,0.0,0.0,0.0,2269.290771484375,-1044.893310546875,17.010000228881836,-0.009683254174888134,-0.497201532125473,0.0,-50.255985260009766,22.095348358154297,8.321000099182129,0.0,0.0,92.73999786376953,0.0,0.0,0.0,2557.749267578125,-1485.6531982421875,17.010000228881836,-0.009491506032645702,-1.3369600772857666,0.0,187.99395751953125,-787.6266479492188,8.310999870300293,0.6175375233420495,-0.3940036521256036,1.229964425689957
0.0,0.0,92.73999786376953,0.0,0.0,0.0,2557.749267578125,-1485.6531982421875,17.010000228881836,-0.009491506032645702,-1.3369600772857666,0.0,187.99395751953125,-787.6266479492188,8.310999870300293,0.0,0.0,92.73999786376953,0.0,0.0,0.0,4078.989990234375,-3426.34375,809.0802612304688,1.5435681343078613,-1.2126117944717407,-1.2127076387405396,-8.371000289916992,-32.307044982910156,1004.1516723632812,0.6624271073612469,0.21765745063005798,2.7889483194161357
0.0,0.0,92.73999786376953,0.0,0.0,0.0,4078.989990234375,-3426.34375,809.0802612304688,1.5435681343078613,-1.2126117944717407,-1.2127076387405396,-8.371000289916992,-32.307044982910156,1004.1516723632812,0.0,0.0,92.73999786376953,0.0,0.0,0.0,4078.989990234375,-3436.764892578125,958.3929443359375,1.4139467477798462,-1.5081907510757446,-1.5092453956604004,-8.371000289916992,15.859367370605469,-46.83024597167969,-0.2683420090217059,-0.9626258521827824,0.4465293739368974
0.0,0.0,92.73999786376953,0.0,0.0,0.0,4078.989990234375,-3436.764892578125,958.3929443359375,1.4139467477798462,-1.5081907510757446,-1.5092453956604004,-8.371000289916992,15.859367370605469,-46.83024597167969,0.0,0.0,92.73999786376953,0.0,0.0,0.0,4078.989990234375,-3381.70166015625,393.73541259765625,1.50406813621521,-1.4260269403457642,-1.4265062808990479,-8.361000061035156,78.38667297363281,-1115.05712890625,-0.5709404213046578,-0.03877246880493283,0.9119720593144791
0.0,0.0,92.73999786376953,0.0,0.0,0.0,4078.989990234375,-3381.70166015625,393.73541259765625,1.50406813621521,-1.4260269403457642,-1.4265062808990479,-8.361000061035156,78.38667297363281,-1115.05712890625,0.0,0.0,92.73999786376953,0.0,0.0,0.0,4078.989990234375,-3108.5322265625,590.3670654296875,0.5792694687843323,1.5594831705093384,1.5644686222076416,-8.371000289916992,577.0284423828125,341.85150146484375,0.8299317334230456,0.48156819747067275,1.8579910241623736
0.0,0.0,92.73999786376953,0.0,0.0,0.0,4078.989990234375,-3108.5322265625,590.3670654296875,0.5792694687843323,1.5594831705093384,1.5644686222076416,-8.371000289916992,577.0284423828125,341.85150146484375,0.0,0.0,92.73999786376953,0.0,0.0,0.0,4077.813720703125,-1446.0628662109375,1533.494873046875,0.6035255789756775,1.6007089614868164,1.6169116497039795,-32.658363342285156,758.5028686523438,488.2271728515625,0.5799962957129428,-0.01109764268772265,2.324087259707767
0.0,0.0,92.73999786376953,0.0,0.0,0.0,4077.813720703125,-1446.0628662109375,1533.494873046875,0.6035255789756775,1.6007089614868164,1.6169116497039795,-32.658363342285156,758.5028686523438,488.2271728515625,0.0,0.0,92.73999786376953,0.0,0.0,0.0,4013.759521484375,-1160.7557373046875,1776.1617431640625,0.8440729379653931,2.250349760055542,2.407966375350952,-346.6253967285156,461.37921142578125,589.6099853515625,0.5514168969637356,-0.48801808281554854,0.43781376708525954
0.0,0.0,92.73999786376953,0.0,0.0,0.0,4013.759521484375,-1160.7557373046875,1776.1617431640625,0.8440729379653931,2.250349760055542,2.407966375350952,-346.6253967285156,461.37921142578125,589.6099853515625,0.0,0.0,92.73999786376953,0.0,0.0,0.0,3479.883544921875,-1967.323974609375,16.94583511352539,-0.00814927276223898,0.2809102237224579,-0.0003834952076431364,-1434.05810546875,-420.57470703125,9.887641906738281,-0.9856361879052892,0.04045254613459331,2.3761053790180426
0.0,0.0,92.73999786376953,0.0,0.0,0.0,3479.883544921875,-1967.323974609375,16.94583511352539,-0.00814927276223898,0.2809102237224579,-0.0003834952076431364,-1434.05810546875,-420.57470703125,9.887641906738281,0.0,0.0,92.73999786376953,0.0,0.0,0.0,3678.716796875,-1756.6319580078125,17.010000228881836,-0.009491506032645702,0.7779200077056885,0.0,672.4916381835938,656.6813354492188,8.321000099182129,0.7808678672887672,0.2819914859986477,1.6195310126261404
0.0,0.0,92.73999786376953,0.0,0.0,0.0,3678.716796875,-1756.6319580078125,17.010000228881836,-0.009491506032645702,0.7779200077056885,0.0,672.4916381835938,656.6813354492188,8.321000099182129,0.0,0.0,92.73999786376953,0.0,0.0,0.0,3769.11669921875,-1665.23974609375,17.010000228881836,-0.009779127314686775,0.8122428059577942,-9.58738019107841e-05,-150.24111938476562,-145.06231689453125,8.301000595092773,-0.6417947648943638,-0.19674301310463355,0.5194562847711666
0.0,0.0,92.73999786376953,0.0,0.0,0.0,3769.11669921875,-1665.23974609375,17.010000228881836,-0.009779127314686775,0.8122428059577942,-9.58738019107841e-05,-150.24111938476562,-145.06231689453125,8.301000595092773,0.0,0.0,92.73999786376953,0.0,0.0,0.0,3762.98876953125,-1670.48486328125,17.010000228881836,-0.009491506032645702,0.8313217163085938,0.0,79.50218963623047,87.51451873779297,8.301000595092773,0.687566096467913,8.945214132527198e-05,0.19812112821787764
0.0,0.0,92.73999786376953,0.0,0.0,0.0,3762.98876953125,-1670.48486328125,17.010000228881836,-0.009491506032645702,0.8313217163085938,0.0,79.50218963623047,87.51451873779297,8.301000595092773,0.0,0.0,92.73999786376953,0.0,0.0,0.0,3735.40380859375,-2166.38427734375,17.010000228881836,-0.009587380103766918,2.2740306854248047,0.0,417.4063720703125,-648.9832153320312,8.321000099182129,-0.5675841760343927,-0.674397245509602,1.4218666332906764
0.0,0.0,92.73999786376953,0.0,0.0,0.0,3735.40380859375,-2166.38427734375,17.010000228881836,-0.009587380103766918,2.2740306854248047,0.0,417.4063720703125,-648.9832153320312,8.321000099182129,0.0,0.0,92.73999786376953,0.0,0.0,0.0,3130.889404296875,-1798.3931884765625,17.010000228881836,-0.009587380103766918,1.252495288848877,0.0,-573.08544921875,-1194.86474609375,8.3410005569458,-0.982973814787779,-0.921610523158399,2.6559086683462283
0.0,0.0,92.73999786376953,0.0,0.0,0.0,3130.889404296875,-1798.3931884765625,17.010000228881836,-0.009587380103766918,1.252495288848877,0.0,-573.08544921875,-1194.86474609375,8.3410005569458,0.0,0.0,92.73999786376953,0.0,0.0,0.0,492.8625183105469,-2310.896240234375,17.010000228881836,-0.009491506032645702,-1.2439625263214111,0.0,-543.5656127929688,1298.3612060546875,8.310999870300293,-0.6338599993448952,0.5534395469327476,2.6989356590054
0.0,0.0,92.73999786376953,0.0,0.0,0.0,492.8625183105469,-2310.896240234375,17.010000228881836,-0.009491506032645702,-1.2439625263214111,0.0,-543.5656127929688,1298.3612060546875,8.310999870300293,0.0,0.0,92.73999786376953,0.0,0.0,0.0,-111.33010864257812,-398.74786376953125,17.010000228881836,-0.009587380103766918,-1.2162550687789917,-9.58738019107841e-05,-483.14056396484375,1324.609375,8.310999870300293,-0.5547079836947221,-0.040376760875295854,1.4223395227101605
0.0,0.0,92.73999786376953,0.0,0.0,0.0,-111.33010864257812,-398.74786376953125,17.010000228881836,-0.009587380103766918,-1.2162550687789917,-9.58738019107841e-05,-483.14056396484375,1324.609375,8.310999870300293,0.0,0.0,92.73999786376953,0.0,0.0,0.0,1484.822021484375,-1491.6231689453125,17.010000228881836,-0.009587380103766918,-0.2503264844417572,0.0,1358.416259765625,-359.6459655761719,8.310999870300293,0.9857981708227148,0.20617879730559144,2.8105825856064257
0.0,0.0,92.73999786376953,0.0,0.0,0.0,1484.822021484375,-1491.6231689453125,17.010000228881836,-0.009587380103766918,-0.2503264844417572,0.0,1358.416259765625,-359.6459655761719,8.310999870300293,0.0,0.0,92.73999786376953,0.0,0.0,0.0,2289.311279296875,-1364.74658203125,17.010000228881836,-0.009587380103766918,0.7383241057395935,0.0,999.723388671875,846.537353515625,8.321000099182129,0.05922234442121277,0.8063688069134873,0.6279810085343911
0.0,0.0,92.73999786376953,0.0,0.0,0.0,2289.311279296875,-1364.74658203125,17.010000228881836,-0.009587380103766918,0.7383241057395935,0.0,999.723388671875,846.537353515625,8.321000099182129,0.0,0.0,92.73999786376953,0.0,0.0,0.0,1835.6114501953125,-1959.476806640625,17.010000228881836,-0.009683254174888134,0.891530454158783,0.0,-654.0210571289062,-810.083984375,8.310999870300293,-0.6431645243301367,0.003906534243224152,2.080029596647961
0.0,0.0,92.73999786376953,0.0,0.0,0.0,1835.6114501953125,-1959.476806640625,17.010000228881836,-0.009683254174888134,0.891530454158783,0.0,-654.0210571289062,-810.083984375,8.310999870300293,0.0,0.0,92.73999786376953,0.0,0.0,0.0,-710.4207153320312,-4589.55224609375,17.010000228881836,-0.009587380103766918,0.7086032629013062,9.58738019107841e-05,-1028.2208251953125,-888.4283447265625,8.310999870300293,-0.31093407994529965,0.02783073708449494,2.9948523013432577
0.0,0.0,92.73999786376953,0.0,0.0,0.0,-710.4207153320312,-4589.55224609375,17.010000228881836,-0.009587380103766918,0.7086032629013062,9.58738019107841e-05,-1028.2208251953125,-888.4283447265625,8.310999870300293,0.0,0.0,92.73999786376953,0.0,0.0,0.0,-904.835693359375,-4753.107421875,17.010000228881836,-0.009299758821725845,0.4867512881755829,0.0,-419.382080078125,-295.51348876953125,8.301000595092773,0.9942178283811146,0.6991268281468427,0.2550185035683512
0.0,0.0,92.73999786376953,0.0,0.0,0.0,-904.835693359375,-4753.107421875,17.010000228881836,-0.009299758821725845,0.4867512881755829,0.0,-419.382080078125,-295.51348876953125,8.301000595092773,0.0,0.0,92.73999786376953,0.0,0.0,0.0,-1078.489990234375,-4818.19970703125,17.010000228881836,-0.009587380103766918,-0.27640417218208313,-9.58738019107841e-05,0.0,0.0,8.310999870300293,-0.009010442585424827,0.9327018518149145,1.3040140949363774
0.0,0.0,92.73999786376953,0.0,0.0,0.0,-1078.489990234375,-4818.19970703125,17.010000228881836,-0.009587380103766918,-0.27640417218208313,-9.58738019107841e-05,0.0,0.0,8.310999870300293,0.0,0.0,92.73999786376953,0.0,0.0,0.0,-2221.892333984375,-4108.3759765625,17.010000228881836,-0.009683254174888134,-0.8028472065925598,0.0,-707.8524780273438,704.2781982421875,8.310999870300293,-0.4260386689449003,0.1239617189887948,2.365253274759226
0.0,0.0,92.73999786376953,0.0,0.0,0.0,-2221.892333984375,-4108.3759765625,17.010000228881836,-0.009683254174888134,-0.8028472065925598,0.0,-707.8524780273438,704.2781982421875,8.310999870300293,0.0,0.0,92.73999786376953,0.0,0.0,0.0,-4078.97998046875,-1126.451416015625,710.996826171875,-0.577639639377594,-1.5822052955627441,1.5770281553268433,8.291000366210938,1072.949951171875,675.920166015625,-0.9997574176527669,0.008266055913551363,2.9796748163164466
