ballLocX_0,ballLocY_0,ballLocZ_0,ballVelX_0,ballVelY_0,ballVelZ_0,carLocX_0,carLocY_0,carLocZ_0,carPitch_0,carYaw_0,carRoll_0,carVelX_0,carVelY_0,carVelZ_0,ballLocX_1,ballLocY_1,ballLocZ_1,ballVelX_1,ballVelY_1,ballVelZ_1,carLocX_1,carLocY_1,carLocZ_1,carPitch_1,carYaw_1,carRoll_1,carVelX_1,carVelY_1,carVelZ_1,throttle,steer,time
0.0,0.0,92.73999786376953,0.0,0.0,0.0,-314.7981872558594,-3227.12451171875,17.03999900817871,-0.009587380103766918,2.0851593017578125,0.0,760.431640625,-1109.2476806640625,7.900999546051025,0.0,0.0,92.73999786376953,0.0,0.0,0.0,2047.989990234375,-2560.010009765625,17.010000228881836,-0.009587380103766918,2.374985694885254,-9.58738019107841e-05,-0.04099999740719795,-0.04099999740719795,8.321000099182129,0.90456305470837,0.995916402571383,7.51153552857852
0.0,0.0,92.73999786376953,0.0,0.0,0.0,2047.989990234375,-2560.010009765625,17.010000228881836,-0.009587380103766918,2.374985694885254,-9.58738019107841e-05,-0.04099999740719795,-0.04099999740719795,8.321000099182129,0.0,0.0,92.73999786376953,0.0,0.0,0.0,2132.564208984375,-2641.514404296875,17.010000228881836,-0.009683254174888134,2.33941650390625,9.58738019107841e-05,185.20339965820312,-185.60931396484375,8.321000099182129,-0.20219526927625286,0.0727152824775622,0.9778667929970464
0.0,0.0,92.73999786376953,0.0,0.0,0.0,2132.564208984375,-2641.514404296875,17.010000228881836,-0.009683254174888134,2.33941650390625,9.58738019107841e-05,185.20339965820312,-185.60931396484375,8.321000099182129,0.0,0.0,92.73999786376953,0.0,0.0,0.0,345.0738220214844,-662.2774047851562,17.010000228881836,-0.009491506032645702,2.2863025665283203,0.0,-922.8743896484375,1061.1815185546875,8.321000099182129,0.8184576837520738,-0.008174036728676335,2.8974484076227505
0.0,0.0,92.73999786376953,0.0,0.0,0.0,345.0738220214844,-662.2774047851562,17.010000228881836,-0.009491506032645702,2.2863025665283203,0.0,-922.8743896484375,1061.1815185546875,8.321000099182129,0.0,0.0,92.73999786376953,0.0,0.0,0.0,334.78741455078125,-718.646728515625,17.010000228881836,-0.009683254174888134,1.753819465637207,0.0,227.43106079101562,-743.1735229492188,8.321000099182129,-0.8750305917121062,0.5802977474077137,1.2105196091951225
0.0,0.0,92.73999786376953,0.0,0.0,0.0,334.78741455078125,-718.646728515625,17.010000228881836,-0.009683254174888134,1.753819465637207,0.0,227.43106079101562,-743.1735229492188,8.321000099182129,0.0,0.0,92.73999786376953,0.0,0.0,0.0,358.1606750488281,-824.0130004882812,17.010000228881836,-0.009491506032645702,1.5647562742233276,-9.58738019107841e-05,-7.3662004470825195,35.75713348388672,8.310999870300293,0.3011042974833399,0.7285432491312094,0.32003428589874794
0.0,0.0,92.73999786376953,0.0,0.0,0.0,358.1606750488281,-824.0130004882812,17.010000228881836,-0.009491506032645702,1.5647562742233276,-9.58738019107841e-05,-7.3662004470825195,35.75713348388672,8.310999870300293,0.0,0.0,92.73999786376953,0.0,0.0,0.0,364.34222412109375,-1158.1097412109375,17.010000228881836,-0.009587380103766918,1.5917927026748657,0.0,11.26718521118164,-538.0950927734375,8.310999870300293,-0.35460182330470535,0.0005193012806491388,1.240964626455586
0.0,0.0,92.73999786376953,0.0,0.0,0.0,364.34222412109375,-1158.1097412109375,17.010000228881836,-0.009587380103766918,1.5917927026748657,0.0,11.26718521118164,-538.0950927734375,8.310999870300293,0.0,0.0,92.73999786376953,0.0,0.0,0.0,-952.4695434570312,-716.5161743164062,17.010000228881836,-0.009491506032645702,-2.6467878818511963,0.0,-1145.61328125,-588.3938598632812,8.310999870300293,0.9908183020086778,0.49498865057403196,2.1149670633935163
0.0,0.0,92.73999786376953,0.0,0.0,0.0,-952.4695434570312,-716.5161743164062,17.010000228881836,-0.009491506032645702,-2.6467878818511963,0.0,-1145.61328125,-588.3938598632812,8.310999870300293,0.0,0.0,92.73999786376953,0.0,0.0,0.0,-50.31850051879883,-285.6848449707031,17.010000228881836,-0.009587380103766918,-2.8054590225219727,0.0,1117.876220703125,406.3277282714844,8.310999870300293,-0.8052800744944861,0.08288242754522263,2.1371073495793986
0.0,0.0,92.73999786376953,0.0,0.0,0.0,-50.31850051879883,-285.6848449707031,17.010000228881836,-0.009587380103766918,-2.8054590225219727,0.0,1117.876220703125,406.3277282714844,8.310999870300293,0.0,0.0,92.73999786376953,0.0,0.0,0.0,254.9434356689453,940.54833984375,17.010000228881836,-0.009587380103766918,-0.0547439381480217,0.0,1264.4852294921875,-27.68310546875,8.321000099182129,0.9965368902090499,-0.7662106413102103,2.607801089684468
0.0,0.0,92.73999786376953,0.0,0.0,0.0,254.9434356689453,940.54833984375,17.010000228881836,-0.009587380103766918,-0.0547439381480217,0.0,1264.4852294921875,-27.68310546875,8.321000099182129,0.0,0.0,92.73999786376953,0.0,0.0,0.0,3246.012939453125,-238.58848571777344,17.010000228881836,-0.009683254174888134,-0.5787901282310486,0.0,1182.646484375,-767.5862426757812,8.310999870300293,0.9123582557006611,-0.07441205997841063,2.332021041596999
0.0,0.0,92.73999786376953,0.0,0.0,0.0,3246.012939453125,-238.58848571777344,17.010000228881836,-0.009683254174888134,-0.5787901282310486,0.0,1182.646484375,-767.5862426757812,8.310999870300293,0.0,0.0,92.73999786376953,0.0,0.0,0.0,4071.745361328125,-1723.8177490234375,209.9582977294922,-0.16317720711231232,-1.5930390357971191,-1.379815697669983,-46.27399826049805,-654.0946655273438,-175.5978240966797,0.0036315529328079243,-0.17925329237668572,2.0291135645356704
0.0,0.0,92.73999786376953,0.0,0.0,0.0,4071.745361328125,-1723.8177490234375,209.9582977294922,-0.16317720711231232,-1.5930390357971191,-1.379815697669983,-46.27399826049805,-654.0946655273438,-175.5978240966797,0.0,0.0,92.73999786376953,0.0,0.0,0.0,3700.005615234375,-3113.712646484375,17.010000228881836,-0.009395631961524487,-2.031949281692505,0.0009587379754520953,-577.9220581054688,-1176.8709716796875,8.539681434631348,0.7681973778486327,-0.12920388679197056,1.3808747661391934
0.0,0.0,92.73999786376953,0.0,0.0,0.0,3700.005615234375,-3113.712646484375,17.010000228881836,-0.009395631961524487,-2.031949281692505,0.0009587379754520953,-577.9220581054688,-1176.8709716796875,8.539681434631348,0.0,0.0,92.73999786376953,0.0,0.0,0.0,2039.137939453125,-5104.08154296875,232.61907958984375,0.7275862693786621,3.1257734298706055,-1.617774486541748,-931.0560913085938,27.625152587890625,796.0748291015625,0.9081393421953179,-0.0833690446103731,1.9850515973326743
0.0,0.0,92.73999786376953,0.0,0.0,0.0,2039.137939453125,-5104.08154296875,232.61907958984375,0.7275862693786621,3.1257734298706055,-1.617774486541748,-931.0560913085938,27.625152587890625,796.0748291015625,0.0,0.0,92.73999786376953,0.0,0.0,0.0,1603.972900390625,-5102.97998046875,731.114990234375,1.0919066667556763,-3.1208839416503906,-1.552484393119812,-543.6550903320312,8.371000289916992,988.9736328125,0.9584589528175035,0.31286268469099326,0.5648652789014044
0.0,0.0,92.73999786376953,0.0,0.0,0.0,1603.972900390625,-5102.97998046875,731.114990234375,1.0919066667556763,-3.1208839416503906,-1.552484393119812,-543.6550903320312,8.371000289916992,988.9736328125,0.0,0.0,92.73999786376953,0.0,0.0,0.0,1572.6143798828125,-5102.97998046875,768.6387329101562,1.314813256263733,-3.1033389568328857,-1.5340766906738281,212.09823608398438,8.361000061035156,-565.4681396484375,-0.7610261890258534,-0.5922798217765096,0.696987467864048
0.0,0.0,92.73999786376953,0.0,0.0,0.0,1572.6143798828125,-5102.97998046875,768.6387329101562,1.314813256263733,-3.1033389568328857,-1.5340766906738281,212.09823608398438,8.361000061035156,-565.4681396484375,0.0,0.0,92.73999786376953,0.0,0.0,0.0,1626.9803466796875,-4663.2353515625,16.94148826599121,-0.009587380103766918,-1.5041639804840088,0.0001917476038215682,-48.81401062011719,1116.49951171875,9.810802459716797,-0.992412460194706,-0.15545359410040427,1.0878223612133269
0.0,0.0,92.73999786376953,0.0,0.0,0.0,1626.9803466796875,-4663.2353515625,16.94148826599121,-0.009587380103766918,-1.5041639804840088,0.0001917476038215682,-48.81401062011719,1116.49951171875,9.810802459716797,0.0,0.0,92.73999786376953,0.0,0.0,0.0,1487.0001220703125,-4970.3603515625,21.124065399169922,0.10613229870796204,-2.126864433288574,-0.06893326342105865,-446.7827453613281,-672.7605590820312,130.85043334960938,0.6662834871589209,-0.3564419509327281,1.5071503995066102
0.0,0.0,92.73999786376953,0.0,0.0,0.0,1487.0001220703125,-4970.3603515625,21.124065399169922,0.10613229870796204,-2.126864433288574,-0.06893326342105865,-446.7827453613281,-672.7605590820312,130.85043334960938,0.0,0.0,92.73999786376953,0.0,0.0,0.0,2913.00439453125,-5030.14599609375,183.0376434326172,-1.1596894264221191,0.7706335783004761,1.1971760988235474,422.0762939453125,450.04901123046875,-1332.9017333984375,0.7850101872262125,0.5440828008478725,2.7830060532677336
0.0,0.0,92.73999786376953,0.0,0.0,0.0,2913.00439453125,-5030.14599609375,183.0376434326172,-1.1596894264221191,0.7706335783004761,1.1971760988235474,422.0762939453125,450.04901123046875,-1332.9017333984375,0.0,0.0,92.73999786376953,0.0,0.0,0.0,2263.349365234375,-5102.97998046875,683.2533569335938,-0.31743815541267395,-0.01025849673897028,1.5739601850509644,-938.624755859375,8.371000289916992,331.7218322753906,-0.9994118692352768,0.28416056748001867,2.199818716283623
0.0,0.0,92.73999786376953,0.0,0.0,0.0,2263.349365234375,-5102.97998046875,683.2533569335938,-0.31743815541267395,-0.01025849673897028,1.5739601850509644,-938.624755859375,8.371000289916992,331.7218322753906,0.0,0.0,92.73999786376953,0.0,0.0,0.0,2548.5185546875,-5102.5439453125,715.0392456054688,0.37946850061416626,0.0057524279691278934,1.5660984516143799,625.4376831054688,19.706838607788086,224.63690185546875,0.5456266880696059,-0.3604894115531592,1.3971129959357
0.0,0.0,92.73999786376953,0.0,0.0,0.0,2548.5185546875,-5102.5439453125,715.0392456054688,0.37946850061416626,0.0057524279691278934,1.5660984516143799,625.4376831054688,19.706838607788086,224.63690185546875,0.0,0.0,92.73999786376953,0.0,0.0,0.0,2843.575439453125,-5060.54248046875,781.3685913085938,0.04218447208404541,0.3056456744670868,1.5716592073440552,863.2879028320312,250.37010192871094,14.784950256347656,0.9924769590857458,0.5360527394977983,0.39900143877314065
0.0,0.0,92.73999786376953,0.0,0.0,0.0,2843.575439453125,-5060.54248046875,781.3685913085938,0.04218447208404541,0.3056456744670868,1.5716592073440552,863.2879028320312,250.37010192871094,14.784950256347656,0.0,0.0,92.73999786376953,0.0,0.0,0.0,4063.968505859375,-3623.14990234375,1634.54931640625,0.9701469540596008,1.8332988023757935,1.9270633459091187,-117.50735473632812,449.90606689453125,647.0970458984375,0.43637075199405395,-0.1847655759563193,2.3469654799218773
0.0,0.0,92.73999786376953,0.0,0.0,0.0,4063.968505859375,-3623.14990234375,1634.54931640625,0.9701469540596008,1.8332988023757935,1.9270633459091187,-117.50735473632812,449.90606689453125,647.0970458984375,0.0,0.0,92.73999786376953,0.0,0.0,0.0,3680.469482421875,-3961.751708984375,1975.1246337890625,-0.31695878505706787,-1.547978401184082,-2.807760000228882,-6.785941123962402,-978.4758911132812,-283.616943359375,0.9957308619393345,-0.9468663849068972,1.0179590375822514
0.0,0.0,92.73999786376953,0.0,0.0,0.0,3680.469482421875,-3961.751708984375,1975.1246337890625,-0.31695878505706787,-1.547978401184082,-2.807760000228882,-6.785941123962402,-978.4758911132812,-283.616943359375,0.0,0.0,92.73999786376953,0.0,0.0,0.0,3682.493408203125,-4043.3935546875,1943.4969482421875,-0.46843937039375305,-1.4429006576538086,-2.763274669647217,35.737510681152344,-705.4109497070312,-357.26385498046875,-0.7560966923895597,0.014869704095250373,0.0879798022416054
0.0,0.0,92.73999786376953,0.0,0.0,0.0,3682.493408203125,-4043.3935546875,1943.4969482421875,-0.46843937039375305,-1.4429006576538086,-2.763274669647217,35.737510681152344,-705.4109497070312,-357.26385498046875,0.0,0.0,92.73999786376953,0.0,0.0,0.0,3683.006103515625,-4051.2421875,1931.67626953125,-0.41839325428009033,-1.395347237586975,-2.772094964981079,-27.53700065612793,369.4838562011719,193.1266326904297,-0.9946182985620278,-0.03759223337075336,0.6780500872013775
0.0,0.0,92.73999786376953,0.0,0.0,0.0,3683.006103515625,-4051.2421875,1931.67626953125,-0.41839325428009033,-1.395347237586975,-2.772094964981079,-27.53700065612793,369.4838562011719,193.1266326904297,0.0,0.0,92.73999786376953,0.0,0.0,0.0,3604.65234375,-4435.25732421875,1125.8267822265625,-1.2030243873596191,-2.329733371734619,-1.5954358577728271,-328.5007629394531,-317.0296936035156,-1213.8089599609375,0.600686535645329,0.0035837255204177526,1.719940444249879
0.0,0.0,92.73999786376953,0.0,0.0,0.0,3604.65234375,-4435.25732421875,1125.8267822265625,-1.2030243873596191,-2.329733371734619,-1.5954358577728271,-328.5007629394531,-317.0296936035156,-1213.8089599609375,0.0,0.0,92.73999786376953,0.0,0.0,0.0,2849.681884765625,-4296.6259765625,16.98294448852539,-0.009491506032645702,2.4798717498779297,0.00047936898772604764,-1115.8922119140625,862.0392456054688,9.033892631530762,0.763441657615766,-0.10723599987680446,1.1433407117297207
0.0,0.0,92.73999786376953,0.0,0.0,0.0,2849.681884765625,-4296.6259765625,16.98294448852539,-0.009491506032645702,2.4798717498779297,0.00047936898772604764,-1115.8922119140625,862.0392456054688,9.033892631530762,0.0,0.0,92.73999786376953,0.0,0.0,0.0,2594.21826171875,-4062.05029296875,17.010000228881836,-0.009587380103766918,2.2453644275665283,0.0,-902.4949951171875,1077.0831298828125,8.331000328063965,0.9510025015450817,-0.6053392598200878,0.25065942588959444
0.0,0.0,92.73999786376953,0.0,0.0,0.0,2594.21826171875,-4062.05029296875,17.010000228881836,-0.009587380103766918,2.2453644275665283,0.0,-902.4949951171875,1077.0831298828125,8.331000328063965,0.0,0.0,92.73999786376953,0.0,0.0,0.0,2739.2841796875,-5086.287109375,334.4050598144531,-1.1571967601776123,0.14285196363925934,1.609625220298767,-332.2454528808594,-47.730560302734375,812.1944580078125,-0.5942451405577149,0.14665211010630513,2.764905432026957
0.0,0.0,92.73999786376953,0.0,0.0,0.0,2739.2841796875,-5086.287109375,334.4050598144531,-1.1571967601776123,0.14285196363925934,1.609625220298767,-332.2454528808594,-47.730560302734375,812.1944580078125,0.0,0.0,92.73999786376953,0.0,0.0,0.0,3177.07421875,-4862.6640625,1229.6031494140625,0.17468206584453583,-2.3855319023132324,-1.572713851928711,737.857421875,723.7950439453125,-93.39553833007812,-0.9541375256981958,-0.6937327185595982,1.460983366468632
0.0,0.0,92.73999786376953,0.0,0.0,0.0,3177.07421875,-4862.6640625,1229.6031494140625,0.17468206584453583,-2.3855319023132324,-1.572713851928711,737.857421875,723.7950439453125,-93.39553833007812,0.0,0.0,92.73999786376953,0.0,0.0,0.0,4068.169921875,-3732.722412109375,782.4619140625,0.2714187204837799,-1.720071792602539,-1.5716592073440552,185.08494567871094,1251.800048828125,-384.56036376953125,-0.19744283998066237,0.025419562423291783,1.2770002160566634
0.0,0.0,92.73999786376953,0.0,0.0,0.0,4068.169921875,-3732.722412109375,782.4619140625,0.2714187204837799,-1.720071792602539,-1.5716592073440552,185.08494567871094,1251.800048828125,-384.56036376953125,0.0,0.0,92.73999786376953,0.0,0.0,0.0,4078.989990234375,-3156.099609375,604.031005859375,0.2841699421405792,-1.560633659362793,-1.5681118965148926,-8.371000289916992,1375.039794921875,-426.46234130859375,-0.9946834939960657,0.002732189650130296,0.4380049050242647
0.0,0.0,92.73999786376953,0.0,0.0,0.0,4078.989990234375,-3156.099609375,604.031005859375,0.2841699421405792,-1.560633659362793,-1.5681118965148926,-8.371000289916992,1375.039794921875,-426.46234130859375,0.0,0.0,92.73999786376953,0.0,0.0,0.0,4078.989990234375,-1659.4261474609375,1284.577392578125,-1.382116675376892,1.5194079875946045,1.6213217973709106,-8.381000518798828,-49.56196594238281,867.0763549804688,-0.23575200891183012,0.7305798958271336,1.5469710866347555
0.0,0.0,92.73999786376953,0.0,0.0,0.0,4078.989990234375,-1659.4261474609375,1284.577392578125,-1.382116675376892,1.5194079875946045,1.6213217973709106,-8.381000518798828,-49.56196594238281,867.0763549804688,0.0,0.0,92.73999786376953,0.0,0.0,0.0,4023.035888671875,-1803.124755859375,1756.859375,-1.0233569145202637,0.6366978883743286,2.5895512104034424,-316.1085510253906,-247.45547485351562,649.4437255859375,-0.6802133031041429,0.00211404983814787,0.6239631474726863
0.0,0.0,92.73999786376953,0.0,0.0,0.0,4023.035888671875,-1803.124755859375,1756.859375,-1.0233569145202637,0.6366978883743286,2.5895512104034424,-316.1085510253906,-247.45547485351562,649.4437255859375,0.0,0.0,92.73999786376953,0.0,0.0,0.0,3236.3349609375,-2184.17236328125,2007.8193359375,0.12799152731895447,0.46968573331832886,-3.1094748973846436,-877.80615234375,-432.0436096191406,-114.41967010498047,-0.6135505808604333,0.05788681904235285,1.2750157794987445
0.0,0.0,92.73999786376953,0.0,0.0,0.0,3236.3349609375,-2184.17236328125,2007.8193359375,0.12799152731895447,0.46968573331832886,-3.1094748973846436,-877.80615234375,-432.0436096191406,-114.41967010498047,0.0,0.0,92.73999786376953,0.0,0.0,0.0,1971.3154296875,-2806.12841796875,1159.0218505859375,0.21399031579494476,0.47572579979896545,-3.103243112564087,-867.9600219726562,-426.2833251953125,-1052.7269287109375,0.1372773405858726,0.14981988874652125,1.4140166689272888
0.0,0.0,92.73999786376953,0.0,0.0,0.0,1971.3154296875,-2806.12841796875,1159.0218505859375,0.21399031579494476,0.47572579979896545,-3.103243112564087,-867.9600219726562,-426.2833251953125,-1052.7269287109375,0.0,0.0,92.73999786376953,0.0,0.0,0.0,155.11805725097656,-3017.65283203125,17.010000228881836,-0.009587380103766918,-1.0813605785369873,0.0,-582.0955810546875,897.60107421875,8.331000328063965,-0.8866319754213176,0.5437568590545576,2.741925271578694
0.0,0.0,92.73999786376953,0.0,0.0,0.0,155.11805725097656,-3017.65283203125,17.010000228881836,-0.009587380103766918,-1.0813605785369873,0.0,-582.0955810546875,897.60107421875,8.331000328063965,0.0,0.0,92.73999786376953,0.0,0.0,0.0,1168.619140625,-4829.18408203125,17.010000228881836,-0.009587380103766918,-0.9934443235397339,0.0,744.310302734375,-1145.7427978515625,8.321000099182129,0.81659002301322,0.03268571507100619,2.822955581525143
0.0,0.0,92.73999786376953,0.0,0.0,0.0,1168.619140625,-4829.18408203125,17.010000228881836,-0.009587380103766918,-0.9934443235397339,0.0,744.310302734375,-1145.7427978515625,8.321000099182129,0.0,0.0,92.73999786376953,0.0,0.0,0.0,1245.030517578125,-4943.25048828125,17.515546798706055,0.014764565043151379,-1.0437780618667603,0.011888351291418076,-337.27398681640625,479.3511962890625,-33.762535095214844,-0.9812353517396182,0.41114341302552504,0.8139964507808486
0.0,0.0,92.73999786376953,0.0,0.0,0.0,1245.030517578125,-4943.25048828125,17.515546798706055,0.014764565043151379,-1.0437780618667603,0.011888351291418076,-337.27398681640625,479.3511962890625,-33.762535095214844,0.0,0.0,92.73999786376953,0.0,0.0,0.0,1672.818359375,-2103.499755859375,17.010000228881836,-0.009587380103766918,-2.2631969451904297,0.0,861.3964233398438,1097.1917724609375,8.321000099182129,-0.6656447294838637,0.2093085941895295,2.7399895397993106
0.0,0.0,92.73999786376953,0.0,0.0,0.0,1672.818359375,-2103.499755859375,17.010000228881836,-0.009587380103766918,-2.2631969451904297,0.0,861.3964233398438,1097.1917724609375,8.321000099182129,0.0,0.0,92.73999786376953,0.0,0.0,0.0,2280.3603515625,-1172.19091796875,17.010000228881836,-0.009683254174888134,-1.912682294845581,0.0,520.0042114257812,1310.34033203125,8.310999870300293,-0.8146821024043284,-0.29150291464096106,0.8800019028843735
0.0,0.0,92.73999786376953,0.0,0.0,0.0,2280.3603515625,-1172.19091796875,17.010000228881836,-0.009683254174888134,-1.912682294845581,0.0,520.0042114257812,1310.34033203125,8.310999870300293,0.0,0.0,92.73999786376953,0.0,0.0,0.0,2744.63720703125,-1380.4154052734375,17.010000228881836,-0.009491506032645702,-0.03863714262843132,0.0,701.3495483398438,-21.75585174560547,8.321000099182129,0.3542592824323768,0.712587951365853,2.2729764084813127
0.0,0.0,92.73999786376953,0.0,0.0,0.0,2744.63720703125,-1380.4154052734375,17.010000228881836,-0.009491506032645702,-0.03863714262843132,0.0,701.3495483398438,-21.75585174560547,8.321000099182129,0.0,0.0,92.73999786376953,0.0,0.0,0.0,2622.533203125,-1414.7518310546875,17.010000228881836,-0.009683254174888134,0.37275734543800354,0.0,-453.2074890136719,-145.3068389892578,8.321000099182129,-0.41528842437256197,-0.29740380725495025,1.0960036313376662
0.0,0.0,92.73999786376953,0.0,0.0,0.0,2622.533203125,-1414.7518310546875,17.010000228881836,-0.009683254174888134,0.37275734543800354,0.0,-453.2074890136719,-145.3068389892578,8.321000099182129,0.0,0.0,92.73999786376953,0.0,0.0,0.0,2975.646240234375,-1418.8973388671875,17.010000228881836,-0.009587380103766918,-0.2514769732952118,-9.58738019107841e-05,839.9356689453125,-212.8677215576172,8.310999870300293,0.9804305983411924,-0.4389022579306862,0.9799223045515504
0.0,0.0,92.73999786376953,0.0,0.0,0.0,2975.646240234375,-1418.8973388671875,17.010000228881836,-0.009587380103766918,-0.2514769732952118,-9.58738019107841e-05,839.9356689453125,-212.8677215576172,8.310999870300293,0.0,0.0,92.73999786376953,0.0,0.0,0.0,3027.438720703125,-1430.5736083984375,17.010000228881836,-0.009683254174888134,-0.3345036804676056,0.0,-330.1300048828125,114.74591827392578,8.310999870300293,-0.5467860843128549,-0.0037589080539991828,0.7250063075519932
0.0,0.0,92.73999786376953,0.0,0.0,0.0,3027.438720703125,-1430.5736083984375,17.010000228881836,-0.009683254174888134,-0.3345036804676056,0.0,-330.1300048828125,114.74591827392578,8.310999870300293,0.0,0.0,92.73999786376953,0.0,0.0,0.0,1243.902587890625,-2059.48095703125,17.010000228881836,-0.009587380103766918,0.9192379713058472,0.0,-871.0826416015625,-1050.32177734375,8.310999870300293,-0.9439562764305466,-0.31304134405068995,1.9979711061732957
0.0,0.0,92.73999786376953,0.0,0.0,0.0,1243.902587890625,-2059.48095703125,17.010000228881836,-0.009587380103766918,0.9192379713058472,0.0,-871.0826416015625,-1050.32177734375,8.310999870300293,0.0,0.0,92.73999786376953,0.0,0.0,0.0,-133.7522430419922,-2302.412841796875,17.010000228881836,-0.009587380103766918,-0.9325644373893738,0.0,-950.1287841796875,1007.3662109375,8.321000099182129,-0.9981702468087412,0.8891916966697088,1.1880146035048824
0.0,0.0,92.73999786376953,0.0,0.0,0.0,-133.7522430419922,-2302.412841796875,17.010000228881836,-0.009587380103766918,-0.9325644373893738,0.0,-950.1287841796875,1007.3662109375,8.321000099182129,0.0,0.0,92.73999786376953,0.0,0.0,0.0,-431.953125,-2539.79345703125,17.010000228881836,-0.009587380103766918,-2.631831645965576,0.0,-548.7508544921875,-292.9732666015625,8.321000099182129,0.3350390357263786,-0.767492488372764,2.003065569374428
0.0,0.0,92.73999786376953,0.0,0.0,0.0,-431.953125,-2539.79345703125,17.010000228881836,-0.009587380103766918,-2.631831645965576,0.0,-548.7508544921875,-292.9732666015625,8.321000099182129,0.0,0.0,92.73999786376953,0.0,0.0,0.0,-982.2153930664062,-2708.300537109375,17.010000228881836,-0.009491506032645702,-2.948502779006958,0.0,-1048.979736328125,-208.34027099609375,8.310999870300293,0.9778056265700921,-0.12275249880932797,0.6748726667367038
0.0,0.0,92.73999786376953,0.0,0.0,0.0,-982.2153930664062,-2708.300537109375,17.010000228881836,-0.009491506032645702,-2.948502779006958,0.0,-1048.979736328125,-208.34027099609375,8.310999870300293,0.0,0.0,92.73999786376953,0.0,0.0,0.0,-1549.704345703125,-2940.07470703125,17.010000228881836,-0.009587380103766918,-2.4606010913848877,0.0,-917.7349243164062,-719.5243530273438,8.310999870300293,0.4809595555441526,0.46716077118150756,0.5499585018296926
0.0,0.0,92.73999786376953,0.0,0.0,0.0,-1549.704345703125,-2940.07470703125,17.010000228881836,-0.009587380103766918,-2.4606010913848877,0.0,-917.7349243164062,-719.5243530273438,8.310999870300293,0.0,0.0,92.73999786376953,0.0,0.0,0.0,-3291.105712890625,-2728.12060546875,17.010000228881836,-0.009587380103766918,2.0117199420928955,0.0,-506.98046875,1029.7161865234375,8.321000099182129,0.12273285821025015,-0.4838904436351265,1.77599284832624
0.0,0.0,92.73999786376953,0.0,0.0,0.0,-3291.105712890625,-2728.12060546875,17.010000228881836,-0.009587380103766918,2.0117199420928955,0.0,-506.98046875,1029.7161865234375,8.321000099182129,0.0,0.0,92.73999786376953,0.0,0.0,0.0,-3845.4677734375,-4196.1806640625,285.0509948730469,-1.4700329303741455,-0.6939345598220825,1.4384905099868774,-44.20069122314453,51.45987319946289,1123.0797119140625,-0.9996625549997279,0.32268924291088025,2.558016027836473
0.0,0.0,92.73999786376953,0.0,0.0,0.0,-3845.4677734375,-4196.1806640625,285.0509948730469,-1.4700329303741455,-0.6939345598220825,1.4384905099868774,-44.20069122314453,51.45987319946289,1123.0797119140625,0.0,0.0,92.73999786376953,0.0,0.0,0.0,-3615.41796875,-4424.48193359375,1204.9393310546875,-0.43958136439323425,2.3668365478515625,-1.5752065181732178,568.2009887695312,-556.801025390625,453.2028503417969,-0.684026509556248,-0.5884171087295246,1.078942517317813
0.0,0.0,92.73999786376953,0.0,0.0,0.0,-3615.41796875,-4424.48193359375,1204.9393310546875,-0.43958136439323425,2.3668365478515625,-1.5752065181732178,568.2009887695312,-556.801025390625,453.2028503417969,0.0,0.0,92.73999786376953,0.0,0.0,0.0,-1454.9017333984375,-4955.3876953125,1882.198974609375,-0.18014687299728394,-2.9306702613830566,-2.352167844772339,1278.6920166015625,240.78770446777344,222.63156127929688,-0.9922155353733221,0.01396740265321477,2.164998197640017
0.0,0.0,92.73999786376953,0.0,0.0,0.0,-1454.9017333984375,-4955.3876953125,1882.198974609375,-0.18014687299728394,-2.9306702613830566,-2.352167844772339,1278.6920166015625,240.78770446777344,222.63156127929688,0.0,0.0,92.73999786376953,0.0,0.0,0.0,1782.6046142578125,-5102.97998046875,819.9055786132812,0.9220183491706848,-3.1256775856018066,-1.558236837387085,1130.2481689453125,8.361000061035156,-1432.7906494140625,-0.7477344020238998,-0.27783671004800586,2.456894430410358
0.0,0.0,92.73999786376953,0.0,0.0,0.0,1782.6046142578125,-5102.97998046875,819.9055786132812,0.9220183491706848,-3.1256775856018066,-1.558236837387085,1130.2481689453125,8.361000061035156,-1432.7906494140625,0.0,0.0,92.73999786376953,0.0,0.0,0.0,1749.16552734375,-5102.97998046875,817.5281372070312,0.9478083848953247,-3.1252942085266113,-1.5577574968338013,-452.4095764160156,8.361000061035156,601.5645751953125,0.942876112023044,-0.024157848041174664,2.0360185995620554
0.0,0.0,92.73999786376953,0.0,0.0,0.0,1749.16552734375,-5102.97998046875,817.5281372070312,0.9478083848953247,-3.1252942085266113,-1.5577574968338013,-452.4095764160156,8.361000061035156,601.5645751953125,0.0,0.0,92.73999786376953,0.0,0.0,0.0,1251.9993896484375,-5101.19873046875,1541.7449951171875,1.0382174253463745,3.052717685699463,-1.6709845066070557,-469.51202392578125,42.99169158935547,765.2655639648438,0.9260423240249823,0.030555789079303324,1.0499750671177281
0.0,0.0,92.73999786376953,0.0,0.0,0.0,1251.9993896484375,-5101.19873046875,1541.7449951171875,1.0382174253463745,3.052717685699463,-1.6709845066070557,-469.51202392578125,42.99169158935547,765.2655639648438,0.0,0.0,92.73999786376953,0.0,0.0,0.0,-995.2017211914062,-4730.455078125,1669.31982421875,-0.08158860355615616,-2.890882730484009,-3.0127382278442383,-1233.0338134765625,18.59930419921875,-647.822021484375,0.8325203163556361,-0.3416509701250093,2.277977426467828
0.0,0.0,92.73999786376953,0.0,0.0,0.0,-995.2017211914062,-4730.455078125,1669.31982421875,-0.08158860355615616,-2.890882730484009,-3.0127382278442383,-1233.0338134765625,18.59930419921875,-647.822021484375,0.0,0.0,92.73999786376953,0.0,0.0,0.0,-2369.394287109375,-4719.08251953125,571.9285278320312,-0.08839564025402069,-2.8466849327087402,-3.0169568061828613,-1288.18994140625,2.016803503036499,-1360.578369140625,0.8053754712607595,-0.1320291491588571,1.085037127482778
0.0,0.0,92.73999786376953,0.0,0.0,0.0,-2369.394287109375,-4719.08251953125,571.9285278320312,-0.08839564025402069,-2.8466849327087402,-3.0169568061828613,-1288.18994140625,2.016803503036499,-1360.578369140625,0.0,0.0,92.73999786376953,0.0,0.0,0.0,-3056.396484375,-4698.1337890625,71.83943939208984,0.11322695761919022,-3.0416922569274902,1.7103885412216187,-422.95965576171875,75.14520263671875,41.614505767822266,-0.9821361133533258,0.17261463627188112,0.816075465222653
0.0,0.0,92.73999786376953,0.0,0.0,0.0,-3056.396484375,-4698.1337890625,71.83943939208984,0.11322695761919022,-3.0416922569274902,1.7103885412216187,-422.95965576171875,75.14520263671875,41.614505767822266,0.0,0.0,92.73999786376953,0.0,0.0,0.0,-2393.46875,-5102.9697265625,360.0003662109375,-1.5084784030914307,-2.981579303741455,-1.7305220365524292,81.4134750366211,8.274346351623535,563.2086791992188,-0.386831439361244,0.3649352948378861,2.700815323656002
0.0,0.0,92.73999786376953,0.0,0.0,0.0,-2393.46875,-5102.9697265625,360.0003662109375,-1.5084784030914307,-2.981579303741455,-1.7305220365524292,81.4134750366211,8.274346351623535,563.2086791992188,0.0,0.0,92.73999786376953,0.0,0.0,0.0,-2360.27294921875,-3032.418212890625,17.010000228881836,-0.009587380103766918,1.5431846380233765,9.58738019107841e-05,37.88223648071289,1388.802734375,8.321000099182129,0.8648145265850014,-0.010320199556000977,2.6892926791904017
0.0,0.0,92.73999786376953,0.0,0.0,0.0,-2360.27294921875,-3032.418212890625,17.010000228881836,-0.009587380103766918,1.5431846380233765,9.58738019107841e-05,37.88223648071289,1388.802734375,8.321000099182129,0.0,0.0,92.73999786376953,0.0,0.0,0.0,-3506.849365234375,-3311.02783203125,17.010000228881836,-0.009587380103766918,-0.5863641500473022,0.0,998.9209594726562,-714.903564453125,8.331000328063965,0.5191187801476314,0.8256746543482224,2.3037153534168766
0.0,0.0,92.73999786376953,0.0,0.0,0.0,-3506.849365234375,-3311.02783203125,17.010000228881836,-0.009587380103766918,-0.5863641500473022,0.0,998.9209594726562,-714.903564453125,8.331000328063965,0.0,0.0,92.73999786376953,0.0,0.0,0.0,-3534.32568359375,-2069.730224609375,17.010000228881836,-0.009587380103766918,-2.564528226852417,0.0,-1147.8985595703125,-690.64013671875,8.331000328063965,0.9274911315676431,0.7807281796718217,2.416209516630559
0.0,0.0,92.73999786376953,0.0,0.0,0.0,-3534.32568359375,-2069.730224609375,17.010000228881836,-0.009587380103766918,-2.564528226852417,0.0,-1147.8985595703125,-690.64013671875,8.331000328063965,0.0,0.0,92.73999786376953,0.0,0.0,0.0,-3673.310546875,-2153.895263671875,17.010000228881836,-0.009587380103766918,-1.9773012399673462,0.0,89.92040252685547,118.14533233642578,8.321000099182129,-0.06508086560239523,-0.9936278474879277,2.197713367281324
0.0,0.0,92.73999786376953,0.0,0.0,0.0,-3673.310546875,-2153.895263671875,17.010000228881836,-0.009587380103766918,-1.9773012399673462,0.0,89.92040252685547,118.14533233642578,8.321000099182129,0.0,0.0,92.73999786376953,0.0,0.0,0.0,-3670.172119140625,-2212.937255859375,17.010000228881836,-0.009491506032645702,-1.6255402565002441,0.0,7.250359535217285,-312.64544677734375,8.301000595092773,0.5346781417166891,0.6549539606212268,0.48698916969962625
0.0,0.0,92.73999786376953,0.0,0.0,0.0,-3670.172119140625,-2212.937255859375,17.010000228881836,-0.009491506032645702,-1.6255402565002441,0.0,7.250359535217285,-312.64544677734375,8.301000595092773,0.0,0.0,92.73999786376953,0.0,0.0,0.0,-4078.97998046875,-377.5748596191406,711.1278076171875,-0.9067744016647339,-1.5864237546920776,1.583164095878601,8.310999870300293,624.7022094726562,722.7889404296875,-0.6660507370376805,-0.18549083577344494,2.9109101818755363
0.0,0.0,92.73999786376953,0.0,0.0,0.0,-4078.97998046875,-377.5748596191406,711.1278076171875,-0.9067744016647339,-1.5864237546920776,1.583164095878601,8.310999870300293,624.7022094726562,722.7889404296875,0.0,0.0,92.73999786376953,0.0,0.0,0.0,-4078.548095703125,-729.9201049804688,281.5637512207031,-0.7775365114212036,-1.5627429485321045,1.5508545637130737,28.60124397277832,-779.9200439453125,-790.716796875,0.537281632133148,-0.06084310978855622,1.504053398559975
0.0,0.0,92.73999786376953,0.0,0.0,0.0,-4078.548095703125,-729.9201049804688,281.5637512207031,-0.7775365114212036,-1.5627429485321045,1.5508545637130737,28.60124397277832,-779.9200439453125,-790.716796875,0.0,0.0,92.73999786376953,0.0,0.0,0.0,-4078.81103515625,-711.48291015625,293.6720275878906,-1.407810926437378,-1.5709880590438843,1.5637016296386719,-6.730831623077393,190.11595153808594,505.9312744140625,-0.9431611210299964,-0.7657902095736968,1.1259151613728164
0.0,0.0,92.73999786376953,0.0,0.0,0.0,-4078.81103515625,-711.48291015625,293.6720275878906,-1.407810926437378,-1.5709880590438843,1.5637016296386719,-6.730831623077393,190.11595153808594,505.9312744140625,0.0,0.0,92.73999786376953,0.0,0.0,0.0,-4060.8779296875,-1344.6728515625,171.7556610107422,0.7666069269180298,-1.9121071100234985,1.0468460321426392,-180.92672729492188,-629.3172607421875,551.5029296875,0.7066088068292086,-0.9229047668694246,1.4139206752067963
0.0,0.0,92.73999786376953,0.0,0.0,0.0,-4060.8779296875,-1344.6728515625,171.7556610107422,0.7666069269180298,-1.9121071100234985,1.0468460321426392,-180.92672729492188,-629.3172607421875,551.5029296875,0.0,0.0,92.73999786376953,0.0,0.0,0.0,-4070.734130859375,-1405.4915771484375,210.15841674804688,0.9520268440246582,-1.7868958711624146,1.2396482229232788,70.79662322998047,167.04957580566406,-327.43035888671875,-0.8868522089137173,-0.6516755699028342,0.44207996588400533
0.0,0.0,92.73999786376953,0.0,0.0,0.0,-4070.734130859375,-1405.4915771484375,210.15841674804688,0.9520268440246582,-1.7868958711624146,1.2396482229232788,70.79662322998047,167.04957580566406,-327.43035888671875,0.0,0.0,92.73999786376953,0.0,0.0,0.0,-3612.63427734375,-1172.6517333984375,16.982009887695312,-0.010354369878768921,3.090492010116577,-0.0003834952076431364,977.0162353515625,27.316965103149414,9.050856590270996,-0.7162881267006396,0.4724768825814766,0.8250413919825661
0.0,0.0,92.73999786376953,0.0,0.0,0.0,-3612.63427734375,-1172.6517333984375,16.982009887695312,-0.010354369878768921,3.090492010116577,-0.0003834952076431364,977.0162353515625,27.316965103149414,9.050856590270996,0.0,0.0,92.73999786376953,0.0,0.0,0.0,-3419.95068359375,-426.3668518066406,17.010000228881836,-0.009587380103766918,0.305741548538208,0.0,984.94775390625,340.2054138183594,8.331000328063965,0.862500458986492,-0.8934060798630583,1.8479666179713234
0.0,0.0,92.73999786376953,0.0,0.0,0.0,-3419.95068359375,-426.3668518066406,17.010000228881836,-0.009587380103766918,0.305741548538208,0.0,984.94775390625,340.2054138183594,8.331000328063965,0.0,0.0,92.73999786376953,0.0,0.0,0.0,-2607.512939453125,296.857177734375,17.010000228881836,-0.009587380103766918,2.113633871078491,0.0,780.702880859375,-974.7100219726562,8.331000328063965,-0.9252310948071385,0.8968474204984608,2.799971739901764
0.0,0.0,92.73999786376953,0.0,0.0,0.0,-2607.512939453125,296.857177734375,17.010000228881836,-0.009587380103766918,2.113633871078491,0.0,780.702880859375,-974.7100219726562,8.331000328063965,0.0,0.0,92.73999786376953,0.0,0.0,0.0,-2911.23828125,-1768.7869873046875,17.010000228881836,-0.009587380103766918,0.7227925658226013,0.0,-983.6769409179688,-960.7542724609375,8.321000099182129,-0.4793010516146574,0.39035433880942283,1.801933523074311
0.0,0.0,92.73999786376953,0.0,0.0,0.0,-2911.23828125,-1768.7869873046875,17.010000228881836,-0.009587380103766918,0.7227925658226013,0.0,-983.6769409179688,-960.7542724609375,8.321000099182129,0.0,0.0,92.73999786376953,0.0,0.0,0.0,-2869.26611328125,-1744.4842529296875,17.010000228881836,-0.009491506032645702,0.6896202564239502,0.0,637.6389770507812,525.9453735351562,8.321000099182129,0.9700798077502005,0.017411411484779312,1.1749535110057252
0.0,0.0,92.73999786376953,0.0,0.0,0.0,-2869.26611328125,-1744.4842529296875,17.010000228881836,-0.009491506032645702,0.6896202564239502,0.0,637.6389770507812,525.9453735351562,8.321000099182129,0.0,0.0,92.73999786376953,0.0,0.0,0.0,-3136.882568359375,-1787.53857421875,17.010000228881836,-0.009587380103766918,-0.28618329763412476,0.0,-689.6690063476562,107.1617202758789,8.321000099182129,-0.5826796903758709,0.6571059703599842,1.30101875105656
0.0,0.0,92.73999786376953,0.0,0.0,0.0,-3136.882568359375,-1787.53857421875,17.010000228881836,-0.009587380103766918,-0.28618329763412476,0.0,-689.6690063476562,107.1617202758789,8.321000099182129,0.0,0.0,92.73999786376953,0.0,0.0,0.0,-3020.1142578125,-960.519287109375,17.010000228881836,-0.009587380103766918,2.6207103729248047,0.0,-947.866455078125,584.4376220703125,8.331000328063965,0.965866973528845,0.8904728659438119,1.840440880185966
0.0,0.0,92.73999786376953,0.0,0.0,0.0,-3020.1142578125,-960.519287109375,17.010000228881836,-0.009587380103766918,2.6207103729248047,0.0,-947.866455078125,584.4376220703125,8.331000328063965,0.0,0.0,92.73999786376953,0.0,0.0,0.0,-3182.80419921875,-881.1925048828125,17.010000228881836,-0.009875001385807991,2.7735331058502197,9.58738019107841e-05,-429.08343505859375,175.56044006347656,8.301000595092773,-0.9963633698012706,-0.12028329981697135,0.21349852937055402
0.0,0.0,92.73999786376953,0.0,0.0,0.0,-3182.80419921875,-881.1925048828125,17.010000228881836,-0.009875001385807991,2.7735331058502197,9.58738019107841e-05,-429.08343505859375,175.56044006347656,8.301000595092773,0.0,0.0,92.73999786376953,0.0,0.0,0.0,-3320.81298828125,-829.3723754882812,17.010000228881836,-0.009587380103766918,2.799323081970215,0.0,-371.7365417480469,130.39422607421875,8.301000595092773,0.025142139855329537,0.06650727629940895,0.376956863140407
0.0,0.0,92.73999786376953,0.0,0.0,0.0,-3320.81298828125,-829.3723754882812,17.010000228881836,-0.009587380103766918,2.799323081970215,0.0,-371.7365417480469,130.39422607421875,8.301000595092773,0.0,0.0,92.73999786376953,0.0,0.0,0.0,-3337.733642578125,-823.4260864257812,17.010000228881836,-0.009683254174888134,2.8032541275024414,0.0,-249.2530517578125,88.370361328125,8.301000595092773,-0.8187523219107689,-0.0850546671728428,0.04904967632560897
0.0,0.0,92.73999786376953,0.0,0.0,0.0,-3337.733642578125,-823.4260864257812,17.010000228881836,-0.009683254174888134,2.8032541275024414,0.0,-249.2530517578125,88.370361328125,8.301000595092773,0.0,0.0,92.73999786376953,0.0,0.0,0.0,-4078.97998046875,-296.8679504394531,828.2953491210938,1.241949200630188,1.6004213094711304,-1.54289710521698,8.301000595092773,271.1478271484375,767.2476196289062,0.7320056023474193,-0.006294712066369555,2.139943836594341
0.0,0.0,92.73999786376953,0.0,0.0,0.0,-4078.97998046875,-296.8679504394531,828.2953491210938,1.241949200630188,1.6004213094711304,-1.54289710521698,8.301000595092773,271.1478271484375,767.2476196289062,0.0,0.0,92.73999786376953,0.0,0.0,0.0,-4078.97998046875,-1050.305419921875,829.3384399414062,-1.5030134916305542,-1.712881326675415,1.7127854824066162,8.321000099182129,-16.781496047973633,120.7412338256836,-0.07696595879880586,0.7136132721613492,2.8119715212965843
0.0,0.0,92.73999786376953,0.0,0.0,0.0,-4078.97998046875,-1050.305419921875,829.3384399414062,-1.5030134916305542,-1.712881326675415,1.7127854824066162,8.321000099182129,-16.781496047973633,120.7412338256836,0.0,0.0,92.73999786376953,0.0,0.0,0.0,-4078.97998046875,-1051.662109375,832.9794311523438,-1.4595826864242554,-1.6566033363342285,1.6561239957809448,8.301000595092773,-10.559159278869629,-43.525978088378906,0.2204418918600064,-0.04178236124508342,0.09702869702539374
0.0,0.0,92.73999786376953,0.0,0.0,0.0,-4078.97998046875,-1051.662109375,832.9794311523438,-1.4595826864242554,-1.6566033363342285,1.6561239957809448,8.301000595092773,-10.559159278869629,-43.525978088378906,0.0,0.0,92.73999786376953,0.0,0.0,0.0,-4078.97998046875,-1103.10205078125,1047.685546875,-0.8042852878570557,1.5847939252853394,-1.5807671546936035,8.301000595092773,-300.11962890625,393.48974609375,-0.895690347599418,-0.6603570997055659,0.9219562557465224
0.0,0.0,92.73999786376953,0.0,0.0,0.0,-4078.97998046875,-1103.10205078125,1047.685546875,-0.8042852878570557,1.5847939252853394,-1.5807671546936035,8.301000595092773,-300.11962890625,393.48974609375,0.0,0.0,92.73999786376953,0.0,0.0,0.0,-4078.97998046875,-1580.6317138671875,1229.7347412109375,0.12128035724163055,1.5805754661560059,-1.569645881652832,8.301000595092773,-936.3236083984375,-52.9814338684082,-0.9689628157781767,-0.5337393624000925,0.7519901706961036
0.0,0.0,92.73999786376953,0.0,0.0,0.0,-4078.97998046875,-1580.6317138671875,1229.7347412109375,0.12128035724163055,1.5805754661560059,-1.569645881652832,8.301000595092773,-936.3236083984375,-52.9814338684082,0.0,0.0,92.73999786376953,0.0,0.0,0.0,-4078.97998046875,-3046.170166015625,912.3605346679688,0.1732439547777176,1.5805754661560059,-1.5691664218902588,8.301000595092773,-1301.71044921875,-258.6610107421875,-0.4200638750412832,0.029894810763371256,1.3020285257091757
0.0,0.0,92.73999786376953,0.0,0.0,0.0,-4078.97998046875,-3046.170166015625,912.3605346679688,0.1732439547777176,1.5805754661560059,-1.5691664218902588,8.301000595092773,-1301.71044921875,-258.6610107421875,0.0,0.0,92.73999786376953,0.0,0.0,0.0,-2553.026611328125,-4647.1044921875,2025.9981689453125,-0.07957525551319122,-2.098198175430298,-3.1107213497161865,625.2263793945312,926.7413330078125,98.54180145263672,-0.9061827778325742,0.3374214984206178,2.606939694706
0.0,0.0,92.73999786376953,0.0,0.0,0.0,-2553.026611328125,-4647.1044921875,2025.9981689453125,-0.07957525551319122,-2.098198175430298,-3.1107213497161865,625.2263793945312,926.7413330078125,98.54180145263672,0.0,0.0,92.73999786376953,0.0,0.0,0.0,-2528.814697265625,-4610.2705078125,2028.685546875,-0.04084223881363869,-2.0693399906158447,-3.13737416267395,608.5519409179688,956.2108764648438,33.786624908447266,-0.8278316986696095,0.7108665753624016,0.038998652406746714
0.0,0.0,92.73999786376953,0.0,0.0,0.0,-2528.814697265625,-4610.2705078125,2028.685546875,-0.04084223881363869,-2.0693399906158447,-3.13737416267395,608.5519409179688,956.2108764648438,33.786624908447266,0.0,0.0,92.73999786376953,0.0,0.0,0.0,-2343.899658203125,-4190.6904296875,2006.981689453125,0.10488593578338623,-1.8232320547103882,3.104872941970825,389.8468017578125,1125.87841796875,-127.68069458007812,-0.5861331217374959,0.35314013500878466,0.3891769487078989
0.0,0.0,92.73999786376953,0.0,0.0,0.0,-2343.899658203125,-4190.6904296875,2006.981689453125,0.10488593578338623,-1.8232320547103882,3.104872941970825,389.8468017578125,1125.87841796875,-127.68069458007812,0.0,0.0,92.73999786376953,0.0,0.0,0.0,-2002.00927734375,-3209.897216796875,1637.2596435546875,0.1703677475452423,-1.763694405555725,3.0977783203125,379.1559143066406,1078.409912109375,-697.7964477539062,0.8600676778907765,-0.09986275503046085,0.8888279449896572
0.0,0.0,92.73999786376953,0.0,0.0,0.0,-2002.00927734375,-3209.897216796875,1637.2596435546875,0.1703677475452423,-1.763694405555725,3.0977783203125,379.1559143066406,1078.409912109375,-697.7964477539062,0.0,0.0,92.73999786376953,0.0,0.0,0.0,-1432.958740234375,-1613.9771728515625,46.86249923706055,0.0001917476038215682,-1.7565038204193115,-2.9601035118103027,198.1909637451172,522.3580932617188,74.51531982421875,0.47679756165761056,0.5406999704205329,1.6099811948584772
0.0,0.0,92.73999786376953,0.0,0.0,0.0,-1432.958740234375,-1613.9771728515625,46.86249923706055,0.0001917476038215682,-1.7565038204193115,-2.9601035118103027,198.1909637451172,522.3580932617188,74.51531982421875,0.0,0.0,92.73999786376953,0.0,0.0,0.0,-1141.333740234375,-1016.2741088867188,17.010000228881836,-0.009683254174888134,-2.2470901012420654,0.0,470.2157287597656,656.2732543945312,8.321000099182129,-0.6786367439799675,0.29450080121040784,1.1279825659546248
0.0,0.0,92.73999786376953,0.0,0.0,0.0,-1141.333740234375,-1016.2741088867188,17.010000228881836,-0.009683254174888134,-2.2470901012420654,0.0,470.2157287597656,656.2732543945312,8.321000099182129,0.0,0.0,92.73999786376953,0.0,0.0,0.0,53.5162467956543,314.9964904785156,17.010000228881836,-0.009587380103766918,-2.319474935531616,9.58738019107841e-05,837.3628540039062,903.2857055664062,8.321000099182129,-0.48038906264387093,0.008994804965039082,1.6999879087555598
0.0,0.0,92.73999786376953,0.0,0.0,0.0,53.5162467956543,314.9964904785156,17.010000228881836,-0.009587380103766918,-2.319474935531616,9.58738019107841e-05,837.3628540039062,903.2857055664062,8.321000099182129,0.0,0.0,92.73999786376953,0.0,0.0,0.0,-840.5513305664062,-852.2345581054688,17.010000228881836,-0.009587380103766918,-2.1693365573883057,-9.58738019107841e-05,-753.7135009765625,-1101.6070556640625,8.321000099182129,0.9645630689218827,0.0395848731704754,2.3443116358264433
0.0,0.0,92.73999786376953,0.0,0.0,0.0,-840.5513305664062,-852.2345581054688,17.010000228881836,-0.009587380103766918,-2.1693365573883057,-9.58738019107841e-05,-753.7135009765625,-1101.6070556640625,8.321000099182129,0.0,0.0,92.73999786376953,0.0,0.0,0.0,-2838.265625,-1009.0125732421875,17.010000228881836,-0.009491506032645702,2.205960273742676,0.0,-847.2374877929688,1096.21875,8.321000099182129,0.5613984803372969,-0.5239548559697677,1.7359711124029786
0.0,0.0,92.73999786376953,0.0,0.0,0.0,-2838.265625,-1009.0125732421875,17.010000228881836,-0.009491506032645702,2.205960273742676,0.0,-847.2374877929688,1096.21875,8.321000099182129,0.0,0.0,92.73999786376953,0.0,0.0,0.0,-2433.54296875,-1736.97802734375,17.010000228881836,-0.009683254174888134,2.0868849754333496,9.58738019107841e-05,533.3660278320312,-937.4720458984375,8.310999870300293,-0.6412079949311438,0.011043570959433046,2.2513361957773554
0.0,0.0,92.73999786376953,0.0,0.0,0.0,-2433.54296875,-1736.97802734375,17.010000228881836,-0.009683254174888134,2.0868849754333496,9.58738019107841e-05,533.3660278320312,-937.4720458984375,8.310999870300293,0.0,0.0,92.73999786376953,0.0,0.0,0.0,-2838.092529296875,-1118.070068359375,17.010000228881836,-0.009587380103766918,2.181608200073242,0.0,-518.009765625,740.3349609375,8.310999870300293,0.4635530931625703,0.031613468263543124,2.1599654649140234
0.0,0.0,92.73999786376953,0.0,0.0,0.0,-2838.092529296875,-1118.070068359375,17.010000228881836,-0.009587380103766918,2.181608200073242,0.0,-518.009765625,740.3349609375,8.310999870300293,0.0,0.0,92.73999786376953,0.0,0.0,0.0,-2799.4501953125,-350.4705505371094,17.010000228881836,-0.009587380103766918,0.1930898278951645,0.0,-973.7720336914062,-38.373687744140625,8.331000328063965,-0.506564813840317,-0.888265311209125,2.9049395989954405
0.0,0.0,92.73999786376953,0.0,0.0,0.0,-2799.4501953125,-350.4705505371094,17.010000228881836,-0.009587380103766918,0.1930898278951645,0.0,-973.7720336914062,-38.373687744140625,8.331000328063965,0.0,0.0,92.73999786376953,0.0,0.0,0.0,-2887.35302734375,-360.96295166015625,17.010000228881836,-0.009395631961524487,0.35415780544281006,9.58738019107841e-05,-669.8587646484375,-143.16766357421875,8.331000328063965,0.8891022036328651,-0.6650171166409029,0.11001163534504599
0.0,0.0,92.73999786376953,0.0,0.0,0.0,-2887.35302734375,-360.96295166015625,17.010000228881836,-0.009395631961524487,0.35415780544281006,9.58738019107841e-05,-669.8587646484375,-143.16766357421875,8.331000328063965,0.0,0.0,92.73999786376953,0.0,0.0,0.0,-2648.391845703125,120.23406219482422,17.010000228881836,-0.009491506032645702,1.4027295112609863,0.0,117.65422821044922,710.91943359375,8.301000595092773,0.4120713851978415,0.3593932450780949,1.7069631692765768
0.0,0.0,92.73999786376953,0.0,0.0,0.0,-2648.391845703125,120.23406219482422,17.010000228881836,-0.009491506032645702,1.4027295112609863,0.0,117.65422821044922,710.91943359375,8.301000595092773,0.0,0.0,92.73999786376953,0.0,0.0,0.0,-2586.810302734375,502.4950256347656,17.010000228881836,-0.009587380103766918,1.3661057949066162,0.0,172.1700439453125,831.5048217773438,8.301000595092773,0.32900985668700533,-0.10519888194478959,0.49700649670774055
0.0,0.0,92.73999786376953,0.0,0.0,0.0,-2586.810302734375,502.4950256347656,17.010000228881836,-0.009587380103766918,1.3661057949066162,0.0,172.1700439453125,831.5048217773438,8.301000595092773,0.0,0.0,92.73999786376953,0.0,0.0,0.0,-2581.81884765625,1080.6204833984375,17.010000228881836,-0.009491506032645702,1.8244783878326416,0.0,-263.188232421875,1064.9957275390625,8.310999870300293,0.7789249690746274,0.39014900655029155,0.5982082304846301
0.0,0.0,92.73999786376953,0.0,0.0,0.0,-2581.81884765625,1080.6204833984375,17.010000228881836,-0.009491506032645702,1.8244783878326416,0.0,-263.188232421875,1064.9957275390625,8.310999870300293,0.0,0.0,92.73999786376953,0.0,0.0,0.0,-3585.200927734375,138.34832763671875,17.018571853637695,-0.00920388475060463,-0.4946129322052002,-0.0012463594321161509,1185.0555419921875,-690.5817260742188,8.620994567871094,0.9840133669667679,0.7444915081274002,2.380716758776259
0.0,0.0,92.73999786376953,0.0,0.0,0.0,-3585.200927734375,138.34832763671875,17.018571853637695,-0.00920388475060463,-0.4946129322052002,-0.0012463594321161509,1185.0555419921875,-690.5817260742188,8.620994567871094,0.0,0.0,92.73999786376953,0.0,0.0,0.0,-1844.0087890625,-1623.52197265625,17.020000457763672,-0.009587380103766918,-1.2777100801467896,0.0,403.5090026855469,-1292.9296875,8.190999984741211,0.04156909315695967,-0.23360039251431877,1.9699771852092738
0.0,0.0,92.73999786376953,0.0,0.0,0.0,-1844.0087890625,-1623.52197265625,17.020000457763672,-0.009587380103766918,-1.2777100801467896,0.0,403.5090026855469,-1292.9296875,8.190999984741211,0.0,0.0,92.73999786376953,0.0,0.0,0.0,-1763.2108154296875,-1905.5992431640625,17.020000457763672,-0.009779127314686775,-1.2915159463882446,0.0,-40.98435592651367,133.75550842285156,8.190999984741211,-0.5600135635912262,0.08092201175245198,0.5939171129619467
0.0,0.0,92.73999786376953,0.0,0.0,0.0,-1763.2108154296875,-1905.5992431640625,17.020000457763672,-0.009779127314686775,-1.2915159463882446,0.0,-40.98435592651367,133.75550842285156,8.190999984741211,0.0,0.0,92.73999786376953,0.0,0.0,0.0,-1699.0736083984375,-2067.853759765625,17.020000457763672,-0.009491506032645702,-1.1482805013656616,9.58738019107841e-05,227.3736114501953,-494.8715515136719,8.190999984741211,0.6633961722487765,0.16215208210518883,0.7009685171745161
0.0,0.0,92.73999786376953,0.0,0.0,0.0,-1699.0736083984375,-2067.853759765625,17.020000457763672,-0.009491506032645702,-1.1482805013656616,9.58738019107841e-05,227.3736114501953,-494.8715515136719,8.190999984741211,0.0,0.0,92.73999786376953,0.0,0.0,0.0,-1561.672607421875,-2369.475830078125,17.020000457763672,-0.009587380103766918,-1.1566214561462402,9.58738019107841e-05,304.5664367675781,-693.5264892578125,8.190999984741211,0.45114620987735365,-0.02872012190515188,0.5120401327375248
0.0,0.0,92.73999786376953,0.0,0.0,0.0,-1561.672607421875,-2369.475830078125,17.020000457763672,-0.009587380103766918,-1.1566214561462402,9.58738019107841e-05,304.5664367675781,-693.5264892578125,8.190999984741211,0.0,0.0,92.73999786376953,0.0,0.0,0.0,112.06627655029297,-1465.2052001953125,17.020000457763672,-0.009587380103766918,2.5882091522216797,0.0,1226.312255859375,-647.8924560546875,8.201000213623047,-0.9848260758199333,0.5224670212835927,2.7810097236825015
0.0,0.0,92.73999786376953,0.0,0.0,0.0,112.06627655029297,-1465.2052001953125,17.020000457763672,-0.009587380103766918,2.5882091522216797,0.0,1226.312255859375,-647.8924560546875,8.201000213623047,0.0,0.0,92.73999786376953,0.0,0.0,0.0,360.6194763183594,-1626.51953125,17.020000457763672,-0.009395631961524487,2.5209057331085205,0.0,-172.45037841796875,123.63955688476562,8.201000213623047,0.8355351481020518,-0.005961612434950595,0.596992310025172
0.0,0.0,92.73999786376953,0.0,0.0,0.0,360.6194763183594,-1626.51953125,17.020000457763672,-0.009395631961524487,2.5209057331085205,0.0,-172.45037841796875,123.63955688476562,8.201000213623047,0.0,0.0,92.73999786376953,0.0,0.0,0.0,319.5441589355469,-1592.9986572265625,17.020000457763672,-0.009491506032645702,2.447658061981201,9.58738019107841e-05,-302.6476745605469,272.4932861328125,8.201000213623047,0.8983864232763018,-0.40135025094462856,0.1750325146871603
0.0,0.0,92.73999786376953,0.0,0.0,0.0,319.5441589355469,-1592.9986572265625,17.020000457763672,-0.009491506032645702,2.447658061981201,9.58738019107841e-05,-302.6476745605469,272.4932861328125,8.201000213623047,0.0,0.0,92.73999786376953,0.0,0.0,0.0,-1417.5391845703125,-845.179443359375,17.020000457763672,-0.009491506032645702,3.0043013095855713,-9.58738019107841e-05,-1331.9305419921875,191.58203125,8.201000213623047,0.8752661209350777,0.14411664638134436,1.9039986340008852
0.0,0.0,92.73999786376953,0.0,0.0,0.0,-1417.5391845703125,-845.179443359375,17.020000457763672,-0.009491506032645702,3.0043013095855713,-9.58738019107841e-05,-1331.9305419921875,191.58203125,8.201000213623047,0.0,0.0,92.73999786376953,0.0,0.0,0.0,49.857826232910156,-1349.8887939453125,17.020000457763672,-0.009683254174888134,2.664332866668701,0.0,1217.43212890625,-609.2001953125,8.190999984741211,-0.9942209582415278,0.10370309899718516,2.4430336734078253
0.0,0.0,92.73999786376953,0.0,0.0,0.0,49.857826232910156,-1349.8887939453125,17.020000457763672,-0.009683254174888134,2.664332866668701,0.0,1217.43212890625,-609.2001953125,8.190999984741211,0.0,0.0,92.73999786376953,0.0,0.0,0.0,1433.8037109375,-409.3741760253906,17.020000457763672,-0.009587380103766918,-1.1308314800262451,0.0,-448.1494445800781,1320.4383544921875,8.211000442504883,-0.999747001378885,-0.8621917882768103,1.6069462075543015
0.0,0.0,92.73999786376953,0.0,0.0,0.0,1433.8037109375,-409.3741760253906,17.020000457763672,-0.009587380103766918,-1.1308314800262451,0.0,-448.1494445800781,1320.4383544921875,8.211000442504883,0.0,0.0,92.73999786376953,0.0,0.0,0.0,522.3336791992188,2187.81884765625,17.020000457763672,-0.009587380103766918,-1.4836469888687134,0.0,-145.80511474609375,1402.1734619140625,8.201000213623047,-0.48580643301397997,0.1359171059184802,1.9759789164942276
0.0,0.0,92.73999786376953,0.0,0.0,0.0,522.3336791992188,2187.81884765625,17.020000457763672,-0.009587380103766918,-1.4836469888687134,0.0,-145.80511474609375,1402.1734619140625,8.201000213623047,0.0,0.0,92.73999786376953,0.0,0.0,0.0,503.3702392578125,2490.24365234375,17.020000457763672,-0.009299758821725845,-1.7286045551300049,0.0,11.873515129089355,241.8069305419922,8.190999984741211,0.42604333780657333,0.5401980456491977,0.3419324640285595
0.0,0.0,92.73999786376953,0.0,0.0,0.0,503.3702392578125,2490.24365234375,17.020000457763672,-0.009299758821725845,-1.7286045551300049,0.0,11.873515129089355,241.8069305419922,8.190999984741211,0.0,0.0,92.73999786376953,0.0,0.0,0.0,1135.7142333984375,2893.56640625,17.020000457763672,-0.009587380103766918,2.7867636680603027,0.0,609.0476684570312,-156.29354858398438,8.201000213623047,-0.21436468772549577,0.5136059874716622,2.0989397932482063
0.0,0.0,92.73999786376953,0.0,0.0,0.0,1135.7142333984375,2893.56640625,17.020000457763672,-0.009587380103766918,2.7867636680603027,0.0,609.0476684570312,-156.29354858398438,8.201000213623047,0.0,0.0,92.73999786376953,0.0,0.0,0.0,653.5014038085938,3901.916748046875,17.020000457763672,-0.009491506032645702,1.5788496732711792,0.0,-17.836505889892578,1088.66162109375,8.190999984741211,0.6455622316934762,-0.30536971192664963,2.0740179545068997
0.0,0.0,92.73999786376953,0.0,0.0,0.0,653.5014038085938,3901.916748046875,17.020000457763672,-0.009491506032645702,1.5788496732711792,0.0,-17.836505889892578,1088.66162109375,8.190999984741211,0.0,0.0,92.73999786376953,0.0,0.0,0.0,1694.78466796875,3565.009521484375,17.020000457763672,-0.009683254174888134,-2.532122850418091,0.0,1031.0218505859375,580.7344970703125,8.211000442504883,-0.8293659130228381,-0.6368369668580608,2.2429654867179067
0.0,0.0,92.73999786376953,0.0,0.0,0.0,1694.78466796875,3565.009521484375,17.020000457763672,-0.009683254174888134,-2.532122850418091,0.0,1031.0218505859375,580.7344970703125,8.211000442504883,0.0,0.0,92.73999786376953,0.0,0.0,0.0,260.0126953125,2357.577392578125,17.020000457763672,-0.009491506032645702,-2.4497673511505127,0.0,-1055.530517578125,-874.3512573242188,8.190999984741211,0.8976550284113537,-0.0007321979789395038,2.746922891557375
0.0,0.0,92.73999786376953,0.0,0.0,0.0,260.0126953125,2357.577392578125,17.020000457763672,-0.009491506032645702,-2.4497673511505127,0.0,-1055.530517578125,-874.3512573242188,8.190999984741211,0.0,0.0,92.73999786376953,0.0,0.0,0.0,-2.260702610015869,2178.07421875,17.020000457763672,-0.009683254174888134,-2.7674930095672607,-0.0001917476038215682,144.56939697265625,20.44031524658203,8.211000442504883,-0.812333706238621,-0.89277809842073,0.5329780904951917
0.0,0.0,92.73999786376953,0.0,0.0,0.0,-2.260702610015869,2178.07421875,17.020000457763672,-0.009683254174888134,-2.7674930095672607,-0.0001917476038215682,144.56939697265625,20.44031524658203,8.211000442504883,0.0,0.0,92.73999786376953,0.0,0.0,0.0,1112.0855712890625,2838.67626953125,17.020000457763672,-0.009683254174888134,-2.529726028442383,0.0,971.1115112304688,671.6477661132812,8.201000213623047,-0.7656339608351826,-0.04436121156233256,1.6909911167580844
0.0,0.0,92.73999786376953,0.0,0.0,0.0,1112.0855712890625,2838.67626953125,17.020000457763672,-0.009683254174888134,-2.529726028442383,0.0,971.1115112304688,671.6477661132812,8.201000213623047,0.0,0.0,92.73999786376953,0.0,0.0,0.0,1214.9578857421875,2910.499755859375,17.020000457763672,-0.009587380103766918,-2.5233025550842285,0.0,-109.47217559814453,-77.87552642822266,8.190999984741211,0.05780304275227788,0.003928003477546229,2.184849359234846
0.0,0.0,92.73999786376953,0.0,0.0,0.0,1214.9578857421875,2910.499755859375,17.020000457763672,-0.009587380103766918,-2.5233025550842285,0.0,-109.47217559814453,-77.87552642822266,8.190999984741211,0.0,0.0,92.73999786376953,0.0,0.0,0.0,-1107.3831787109375,1160.6807861328125,17.020000457763672,-0.009587380103766918,-2.4759409427642822,0.0,-1109.2293701171875,-870.423095703125,8.190999984741211,0.887851603526914,0.010911350115180192,2.815079848935909
0.0,0.0,92.73999786376953,0.0,0.0,0.0,-1107.3831787109375,1160.6807861328125,17.020000457763672,-0.009587380103766918,-2.4759409427642822,0.0,-1109.2293701171875,-870.423095703125,8.190999984741211,0.0,0.0,92.73999786376953,0.0,0.0,0.0,-1679.8087158203125,811.1155395507812,17.020000457763672,-0.009587380103766918,-2.788393497467041,0.0,-1312.907958984375,-507.77703857421875,8.190999984741211,0.9604079738229572,-0.37849438704542937,0.4730324189766293
0.0,0.0,92.73999786376953,0.0,0.0,0.0,-1679.8087158203125,811.1155395507812,17.020000457763672,-0.009587380103766918,-2.788393497467041,0.0,-1312.907958984375,-507.77703857421875,8.190999984741211,0.0,0.0,92.73999786376953,0.0,0.0,0.0,-1892.29345703125,738.25439453125,17.020000457763672,-0.009875001385807991,-2.8453426361083984,-9.58738019107841e-05,-749.6683349609375,-233.76194763183594,8.190999984741211,-0.26511898974912573,0.01837119450560037,0.19299126910209452
0.0,0.0,92.73999786376953,0.0,0.0,0.0,-1892.29345703125,738.25439453125,17.020000457763672,-0.009875001385807991,-2.8453426361083984,-9.58738019107841e-05,-749.6683349609375,-233.76194763183594,8.190999984741211,0.0,0.0,92.73999786376953,0.0,0.0,0.0,-464.260986328125,-293.6509704589844,17.020000457763672,-0.009587380103766918,1.8407769203186035,0.0,413.0168762207031,-1249.73681640625,8.201000213623047,-0.8249997845313958,0.36100350927214053,2.5519335938661527
0.0,0.0,92.73999786376953,0.0,0.0,0.0,-464.260986328125,-293.6509704589844,17.020000457763672,-0.009587380103766918,1.8407769203186035,0.0,413.0168762207031,-1249.73681640625,8.201000213623047,0.0,0.0,92.73999786376953,0.0,0.0,0.0,1097.140869140625,603.1475830078125,17.020000457763672,-0.009587380103766918,-0.23882164061069489,0.0,1284.7076416015625,-290.6562805175781,8.190999984741211,0.7857885947976109,-0.40129979800290627,2.95399833667517
0.0,0.0,92.73999786376953,0.0,0.0,0.0,1097.140869140625,603.1475830078125,17.020000457763672,-0.009587380103766918,-0.23882164061069489,0.0,1284.7076416015625,-290.6562805175781,8.190999984741211,0.0,0.0,92.73999786376953,0.0,0.0,0.0,1430.7186279296875,498.0183410644531,17.020000457763672,-0.009683254174888134,-0.3509939908981323,0.0,-17.768613815307617,6.447647571563721,8.190999984741211,-0.1545570513421617,0.005422150712414927,0.5742100835315398
