ballLocX_0,ballLocY_0,ballLocZ_0,ballVelX_0,ballVelY_0,ballVelZ_0,carLocX_0,carLocY_0,carLocZ_0,carPitch_0,carYaw_0,carRoll_0,carVelX_0,carVelY_0,carVelZ_0,ballLocX_1,ballLocY_1,ballLocZ_1,ballVelX_1,ballVelY_1,ballVelZ_1,carLocX_1,carLocY_1,carLocZ_1,carPitch_1,carYaw_1,carRoll_1,carVelX_1,carVelY_1,carVelZ_1,throttle,steer,time
0.0,0.0,93.1500015258789,0.0,0.0,0.0,-255.989990234375,-3839.809814453125,17.010000228881836,-0.009683254174888134,1.5707963705062866,0.0,0.0,-0.006349737755954266,8.321000099182129,0.0,0.0,93.1500015258789,0.0,0.0,0.0,-841.4249877929688,-4310.4267578125,17.010000228881836,-0.009683254174888134,-0.19711652398109436,0.0,-987.77685546875,86.38959503173828,8.321000099182129,-0.7503152731610416,0.6526974094235947,1.4518014103423404
0.0,0.0,93.1500015258789,0.0,0.0,0.0,-841.4249877929688,-4310.4267578125,17.010000228881836,-0.009683254174888134,-0.19711652398109436,0.0,-987.77685546875,86.38959503173828,8.321000099182129,0.0,0.0,93.1500015258789,0.0,0.0,0.0,-679.330810546875,-4457.826171875,17.010000228881836,-0.009587380103766918,-0.6979612708091736,0.0,357.27838134765625,-308.75177001953125,8.301000595092773,0.23358033737696327,-0.25127258597303187,1.8475473335139942
0.0,0.0,93.1500015258789,0.0,0.0,0.0,-679.330810546875,-4457.826171875,17.010000228881836,-0.009587380103766918,-0.6979612708091736,0.0,357.27838134765625,-308.75177001953125,8.301000595092773,0.0,0.0,93.1500015258789,0.0,0.0,0.0,-655.7759399414062,-4478.96826171875,17.010000228881836,-0.009683254174888134,-0.7363107800483704,0.0,205.7684326171875,-195.99942016601562,8.331000328063965,-0.9812483927114849,-0.6734241954519813,0.07752550415788484
0.0,0.0,93.1500015258789,0.0,0.0,0.0,-655.7759399414062,-4478.96826171875,17.010000228881836,-0.009683254174888134,-0.7363107800483704,0.0,205.7684326171875,-195.99942016601562,8.331000328063965,0.0,0.0,93.1500015258789,0.0,0.0,0.0,-1140.7813720703125,-4291.85205078125,17.010000228881836,-0.009587380103766918,0.07315170764923096,0.0,-566.5455322265625,-1.8763678073883057,8.321000099182129,-0.25177365919717754,-0.34198894676262853,1.8854107467032968
0.0,0.0,93.1500015258789,0.0,0.0,0.0,-1140.7813720703125,-4291.85205078125,17.010000228881836,-0.009587380103766918,0.07315170764923096,0.0,-566.5455322265625,-1.8763678073883057,8.321000099182129,0.0,0.0,93.1500015258789,0.0,0.0,0.0,-1138.9947509765625,-4287.53515625,17.010000228881836,-0.009491506032645702,0.10622817277908325,0.0,415.66119384765625,41.85196304321289,8.321000099182129,0.9790568381516078,-0.06454921418203442,0.5159651058776156
0.0,0.0,93.1500015258789,0.0,0.0,0.0,-1138.9947509765625,-4287.53515625,17.010000228881836,-0.009491506032645702,0.10622817277908325,0.0,415.66119384765625,41.85196304321289,8.321000099182129,0.0,0.0,93.1500015258789,0.0,0.0,0.0,-1922.429443359375,-2575.811767578125,17.010000228881836,-0.009587380103766918,-2.8236751556396484,0.0,-1333.7713623046875,-403.17919921875,8.331000328063965,0.9618518124077623,0.5490411920755054,2.7024131221925742
0.0,0.0,93.1500015258789,0.0,0.0,0.0,-1922.429443359375,-2575.811767578125,17.010000228881836,-0.009587380103766918,-2.8236751556396484,0.0,-1333.7713623046875,-403.17919921875,8.331000328063965,0.0,0.0,93.1500015258789,0.0,0.0,0.0,-1949.1710205078125,-2584.0927734375,17.010000228881836,-0.009587380103766918,-2.799323081970215,0.0,-1324.8466796875,-435.8699645996094,8.331000328063965,0.2817954726905626,-0.6014105789736115,0.012540057533902527
0.0,0.0,93.1500015258789,0.0,0.0,0.0,-1949.1710205078125,-2584.0927734375,17.010000228881836,-0.009587380103766918,-2.799323081970215,0.0,-1324.8466796875,-435.8699645996094,8.331000328063965,0.0,0.0,93.1500015258789,0.0,0.0,0.0,-3026.441162109375,-2148.817138671875,17.010000228881836,-0.009587380103766918,1.7263035774230957,0.0,-255.72601318359375,1283.9984130859375,8.331000328063965,0.6681339105187274,-0.9002811529499151,0.9935027295898067
0.0,0.0,93.1500015258789,0.0,0.0,0.0,-3026.441162109375,-2148.817138671875,17.010000228881836,-0.009587380103766918,1.7263035774230957,0.0,-255.72601318359375,1283.9984130859375,8.331000328063965,0.0,0.0,93.1500015258789,0.0,0.0,0.0,-4069.56640625,-793.508544921875,188.87709045410156,1.3287149667739868,2.9889614582061768,-0.15675365924835205,-278.9522705078125,56.127811431884766,1011.9055786132812,0.1154313859268088,0.4754065911251538,1.5284847753762385
0.0,0.0,93.1500015258789,0.0,0.0,0.0,-4069.56640625,-793.508544921875,188.87709045410156,1.3287149667739868,2.9889614582061768,-0.15675365924835205,-278.9522705078125,56.127811431884766,1011.9055786132812,0.0,0.0,93.1500015258789,0.0,0.0,0.0,-4078.97998046875,-682.5817260742188,1197.68701171875,1.2966930866241455,1.6059820652008057,-1.537144660949707,8.301000595092773,260.985107421875,910.3328857421875,0.9386764314681303,-0.13907353476854317,1.0460166451318038
0.0,0.0,93.1500015258789,0.0,0.0,0.0,-4078.97998046875,-682.5817260742188,1197.68701171875,1.2966930866241455,1.6059820652008057,-1.537144660949707,8.301000595092773,260.985107421875,910.3328857421875,0.0,0.0,93.1500015258789,0.0,0.0,0.0,-3881.027587890625,-2004.2606201171875,21.71611785888672,0.041609227657318115,1.899164080619812,-0.15560317039489746,511.3788146972656,-1426.6494140625,-83.97086334228516,-0.7029617112610077,0.25871742375461504,2.196914157593284
0.0,0.0,93.1500015258789,0.0,0.0,0.0,-3881.027587890625,-2004.2606201171875,21.71611785888672,0.041609227657318115,1.899164080619812,-0.15560317039489746,511.3788146972656,-1426.6494140625,-83.97086334228516,0.0,0.0,93.1500015258789,0.0,0.0,0.0,-3770.26513671875,-2345.478515625,17.010000228881836,-0.009395631961524487,1.9494978189468384,9.58738019107841e-05,-83.6864013671875,239.3946075439453,8.321000099182129,0.9946465429529584,-0.2726580346858375,0.6364838794353531
0.0,0.0,93.1500015258789,0.0,0.0,0.0,-3770.26513671875,-2345.478515625,17.010000228881836,-0.009395631961524487,1.9494978189468384,9.58738019107841e-05,-83.6864013671875,239.3946075439453,8.321000099182129,0.0,0.0,93.1500015258789,0.0,0.0,0.0,-3613.518798828125,-4426.380859375,765.76318359375,-1.2230620384216309,2.384477376937866,-1.597065806388855,301.65106201171875,-290.2810363769531,1041.330810546875,-0.9999981358150049,0.17123088847770535,2.8265411443294504
0.0,0.0,93.1500015258789,0.0,0.0,0.0,-3613.518798828125,-4426.380859375,765.76318359375,-1.2230620384216309,2.384477376937866,-1.597065806388855,301.65106201171875,-290.2810363769531,1041.330810546875,0.0,0.0,93.1500015258789,0.0,0.0,0.0,-4074.06884765625,-3673.827880859375,732.1217041015625,0.954136073589325,1.664465069770813,-1.572713851928711,-14.8318510055542,279.1843566894531,385.6712951660156,0.09594201360240029,0.5121501404072002,2.6858860710925114
0.0,0.0,93.1500015258789,0.0,0.0,0.0,-4074.06884765625,-3673.827880859375,732.1217041015625,0.954136073589325,1.664465069770813,-1.572713851928711,-14.8318510055542,279.1843566894531,385.6712951660156,0.0,0.0,93.1500015258789,0.0,0.0,0.0,-4078.97998046875,-3348.3125,925.8765258789062,0.1269369125366211,1.5803836584091187,-1.5694540739059448,8.310999870300293,782.59765625,69.1880111694336,0.9007521601912855,-0.703833643719925,0.6528803904761808
0.0,0.0,93.1500015258789,0.0,0.0,0.0,-4078.97998046875,-3348.3125,925.8765258789062,0.1269369125366211,1.5803836584091187,-1.5694540739059448,8.310999870300293,782.59765625,69.1880111694336,0.0,0.0,93.1500015258789,0.0,0.0,0.0,-4078.97998046875,-3243.694580078125,915.625732421875,-0.04007524624466896,1.5805754661560059,-1.5712757110595703,8.291000366210938,-192.99728393554688,20.54855728149414,-0.9467576192819949,-0.8948468054499282,0.4267892553921371
0.0,0.0,93.1500015258789,0.0,0.0,0.0,-4078.97998046875,-3243.694580078125,915.625732421875,-0.04007524624466896,1.5805754661560059,-1.5712757110595703,8.291000366210938,-192.99728393554688,20.54855728149414,0.0,0.0,93.1500015258789,0.0,0.0,0.0,-2773.278564453125,-5080.7080078125,586.9369506835938,0.13882526755332947,2.9215621948242188,-1.5705087184906006,1356.2293701171875,-324.3182678222656,-221.59678649902344,-0.9970889990889392,0.00013099517336703426,2.360302173336244
0.0,0.0,93.1500015258789,0.0,0.0,0.0,-2773.278564453125,-5080.7080078125,586.9369506835938,0.13882526755332947,2.9215621948242188,-1.5705087184906006,1356.2293701171875,-324.3182678222656,-221.59678649902344,0.0,0.0,93.1500015258789,0.0,0.0,0.0,-2459.46044921875,-5102.97998046875,518.1636962890625,0.24457405507564545,-3.1318135261535645,-1.5684953927993774,-134.02911376953125,8.35099983215332,-14.094621658325195,0.7857921384362878,-0.22856401617786984,0.5589643217877587
0.0,0.0,93.1500015258789,0.0,0.0,0.0,-2459.46044921875,-5102.97998046875,518.1636962890625,0.24457405507564545,-3.1318135261535645,-1.5684953927993774,-134.02911376953125,8.35099983215332,-14.094621658325195,0.0,0.0,93.1500015258789,0.0,0.0,0.0,-3308.153076171875,-4731.85693359375,958.2568359375,0.6571190357208252,2.3675076961517334,-1.5632222890853882,-546.7985229492188,560.01611328125,572.07373046875,0.9156584227983474,0.1076049822026012,1.63608659591452
0.0,0.0,93.1500015258789,0.0,0.0,0.0,-3308.153076171875,-4731.85693359375,958.2568359375,0.6571190357208252,2.3675076961517334,-1.5632222890853882,-546.7985229492188,560.01611328125,572.07373046875,0.0,0.0,93.1500015258789,0.0,0.0,0.0,-3127.7314453125,-4905.5537109375,663.5081787109375,0.8399503827095032,2.4515888690948486,-1.572330355644226,579.4120483398438,-467.2281188964844,-849.4370727539062,-0.9511677673452692,-0.0905747138097166,1.135797340663963
0.0,0.0,93.1500015258789,0.0,0.0,0.0,-3127.7314453125,-4905.5537109375,663.5081787109375,0.8399503827095032,2.4515888690948486,-1.572330355644226,579.4120483398438,-467.2281188964844,-849.4370727539062,0.0,0.0,93.1500015258789,0.0,0.0,0.0,-1730.0048828125,-3692.493896484375,17.010000228881836,-0.009587380103766918,-1.9649335145950317,0.0,568.97021484375,1290.0885009765625,8.321000099182129,-0.9719563021553149,-0.17051109301932202,1.847727427825646
0.0,0.0,93.1500015258789,0.0,0.0,0.0,-1730.0048828125,-3692.493896484375,17.010000228881836,-0.009587380103766918,-1.9649335145950317,0.0,568.97021484375,1290.0885009765625,8.321000099182129,0.0,0.0,93.1500015258789,0.0,0.0,0.0,-1410.1019287109375,-4570.923828125,17.010000228881836,-0.009491506032645702,-0.9384127259254456,0.0,684.4163208007812,-954.8786010742188,8.310999870300293,0.8143767592588819,0.3127558285660838,2.1942184062616157
0.0,0.0,93.1500015258789,0.0,0.0,0.0,-1410.1019287109375,-4570.923828125,17.010000228881836,-0.009491506032645702,-0.9384127259254456,0.0,684.4163208007812,-954.8786010742188,8.310999870300293,0.0,0.0,93.1500015258789,0.0,0.0,0.0,-1383.2952880859375,-4607.509765625,17.010000228881836,-0.009587380103766918,-0.910129964351654,0.0,717.6254272460938,-944.0104370117188,8.310999870300293,-0.27741073623602164,0.05286438812028748,0.031289121312489954
0.0,0.0,93.1500015258789,0.0,0.0,0.0,-1383.2952880859375,-4607.509765625,17.010000228881836,-0.009587380103766918,-0.910129964351654,0.0,717.6254272460938,-944.0104370117188,8.310999870300293,0.0,0.0,93.1500015258789,0.0,0.0,0.0,-1259.180908203125,-4761.12255859375,17.010000228881836,-0.009779127314686775,-0.8651651740074158,0.0,-105.00802612304688,123.20802307128906,8.310999870300293,-0.9454212755864101,0.0002056138129673986,0.5007482692115452
0.0,0.0,93.1500015258789,0.0,0.0,0.0,-1259.180908203125,-4761.12255859375,17.010000228881836,-0.009779127314686775,-0.8651651740074158,0.0,-105.00802612304688,123.20802307128906,8.310999870300293,0.0,0.0,93.1500015258789,0.0,0.0,0.0,-1274.2509765625,-4743.43505859375,17.010000228881836,-0.009779127314686775,-0.8649734258651733,0.0,-183.24932861328125,216.466796875,8.310999870300293,-0.47619841456765566,-0.04321617814697292,0.08040050029973145
0.0,0.0,93.1500015258789,0.0,0.0,0.0,-1274.2509765625,-4743.43505859375,17.010000228881836,-0.009779127314686775,-0.8649734258651733,0.0,-183.24932861328125,216.466796875,8.310999870300293,0.0,0.0,93.1500015258789,0.0,0.0,0.0,-1266.5787353515625,-4752.07373046875,17.010000228881836,-0.009395631961524487,-0.8616178631782532,0.0,192.44931030273438,-224.27818298339844,8.310999870300293,0.8727346892111576,-0.0020764305598950663,0.37176393033747956
0.0,0.0,93.1500015258789,0.0,0.0,0.0,-1266.5787353515625,-4752.07373046875,17.010000228881836,-0.009395631961524487,-0.8616178631782532,0.0,192.44931030273438,-224.27818298339844,8.310999870300293,0.0,0.0,93.1500015258789,0.0,0.0,0.0,-1258.42822265625,-4761.5625,17.010000228881836,-0.009491506032645702,-0.8616178631782532,0.0,146.23191833496094,-170.43136596679688,8.310999870300293,-0.9975602733477545,-1.7401198046369003e-06,0.0637437586419054
0.0,0.0,93.1500015258789,0.0,0.0,0.0,-1258.42822265625,-4761.5625,17.010000228881836,-0.009491506032645702,-0.8616178631782532,0.0,146.23191833496094,-170.43136596679688,8.310999870300293,0.0,0.0,93.1500015258789,0.0,0.0,0.0,-1253.9522705078125,-4766.88232421875,17.010000228881836,-0.009779127314686775,-0.8637270331382751,0.0,-44.94205856323242,49.33863830566406,8.310999870300293,-0.9103775450642654,0.11066547637170789,0.10844594183237177
0.0,0.0,93.1500015258789,0.0,0.0,0.0,-1253.9522705078125,-4766.88232421875,17.010000228881836,-0.009779127314686775,-0.8637270331382751,0.0,-44.94205856323242,49.33863830566406,8.310999870300293,0.0,0.0,93.1500015258789,0.0,0.0,0.0,-1819.9449462890625,-4112.05224609375,17.010000228881836,-0.009683254174888134,-0.8461821675300598,-9.58738019107841e-05,-538.3965454101562,609.90185546875,8.310999870300293,-0.37603140685987246,-0.010382612427021102,1.7604417181110605
0.0,0.0,93.1500015258789,0.0,0.0,0.0,-1819.9449462890625,-4112.05224609375,17.010000228881836,-0.009683254174888134,-0.8461821675300598,-9.58738019107841e-05,-538.3965454101562,609.90185546875,8.310999870300293,0.0,0.0,93.1500015258789,0.0,0.0,0.0,-1441.655517578125,-3542.276611328125,17.010000228881836,-0.009587380103766918,2.1387526988983154,0.0,-513.29150390625,858.070556640625,8.3410005569458,0.8705469657190839,0.9995707392074459,1.9860169226356206
0.0,0.0,93.1500015258789,0.0,0.0,0.0,-1441.655517578125,-3542.276611328125,17.010000228881836,-0.009587380103766918,2.1387526988983154,0.0,-513.29150390625,858.070556640625,8.3410005569458,0.0,0.0,93.1500015258789,0.0,0.0,0.0,-2115.97900390625,-3275.826171875,17.010000228881836,-0.009587380103766918,-2.917248010635376,0.0,-1168.223876953125,-233.59669494628906,8.331000328063965,0.9178415860822098,0.6973665813624561,0.6985235381283204
0.0,0.0,93.1500015258789,0.0,0.0,0.0,-2115.97900390625,-3275.826171875,17.010000228881836,-0.009587380103766918,-2.917248010635376,0.0,-1168.223876953125,-233.59669494628906,8.331000328063965,0.0,0.0,93.1500015258789,0.0,0.0,0.0,-2987.637939453125,-3124.220947265625,17.010000228881836,-0.009587380103766918,2.2482407093048096,0.0,-775.117431640625,903.1704711914062,8.331000328063965,0.4068650455151964,-0.7992193971288968,0.7865072548841425
0.0,0.0,93.1500015258789,0.0,0.0,0.0,-2987.637939453125,-3124.220947265625,17.010000228881836,-0.009587380103766918,2.2482407093048096,0.0,-775.117431640625,903.1704711914062,8.331000328063965,0.0,0.0,93.1500015258789,0.0,0.0,0.0,-4078.97998046875,-3436.7392578125,777.3187255859375,-0.08935438096523285,-1.5803836584091187,1.5716592073440552,8.310999870300293,-1194.3756103515625,-110.90990447998047,0.9542370542367463,0.6027656773267818,2.1044082613451565
0.0,0.0,93.1500015258789,0.0,0.0,0.0,-4078.97998046875,-3436.7392578125,777.3187255859375,-0.08935438096523285,-1.5803836584091187,1.5716592073440552,8.310999870300293,-1194.3756103515625,-110.90990447998047,0.0,0.0,93.1500015258789,0.0,0.0,0.0,-3718.229248046875,-4322.3447265625,582.8538208007812,-0.14294783771038055,-0.7921093106269836,1.5736725330352783,991.734375,-969.1873168945312,-230.01527404785156,0.8051558812315098,-0.02812243508258437,0.7714979797439199
0.0,0.0,93.1500015258789,0.0,0.0,0.0,-3718.229248046875,-4322.3447265625,582.8538208007812,-0.14294783771038055,-0.7921093106269836,1.5736725330352783,991.734375,-969.1873168945312,-230.01527404785156,0.0,0.0,93.1500015258789,0.0,0.0,0.0,-2893.336181640625,-4138.22314453125,17.010000228881836,-0.009587380103766918,2.365302562713623,0.0,968.3939208984375,-730.2805786132812,8.3410005569458,-0.7803407754192685,0.8653931448374648,2.702366965946034
0.0,0.0,93.1500015258789,0.0,0.0,0.0,-2893.336181640625,-4138.22314453125,17.010000228881836,-0.009587380103766918,2.365302562713623,0.0,968.3939208984375,-730.2805786132812,8.3410005569458,0.0,0.0,93.1500015258789,0.0,0.0,0.0,-3669.703125,-4370.61669921875,353.64825439453125,1.1161627769470215,-0.8007379770278931,1.5590996742248535,222.9810333251953,-204.44439697265625,577.77490234375,0.41229225006360903,0.46668630880206347,2.9134833722829754
0.0,0.0,93.1500015258789,0.0,0.0,0.0,-3669.703125,-4370.61669921875,353.64825439453125,1.1161627769470215,-0.8007379770278931,1.5590996742248535,222.9810333251953,-204.44439697265625,577.77490234375,0.0,0.0,93.1500015258789,0.0,0.0,0.0,-3356.29052734375,-4683.61962890625,812.547119140625,0.6060183048248291,-0.796998918056488,1.563989281654358,499.39404296875,-487.8833923339844,457.275146484375,0.8148962409946966,0.22524558671447023,0.8790292916601885
0.0,0.0,93.1500015258789,0.0,0.0,0.0,-3356.29052734375,-4683.61962890625,812.547119140625,0.6060183048248291,-0.796998918056488,1.563989281654358,499.39404296875,-487.8833923339844,457.275146484375,0.0,0.0,93.1500015258789,0.0,0.0,0.0,-3099.64208984375,-4928.09033203125,944.6627197265625,0.1366201639175415,-0.6505995988845825,1.5769321918487549,622.6493530273438,-495.8170471191406,83.21904754638672,0.1775691608136012,0.4685427148059671,0.472526980874612
0.0,0.0,93.1500015258789,0.0,0.0,0.0,-3099.64208984375,-4928.09033203125,944.6627197265625,0.1366201639175415,-0.6505995988845825,1.5769321918487549,622.6493530273438,-495.8170471191406,83.21904754638672,0.0,0.0,93.1500015258789,0.0,0.0,0.0,-3352.485107421875,-4687.4248046875,1277.5667724609375,-1.239840030670166,2.385052442550659,-1.5974491834640503,-302.7525939941406,314.6019287109375,-1167.5118408203125,0.8838774956997462,-0.9429267540547862,1.9304824630332362
0.0,0.0,93.1500015258789,0.0,0.0,0.0,-3352.485107421875,-4687.4248046875,1277.5667724609375,-1.239840030670166,2.385052442550659,-1.5974491834640503,-302.7525939941406,314.6019287109375,-1167.5118408203125,0.0,0.0,93.1500015258789,0.0,0.0,0.0,-409.6196594238281,-4444.03662109375,17.010000228881836,-0.009587380103766918,-0.5229915976524353,-9.58738019107841e-05,1227.040771484375,-690.64794921875,8.321000099182129,0.5623186457065508,-0.2512267999481686,2.9980263249178876
0.0,0.0,93.1500015258789,0.0,0.0,0.0,-409.6196594238281,-4444.03662109375,17.010000228881836,-0.009587380103766918,-0.5229915976524353,-9.58738019107841e-05,1227.040771484375,-690.64794921875,8.321000099182129,0.0,0.0,93.1500015258789,0.0,0.0,0.0,629.77099609375,-5722.04248046875,463.8133544921875,-0.3351747989654541,-2.9239590167999268,-2.80037784576416,-390.8843994140625,-76.56331634521484,-183.24356079101562,0.25624035024434166,-0.04209479268885642,2.7662024707467054
0.0,0.0,93.1500015258789,0.0,0.0,0.0,629.77099609375,-5722.04248046875,463.8133544921875,-0.3351747989654541,-2.9239590167999268,-2.80037784576416,-390.8843994140625,-76.56331634521484,-183.24356079101562,0.0,0.0,93.1500015258789,0.0,0.0,0.0,375.328857421875,-5770.806640625,196.3900146484375,-0.3248204290866852,-2.7217612266540527,-2.8096776008605957,-368.5340270996094,-68.23821258544922,-610.1808471679688,-0.5929538162791292,-0.0005180651602503396,0.6610684519789558
0.0,0.0,93.1500015258789,0.0,0.0,0.0,375.328857421875,-5770.806640625,196.3900146484375,-0.3248204290866852,-2.7217612266540527,-2.8096776008605957,-368.5340270996094,-68.23821258544922,-610.1808471679688,0.0,0.0,93.1500015258789,0.0,0.0,0.0,-65.68932342529297,-5743.056640625,32.700443267822266,-0.03163835406303406,2.8235793113708496,-0.052922338247299194,-619.3820190429688,220.89041137695312,-4.620879173278809,0.9125587165382104,-0.9352215704134396,1.7598167681962522
0.0,0.0,93.1500015258789,0.0,0.0,0.0,-65.68932342529297,-5743.056640625,32.700443267822266,-0.03163835406303406,2.8235793113708496,-0.052922338247299194,-619.3820190429688,220.89041137695312,-4.620879173278809,0.0,0.0,93.1500015258789,0.0,0.0,0.0,-860.7688598632812,-5608.8427734375,486.4075927734375,0.9180874824523926,-0.5404406189918518,2.5777587890625,237.38253784179688,-190.66709899902344,360.2442321777344,0.967634730333701,0.2645908397253132,1.755585401373871
0.0,0.0,93.1500015258789,0.0,0.0,0.0,-860.7688598632812,-5608.8427734375,486.4075927734375,0.9180874824523926,-0.5404406189918518,2.5777587890625,237.38253784179688,-190.66709899902344,360.2442321777344,0.0,0.0,93.1500015258789,0.0,0.0,0.0,-79.84925079345703,-5409.8642578125,219.57989501953125,-0.16979250311851501,0.35482892394065857,2.9090986251831055,628.0155029296875,198.44908142089844,-632.4888305664062,0.9944577971848537,-0.5922737385291185,1.4115373059986425
0.0,0.0,93.1500015258789,0.0,0.0,0.0,-79.84925079345703,-5409.8642578125,219.57989501953125,-0.16979250311851501,0.35482892394065857,2.9090986251831055,628.0155029296875,198.44908142089844,-632.4888305664062,0.0,0.0,93.1500015258789,0.0,0.0,0.0,-247.19595336914062,-4761.3466796875,17.010000228881836,-0.009587380103766918,-1.841927409172058,0.0,132.23519897460938,969.5179443359375,8.3410005569458,-0.7281942713239504,0.7896777569841342,2.651907428125803
0.0,0.0,93.1500015258789,0.0,0.0,0.0,-247.19595336914062,-4761.3466796875,17.010000228881836,-0.009587380103766918,-1.841927409172058,0.0,132.23519897460938,969.5179443359375,8.3410005569458,0.0,0.0,93.1500015258789,0.0,0.0,0.0,-214.11534118652344,-4633.34375,17.010000228881836,-0.009299758821725845,-2.000119209289551,-0.0001917476038215682,185.34214782714844,478.5526123046875,8.321000099182129,0.8676341786870134,0.16517463502317867,0.16200870852273397
0.0,0.0,93.1500015258789,0.0,0.0,0.0,-214.11534118652344,-4633.34375,17.010000228881836,-0.009299758821725845,-2.000119209289551,-0.0001917476038215682,185.34214782714844,478.5526123046875,8.321000099182129,0.0,0.0,93.1500015258789,0.0,0.0,0.0,-146.98287963867188,-5977.986328125,208.93907165527344,1.160935878753662,-0.48109471797943115,1.0444492101669312,420.0169372558594,-176.51612854003906,1015.0545043945312,0.9560277927043342,0.20977594427582094,1.9894222908619454
0.0,0.0,93.1500015258789,0.0,0.0,0.0,-146.98287963867188,-5977.986328125,208.93907165527344,1.160935878753662,-0.48109471797943115,1.0444492101669312,420.0169372558594,-176.51612854003906,1015.0545043945312,0.0,0.0,93.1500015258789,0.0,0.0,0.0,104.84387969970703,-5624.8271484375,520.0952758789062,0.25953036546707153,1.1029322147369385,3.0807127952575684,478.4369201660156,941.3491821289062,207.57666015625,0.6781611805735764,0.05307355794091859,0.5664926038154476
0.0,0.0,93.1500015258789,0.0,0.0,0.0,104.84387969970703,-5624.8271484375,520.0952758789062,0.25953036546707153,1.1029322147369385,3.0807127952575684,478.4369201660156,941.3491821289062,207.57666015625,0.0,0.0,93.1500015258789,0.0,0.0,0.0,1075.5706787109375,-3718.070068359375,61.45577621459961,-0.03154247999191284,1.585273265838623,-1.9024237394332886,304.9729309082031,648.1397705078125,-2.9386160373687744,0.20448540342450028,-0.03954096293611278,2.1701724176500363
0.0,0.0,93.1500015258789,0.0,0.0,0.0,1075.5706787109375,-3718.070068359375,61.45577621459961,-0.03154247999191284,1.585273265838623,-1.9024237394332886,304.9729309082031,648.1397705078125,-2.9386160373687744,0.0,0.0,93.1500015258789,0.0,0.0,0.0,955.2926635742188,-3554.236328125,17.010000228881836,-0.009587380103766918,-0.5735170841217041,0.0,-224.4425048828125,79.53965759277344,8.321000099182129,-0.07715764197604691,0.9586391352745278,2.976786522829073
0.0,0.0,93.1500015258789,0.0,0.0,0.0,955.2926635742188,-3554.236328125,17.010000228881836,-0.009587380103766918,-0.5735170841217041,0.0,-224.4425048828125,79.53965759277344,8.321000099182129,0.0,0.0,93.1500015258789,0.0,0.0,0.0,944.3489379882812,-3552.99560546875,17.010000228881836,-0.009395631961524487,-0.6770607829093933,-9.58738019107841e-05,58.77634048461914,-55.197120666503906,8.310999870300293,0.5674801629862918,-0.04429149263225323,0.1820886579377543
0.0,0.0,93.1500015258789,0.0,0.0,0.0,944.3489379882812,-3552.99560546875,17.010000228881836,-0.009395631961524487,-0.6770607829093933,-9.58738019107841e-05,58.77634048461914,-55.197120666503906,8.310999870300293,0.0,0.0,93.1500015258789,0.0,0.0,0.0,556.9659423828125,-3067.12353515625,17.010000228881836,-0.009587380103766918,-1.1210523843765259,0.0,-441.9843444824219,839.8660888671875,8.310999870300293,-0.7958862200169223,0.20096579213309218,1.2097679643367911
0.0,0.0,93.1500015258789,0.0,0.0,0.0,556.9659423828125,-3067.12353515625,17.010000228881836,-0.009587380103766918,-1.1210523843765259,0.0,-441.9843444824219,839.8660888671875,8.310999870300293,0.0,0.0,93.1500015258789,0.0,0.0,0.0,-2192.130126953125,-1950.14697265625,17.010000228881836,-0.009587380103766918,0.381577730178833,-9.58738019107841e-05,-1291.960693359375,-463.3100280761719,8.310999870300293,-0.48763841759858084,-0.2887719255126463,2.7189662246710498
0.0,0.0,93.1500015258789,0.0,0.0,0.0,-2192.130126953125,-1950.14697265625,17.010000228881836,-0.009587380103766918,0.381577730178833,-9.58738019107841e-05,-1291.960693359375,-463.3100280761719,8.310999870300293,0.0,0.0,93.1500015258789,0.0,0.0,0.0,-2218.892822265625,-2494.4794921875,17.010000228881836,-0.009587380103766918,-2.4559991359710693,0.0,-464.3471374511719,-357.13360595703125,8.331000328063965,0.2628082281156543,-0.9853126589132922,2.590947768968448
0.0,0.0,93.1500015258789,0.0,0.0,0.0,-2218.892822265625,-2494.4794921875,17.010000228881836,-0.009587380103766918,-2.4559991359710693,0.0,-464.3471374511719,-357.13360595703125,8.331000328063965,0.0,0.0,93.1500015258789,0.0,0.0,0.0,-1872.58837890625,-2251.9716796875,17.010000228881836,-0.009683254174888134,-2.3927223682403564,0.0,497.91552734375,440.5995788574219,8.301000595092773,-0.40156011992806295,-0.12547947218230013,1.564036411898357
0.0,0.0,93.1500015258789,0.0,0.0,0.0,-1872.58837890625,-2251.9716796875,17.010000228881836,-0.009683254174888134,-2.3927223682403564,0.0,497.91552734375,440.5995788574219,8.301000595092773,0.0,0.0,93.1500015258789,0.0,0.0,0.0,304.4727783203125,-158.28688049316406,17.010000228881836,-0.009683254174888134,-2.3750815391540527,0.0,1015.6309814453125,978.0109252929688,8.301000595092773,-0.8904070834814576,0.001119578369678369,2.667800184794885
0.0,0.0,93.1500015258789,0.0,0.0,0.0,304.4727783203125,-158.28688049316406,17.010000228881836,-0.009683254174888134,-2.3750815391540527,0.0,1015.6309814453125,978.0109252929688,8.301000595092773,0.0,0.0,93.1500015258789,0.0,0.0,0.0,1209.4183349609375,3027.33935546875,17.010000228881836,-0.009587380103766918,-1.2245960235595703,0.0,-435.74951171875,1340.9539794921875,8.301000595092773,-0.946523620470014,-0.25444091435425753,2.488402747514286
0.0,0.0,93.1500015258789,0.0,0.0,0.0,1209.4183349609375,3027.33935546875,17.010000228881836,-0.009587380103766918,-1.2245960235595703,0.0,-435.74951171875,1340.9539794921875,8.301000595092773,0.0,0.0,93.1500015258789,0.0,0.0,0.0,1092.244140625,3322.91943359375,17.010000228881836,-0.009491506032645702,-0.9996761083602905,9.58738019107841e-05,42.87002944946289,-85.5035171508789,8.301000595092773,0.5228366139770553,-0.4936893295805257,0.5449917216081701
0.0,0.0,93.1500015258789,0.0,0.0,0.0,1092.244140625,3322.91943359375,17.010000228881836,-0.009491506032645702,-0.9996761083602905,9.58738019107841e-05,42.87002944946289,-85.5035171508789,8.301000595092773,0.0,0.0,93.1500015258789,0.0,0.0,0.0,980.7306518554688,1651.4737548828125,17.010000228881836,-0.009491506032645702,-2.0857346057891846,0.0,-640.5725708007812,-1158.724365234375,8.301000595092773,0.9440007663719792,-0.24977140184270408,1.957004465262898
0.0,0.0,93.1500015258789,0.0,0.0,0.0,980.7306518554688,1651.4737548828125,17.010000228881836,-0.009491506032645702,-2.0857346057891846,0.0,-640.5725708007812,-1158.724365234375,8.301000595092773,0.0,0.0,93.1500015258789,0.0,0.0,0.0,517.8616943359375,2365.2041015625,17.010000228881836,-0.009587380103766918,-0.3098641335964203,0.0,1218.153076171875,-330.9574890136719,8.3410005569458,0.9962065761872437,-0.986504323328388,2.06043976425768
0.0,0.0,93.1500015258789,0.0,0.0,0.0,517.8616943359375,2365.2041015625,17.010000228881836,-0.009587380103766918,-0.3098641335964203,0.0,1218.153076171875,-330.9574890136719,8.3410005569458,0.0,0.0,93.1500015258789,0.0,0.0,0.0,565.0747680664062,2350.672119140625,17.010000228881836,-0.009587380103766918,-0.39797213673591614,0.0,1132.387451171875,-402.1513977050781,8.321066856384277,-0.9987299921511866,-0.4157097056927958,0.037947513834836855
0.0,0.0,93.1500015258789,0.0,0.0,0.0,565.0747680664062,2350.672119140625,17.010000228881836,-0.009587380103766918,-0.39797213673591614,0.0,1132.387451171875,-402.1513977050781,8.321066856384277,0.0,0.0,93.1500015258789,0.0,0.0,0.0,254.8021240234375,2565.82373046875,17.010000228881836,-0.009683254174888134,-0.5778313875198364,9.58738019107841e-05,-634.4169921875,409.6495666503906,8.310999870300293,-0.457103954367611,0.022450037263851575,1.766942386527134
0.0,0.0,93.1500015258789,0.0,0.0,0.0,254.8021240234375,2565.82373046875,17.010000228881836,-0.009683254174888134,-0.5778313875198364,9.58738019107841e-05,-634.4169921875,409.6495666503906,8.310999870300293,0.0,0.0,93.1500015258789,0.0,0.0,0.0,571.4815063476562,2460.89697265625,17.010000228881836,-0.009491506032645702,-0.21629129350185394,0.0,616.4225463867188,-131.69766235351562,8.310999870300293,0.3910153812875934,0.2044898477180734,1.6546629277275287
0.0,0.0,93.1500015258789,0.0,0.0,0.0,571.4815063476562,2460.89697265625,17.010000228881836,-0.009491506032645702,-0.21629129350185394,0.0,616.4225463867188,-131.69766235351562,8.310999870300293,0.0,0.0,93.1500015258789,0.0,0.0,0.0,-1499.755615234375,2801.402587890625,17.010000228881836,-0.009683254174888134,-0.14889201521873474,0.0,-1369.347412109375,206.76571655273438,8.310999870300293,-0.9169705889054333,-0.009183287160969158,2.55087282028542
0.0,0.0,93.1500015258789,0.0,0.0,0.0,-1499.755615234375,2801.402587890625,17.010000228881836,-0.009683254174888134,-0.14889201521873474,0.0,-1369.347412109375,206.76571655273438,8.310999870300293,0.0,0.0,93.1500015258789,0.0,0.0,0.0,-2013.5985107421875,2878.12060546875,17.010000228881836,-0.009683254174888134,-0.1480291485786438,0.0,-1394.4967041015625,207.87100219726562,8.310999870300293,-0.9472439043025604,-0.002212392248665033,0.3740808040135022
0.0,0.0,93.1500015258789,0.0,0.0,0.0,-2013.5985107421875,2878.12060546875,17.010000228881836,-0.009683254174888134,-0.1480291485786438,0.0,-1394.4967041015625,207.87100219726562,8.310999870300293,0.0,0.0,93.1500015258789,0.0,0.0,0.0,-1947.778564453125,2553.48583984375,17.010000228881836,-0.009491506032645702,-1.4591991901397705,0.0,96.6798324584961,-822.8046875,8.321000099182129,0.6789703703330207,-0.7407128768242739,1.5979114156857008
0.0,0.0,93.1500015258789,0.0,0.0,0.0,-1947.778564453125,2553.48583984375,17.010000228881836,-0.009491506032645702,-1.4591991901397705,0.0,96.6798324584961,-822.8046875,8.321000099182129,0.0,0.0,93.1500015258789,0.0,0.0,0.0,-1354.305419921875,4407.5517578125,17.010000228881836,-0.009587380103766918,-2.0713534355163574,0.0,642.349365234375,1214.732666015625,8.310999870300293,-0.9247321756676161,0.11083986762251846,2.548469580626602
0.0,0.0,93.1500015258789,0.0,0.0,0.0,-1354.305419921875,4407.5517578125,17.010000228881836,-0.009587380103766918,-2.0713534355163574,0.0,642.349365234375,1214.732666015625,8.310999870300293,0.0,0.0,93.1500015258789,0.0,0.0,0.0,738.76123046875,5634.62841796875,28.089282989501953,-0.003067961661145091,2.975155830383301,0.03892476111650467,1399.8665771484375,-165.76852416992188,1.590270757675171,-0.8032754310005309,0.3946022935934325,1.8534374935402553
0.0,0.0,93.1500015258789,0.0,0.0,0.0,738.76123046875,5634.62841796875,28.089282989501953,-0.003067961661145091,2.975155830383301,0.03892476111650467,1399.8665771484375,-165.76852416992188,1.590270757675171,0.0,0.0,93.1500015258789,0.0,0.0,0.0,805.8792724609375,5625.162109375,30.619848251342773,-0.0626055896282196,2.9434216022491455,0.0782330185174942,1169.514404296875,-226.26539611816406,275.6977233886719,0.8112611224857043,0.04020839646841289,0.04909268995490379
0.0,0.0,93.1500015258789,0.0,0.0,0.0,805.8792724609375,5625.162109375,30.619848251342773,-0.0626055896282196,2.9434216022491455,0.0782330185174942,1169.514404296875,-226.26539611816406,275.6977233886719,0.0,0.0,93.1500015258789,0.0,0.0,0.0,788.5119018554688,5600.0244140625,27.529335021972656,-0.0016298545524477959,2.9295198917388916,0.0848483145236969,-492.0834045410156,143.20205688476562,-51.670108795166016,0.49571651273232253,-0.6526412003259364,0.8619262785634305
0.0,0.0,93.1500015258789,0.0,0.0,0.0,788.5119018554688,5600.0244140625,27.529335021972656,-0.0016298545524477959,2.9295198917388916,0.0848483145236969,-492.0834045410156,143.20205688476562,-51.670108795166016,0.0,0.0,93.1500015258789,0.0,0.0,0.0,878.8635864257812,5797.205078125,160.08981323242188,-1.3495196104049683,-1.5519092082977295,-1.584985613822937,-27.51999855041504,-160.36618041992188,-753.7279052734375,0.3439951851230729,-0.7328437699189657,2.332435127112319
0.0,0.0,93.1500015258789,0.0,0.0,0.0,878.8635864257812,5797.205078125,160.08981323242188,-1.3495196104049683,-1.5519092082977295,-1.584985613822937,-27.51999855041504,-160.36618041992188,-753.7279052734375,0.0,0.0,93.1500015258789,0.0,0.0,0.0,64.77350616455078,5680.509765625,28.438016891479492,0.01677791401743889,1.1834661960601807,-0.009875001385807991,-532.8232421875,-1097.5848388671875,-16.637357711791992,-0.8491343092384748,-0.44117614764509805,2.736007507327656
0.0,0.0,93.1500015258789,0.0,0.0,0.0,64.77350616455078,5680.509765625,28.438016891479492,0.01677791401743889,1.1834661960601807,-0.009875001385807991,-532.8232421875,-1097.5848388671875,-16.637357711791992,0.0,0.0,93.1500015258789,0.0,0.0,0.0,-15.278387069702148,5477.6572265625,21.927701950073242,0.027707528322935104,1.2353339195251465,-0.013038836419582367,19.479164123535156,55.465492248535156,9.913298606872559,0.06336371896439053,0.024850302243339024,1.2084690765890684
0.0,0.0,93.1500015258789,0.0,0.0,0.0,-15.278387069702148,5477.6572265625,21.927701950073242,0.027707528322935104,1.2353339195251465,-0.013038836419582367,19.479164123535156,55.465492248535156,9.913298606872559,0.0,0.0,93.1500015258789,0.0,0.0,0.0,-809.1195678710938,5691.728515625,484.6717834472656,-0.12463594228029251,-3.002096176147461,2.8361387252807617,-632.9859008789062,-322.8799743652344,-218.37582397460938,0.9743460770730605,0.4106372490283182,1.9724798335430194
0.0,0.0,93.1500015258789,0.0,0.0,0.0,-809.1195678710938,5691.728515625,484.6717834472656,-0.12463594228029251,-3.002096176147461,2.8361387252807617,-632.9859008789062,-322.8799743652344,-218.37582397460938,0.0,0.0,93.1500015258789,0.0,0.0,0.0,-864.236572265625,5637.427734375,471.0987854003906,-1.2976518869400024,2.4336605072021484,-2.692136287689209,94.59696197509766,-15.281888961791992,163.6964569091797,-0.965492935291636,-0.909457749348527,0.5328891573313541
0.0,0.0,93.1500015258789,0.0,0.0,0.0,-864.236572265625,5637.427734375,471.0987854003906,-1.2976518869400024,2.4336605072021484,-2.692136287689209,94.59696197509766,-15.281888961791992,163.6964569091797,0.0,0.0,93.1500015258789,0.0,0.0,0.0,-733.7689819335938,5845.29345703125,52.061004638671875,0.020612867549061775,0.05579855293035507,-0.3953835368156433,534.1094970703125,11.81076431274414,26.827653884887695,0.3614226790233672,-2.1607541803331734e-05,1.3956306741388715
0.0,0.0,93.1500015258789,0.0,0.0,0.0,-733.7689819335938,5845.29345703125,52.061004638671875,0.020612867549061775,0.05579855293035507,-0.3953835368156433,534.1094970703125,11.81076431274414,26.827653884887695,0.0,0.0,93.1500015258789,0.0,0.0,0.0,-460.64544677734375,5381.86083984375,541.4193115234375,0.09673666208982468,2.535670280456543,3.0546350479125977,577.36572265625,-411.76873779296875,-114.104248046875,-0.9225993338748651,0.0828956489891714,2.3243566512991833
0.0,0.0,93.1500015258789,0.0,0.0,0.0,-460.64544677734375,5381.86083984375,541.4193115234375,0.09673666208982468,2.535670280456543,3.0546350479125977,577.36572265625,-411.76873779296875,-114.104248046875,0.0,0.0,93.1500015258789,0.0,0.0,0.0,-226.04336547851562,5214.75732421875,442.39520263671875,0.0818762257695198,2.588113307952881,3.074864387512207,595.6434936523438,-423.62542724609375,-375.6755676269531,-0.818451437903031,-0.6734643116261484,0.3979903060555472
0.0,0.0,93.1500015258789,0.0,0.0,0.0,-226.04336547851562,5214.75732421875,442.39520263671875,0.0818762257695198,2.588113307952881,3.074864387512207,595.6434936523438,-423.62542724609375,-375.6755676269531,0.0,0.0,93.1500015258789,0.0,0.0,0.0,214.01853942871094,4900.412109375,39.75176239013672,-0.0001917476038215682,2.5845658779144287,-3.1185829639434814,368.3001708984375,-272.49395751953125,12.068302154541016,0.29985969422829883,0.10941753885103322,0.7780147886879263
0.0,0.0,93.1500015258789,0.0,0.0,0.0,214.01853942871094,4900.412109375,39.75176239013672,-0.0001917476038215682,2.5845658779144287,-3.1185829639434814,368.3001708984375,-272.49395751953125,12.068302154541016,0.0,0.0,93.1500015258789,0.0,0.0,0.0,-806.7217407226562,5962.595703125,183.69696044921875,0.9073496460914612,3.0161898136138916,1.0104140043258667,-612.2874145507812,81.57586669921875,865.52294921875,0.9959298996138272,-0.022281090271960954,2.946425623456207
0.0,0.0,93.1500015258789,0.0,0.0,0.0,-806.7217407226562,5962.595703125,183.69696044921875,0.9073496460914612,3.0161898136138916,1.0104140043258667,-612.2874145507812,81.57586669921875,865.52294921875,0.0,0.0,93.1500015258789,0.0,0.0,0.0,-867.8546142578125,5469.98095703125,89.1695556640625,-0.545138418674469,1.1878763437271118,-1.2966930866241455,-40.1254768371582,-357.9618835449219,110.50875854492188,-0.10900445444238949,0.7511535973713438,1.9674669253681856
0.0,0.0,93.1500015258789,0.0,0.0,0.0,-867.8546142578125,5469.98095703125,89.1695556640625,-0.545138418674469,1.1878763437271118,-1.2966930866241455,-40.1254768371582,-357.9618835449219,110.50875854492188,0.0,0.0,93.1500015258789,0.0,0.0,0.0,-844.9228515625,5483.36962890625,52.358272552490234,-0.26336532831192017,0.8117634654045105,-0.710041344165802,171.0884552001953,288.0218505859375,-166.2877655029297,0.9628038213796154,-0.5802592595556374,0.515466165347533
0.0,0.0,93.1500015258789,0.0,0.0,0.0,-844.9228515625,5483.36962890625,52.358272552490234,-0.26336532831192017,0.8117634654045105,-0.710041344165802,171.0884552001953,288.0218505859375,-166.2877655029297,0.0,0.0,93.1500015258789,0.0,0.0,0.0,-630.7867431640625,5560.03857421875,509.0200500488281,0.13278521597385406,-2.0657927989959717,3.073618173599243,-254.26698303222656,-515.1129150390625,-27.392744064331055,0.4200052417687855,0.31770618224951236,2.2584982003311325
0.0,0.0,93.1500015258789,0.0,0.0,0.0,-630.7867431640625,5560.03857421875,509.0200500488281,0.13278521597385406,-2.0657927989959717,3.073618173599243,-254.26698303222656,-515.1129150390625,-27.392744064331055,0.0,0.0,93.1500015258789,0.0,0.0,0.0,-857.660400390625,4714.71923828125,48.540401458740234,-0.002013349672779441,-1.3383982181549072,2.9669106006622314,-48.32835388183594,-467.2243957519531,45.41416931152344,0.07829948894579142,-0.5853431598182169,1.6404683244971068
0.0,0.0,93.1500015258789,0.0,0.0,0.0,-857.660400390625,4714.71923828125,48.540401458740234,-0.002013349672779441,-1.3383982181549072,2.9669106006622314,-48.32835388183594,-467.2243957519531,45.41416931152344,0.0,0.0,93.1500015258789,0.0,0.0,0.0,-1083.754638671875,3323.946533203125,17.010000228881836,-0.009587380103766918,-1.8041532039642334,0.0,-280.5279541015625,-1191.2532958984375,8.321000099182129,0.9601141246025384,-0.062414512763760505,1.8894521083635425
0.0,0.0,93.1500015258789,0.0,0.0,0.0,-1083.754638671875,3323.946533203125,17.010000228881836,-0.009587380103766918,-1.8041532039642334,0.0,-280.5279541015625,-1191.2532958984375,8.321000099182129,0.0,0.0,93.1500015258789,0.0,0.0,0.0,-2693.33349609375,1409.8751220703125,17.010000228881836,-0.009587380103766918,-2.7527284622192383,0.0,-1298.5789794921875,-546.8333740234375,8.321000099182129,0.8997940250832741,-0.23263375871436026,1.9014581126399293
0.0,0.0,93.1500015258789,0.0,0.0,0.0,-2693.33349609375,1409.8751220703125,17.010000228881836,-0.009587380103766918,-2.7527284622192383,0.0,-1298.5789794921875,-546.8333740234375,8.321000099182129,0.0,0.0,93.1500015258789,0.0,0.0,0.0,-2712.66455078125,1397.1995849609375,17.010000228881836,-0.009683254174888134,-2.7858049869537354,0.0,597.2044067382812,220.8564910888672,8.321000099182129,-0.5959548125264715,-0.00778547425395299,1.2904807980103499
0.0,0.0,93.1500015258789,0.0,0.0,0.0,-2712.66455078125,1397.1995849609375,17.010000228881836,-0.009683254174888134,-2.7858049869537354,0.0,597.2044067382812,220.8564910888672,8.321000099182129,0.0,0.0,93.1500015258789,0.0,0.0,0.0,-2306.049560546875,-91.9939956665039,17.010000228881836,-0.009587380103766918,-0.3104393482208252,0.0,1185.3519287109375,-406.0509948730469,8.310999870300293,0.7640173551050315,0.4954518354910524,2.5787041874475847
0.0,0.0,93.1500015258789,0.0,0.0,0.0,-2306.049560546875,-91.9939956665039,17.010000228881836,-0.009587380103766918,-0.3104393482208252,0.0,1185.3519287109375,-406.0509948730469,8.310999870300293,0.0,0.0,93.1500015258789,0.0,0.0,0.0,-3991.049560546875,173.46067810058594,69.5224838256836,-0.600649356842041,-0.15205584466457367,0.09903763234615326,-940.0479736328125,178.84642028808594,823.1455688476562,-0.9811403318159668,-0.019624001030221664,2.5426756974336513
0.0,0.0,93.1500015258789,0.0,0.0,0.0,-3991.049560546875,173.46067810058594,69.5224838256836,-0.600649356842041,-0.15205584466457367,0.09903763234615326,-940.0479736328125,178.84642028808594,823.1455688476562,0.0,0.0,93.1500015258789,0.0,0.0,0.0,-3254.847412109375,1203.5133056640625,17.010000228881836,-0.009491506032645702,1.6263072490692139,0.0,-45.89265441894531,1206.35302734375,8.310999870300293,0.7076622807411964,0.47311812401492115,2.3584879213633485
0.0,0.0,93.1500015258789,0.0,0.0,0.0,-3254.847412109375,1203.5133056640625,17.010000228881836,-0.009491506032645702,1.6263072490692139,0.0,-45.89265441894531,1206.35302734375,8.310999870300293,0.0,0.0,93.1500015258789,0.0,0.0,0.0,-1761.366455078125,4054.770263671875,17.010000228881836,-0.009587380103766918,0.4379515051841736,0.0,1270.0257568359375,610.359130859375,8.310999870300293,0.9967162566754905,-0.24127830675706008,2.502453501829109
0.0,0.0,93.1500015258789,0.0,0.0,0.0,-1761.366455078125,4054.770263671875,17.010000228881836,-0.009587380103766918,0.4379515051841736,0.0,1270.0257568359375,610.359130859375,8.310999870300293,0.0,0.0,93.1500015258789,0.0,0.0,0.0,888.9371337890625,5120.40234375,88.81880950927734,1.420657992362976,0.21715416014194489,-0.2973046600818634,233.40151977539062,75.7005844116211,325.40838623046875,0.904714377562106,-0.007905906611097038,2.16942230785196
0.0,0.0,93.1500015258789,0.0,0.0,0.0,888.9371337890625,5120.40234375,88.81880950927734,1.420657992362976,0.21715416014194489,-0.2973046600818634,233.40151977539062,75.7005844116211,325.40838623046875,0.0,0.0,93.1500015258789,0.0,0.0,0.0,876.8330078125,5232.53857421875,523.543212890625,0.9839528203010559,1.6651360988616943,1.6961992979049683,-56.33348083496094,212.29859924316406,241.87901306152344,0.5731136769005325,0.4634169682006839,1.909423887924703
0.0,0.0,93.1500015258789,0.0,0.0,0.0,876.8330078125,5232.53857421875,523.543212890625,0.9839528203010559,1.6651360988616943,1.6961992979049683,-56.33348083496094,212.29859924316406,241.87901306152344,0.0,0.0,93.1500015258789,0.0,0.0,0.0,875.7003784179688,5236.94775390625,528.347412109375,0.9654491543769836,1.7167162895202637,1.7530524730682373,-68.51673126220703,216.084716796875,232.95077514648438,0.9923090926003543,0.004222149260752928,0.019076121844562977
0.0,0.0,93.1500015258789,0.0,0.0,0.0,875.7003784179688,5236.94775390625,528.347412109375,0.9654491543769836,1.7167162895202637,1.7530524730682373,-68.51673126220703,216.084716796875,232.95077514648438,0.0,0.0,93.1500015258789,0.0,0.0,0.0,879.2476806640625,5199.89794921875,464.0895080566406,0.9216348528862,1.5478824377059937,1.5489370822906494,-11.639310836791992,-324.0938720703125,-450.65130615234375,-0.9331204420353191,0.01484526816060396,0.4398806393801351
0.0,0.0,93.1500015258789,0.0,0.0,0.0,879.2476806640625,5199.89794921875,464.0895080566406,0.9216348528862,1.5478824377059937,1.5489370822906494,-11.639310836791992,-324.0938720703125,-450.65130615234375,0.0,0.0,93.1500015258789,0.0,0.0,0.0,841.342529296875,5539.6611328125,533.271484375,-0.07113835960626602,2.0766265392303467,2.2862067222595215,-96.06562042236328,390.3320007324219,-27.87394142150879,0.4312313355811861,0.3323895240489263,2.475508731034523
0.0,0.0,93.1500015258789,0.0,0.0,0.0,841.342529296875,5539.6611328125,533.271484375,-0.07113835960626602,2.0766265392303467,2.2862067222595215,-96.06562042236328,390.3320007324219,-27.87394142150879,0.0,0.0,93.1500015258789,0.0,0.0,0.0,665.9263916015625,5926.49365234375,393.8847961425781,-0.7963277697563171,2.328582763671875,2.7418947219848633,-459.04730224609375,478.6904296875,-481.3565673828125,0.6963157003349589,-0.19788772828358012,0.7219156937751166
0.0,0.0,93.1500015258789,0.0,0.0,0.0,665.9263916015625,5926.49365234375,393.8847961425781,-0.7963277697563171,2.328582763671875,2.7418947219848633,-459.04730224609375,478.6904296875,-481.3565673828125,0.0,0.0,93.1500015258789,0.0,0.0,0.0,644.6065063476562,5946.88720703125,370.3830871582031,-0.8786833882331848,2.441809892654419,2.4714348316192627,-484.25030517578125,378.2931213378906,-578.4035034179688,0.10430206411224241,-0.5819585407018939,0.03986823665866268
0.0,0.0,93.1500015258789,0.0,0.0,0.0,644.6065063476562,5946.88720703125,370.3830871582031,-0.8786833882331848,2.441809892654419,2.4714348316192627,-484.25030517578125,378.2931213378906,-578.4035034179688,0.0,0.0,93.1500015258789,0.0,0.0,0.0,656.69580078125,5925.24560546875,399.2925720214844,-0.8759030103683472,1.3534504175186157,-2.978511333465576,25.237768173217773,-327.0128173828125,340.7334289550781,-0.9813289219849971,-0.8040250674094769,1.0031595791343193
0.0,0.0,93.1500015258789,0.0,0.0,0.0,656.69580078125,5925.24560546875,399.2925720214844,-0.8759030103683472,1.3534504175186157,-2.978511333465576,25.237768173217773,-327.0128173828125,340.7334289550781,0.0,0.0,93.1500015258789,0.0,0.0,0.0,-445.4117126464844,5319.75634765625,17.0,-0.009491506032645702,3.0415961742401123,-0.00047936898772604764,-1274.622314453125,102.60934448242188,8.421000480651855,0.8012574502956025,-0.48183148555623984,2.0579544061234287
0.0,0.0,93.1500015258789,0.0,0.0,0.0,-445.4117126464844,5319.75634765625,17.0,-0.009491506032645702,3.0415961742401123,-0.00047936898772604764,-1274.622314453125,102.60934448242188,8.421000480651855,0.0,0.0,93.1500015258789,0.0,0.0,0.0,957.6370849609375,3636.883544921875,16.979999542236328,-0.009587380103766918,1.8087550401687622,0.0,374.91363525390625,-1358.94873046875,8.651000022888184,-0.9870297293725786,0.2483308670750983,2.9530758041310037
0.0,0.0,93.1500015258789,0.0,0.0,0.0,957.6370849609375,3636.883544921875,16.979999542236328,-0.009587380103766918,1.8087550401687622,0.0,374.91363525390625,-1358.94873046875,8.651000022888184,0.0,0.0,93.1500015258789,0.0,0.0,0.0,-343.4976501464844,2708.260498046875,16.979999542236328,-0.009587380103766918,-0.9373581409454346,0.0,-943.1123657226562,998.4396362304688,8.671000480651855,-0.9445266224104805,0.9197571649354017,1.6218254484022907
0.0,0.0,93.1500015258789,0.0,0.0,0.0,-343.4976501464844,2708.260498046875,16.979999542236328,-0.009587380103766918,-0.9373581409454346,0.0,-943.1123657226562,998.4396362304688,8.671000480651855,0.0,0.0,93.1500015258789,0.0,0.0,0.0,-460.5448913574219,2867.38671875,16.979999542236328,-0.009299758821725845,-1.1017817258834839,-9.58738019107841e-05,-413.02606201171875,715.417236328125,8.66100025177002,0.7846533858917454,0.2525097271492993,0.17504006107350278
0.0,0.0,93.1500015258789,0.0,0.0,0.0,-460.5448913574219,2867.38671875,16.979999542236328,-0.009299758821725845,-1.1017817258834839,-9.58738019107841e-05,-413.02606201171875,715.417236328125,8.66100025177002,0.0,0.0,93.1500015258789,0.0,0.0,0.0,-995.1157836914062,3757.080322265625,16.979999542236328,-0.009587380103766918,-0.8961324095726013,0.0,-487.0833435058594,628.90869140625,8.66100025177002,-0.05679042875745888,-0.08558368109094501,1.3547535129009702
0.0,0.0,93.1500015258789,0.0,0.0,0.0,-995.1157836914062,3757.080322265625,16.979999542236328,-0.009587380103766918,-0.8961324095726013,0.0,-487.0833435058594,628.90869140625,8.66100025177002,0.0,0.0,93.1500015258789,0.0,0.0,0.0,-882.6522827148438,3733.06982421875,16.979999542236328,-0.009491506032645702,-0.2690218687057495,0.0,642.768798828125,-164.17788696289062,8.66100025177002,0.9387791839164029,0.7433268591131661,0.831649479836102
0.0,0.0,93.1500015258789,0.0,0.0,0.0,-882.6522827148438,3733.06982421875,16.979999542236328,-0.009491506032645702,-0.2690218687057495,0.0,642.768798828125,-164.17788696289062,8.66100025177002,0.0,0.0,93.1500015258789,0.0,0.0,0.0,-1220.6248779296875,3773.839599609375,16.979999542236328,-0.009683254174888134,-0.15617841482162476,9.58738019107841e-05,-891.2088623046875,136.5637969970703,8.651000022888184,-0.9994602879347865,0.02574244436084352,1.0730851599738571
0.0,0.0,93.1500015258789,0.0,0.0,0.0,-1220.6248779296875,3773.839599609375,16.979999542236328,-0.009683254174888134,-0.15617841482162476,9.58738019107841e-05,-891.2088623046875,136.5637969970703,8.651000022888184,0.0,0.0,93.1500015258789,0.0,0.0,0.0,-1316.7161865234375,3787.16796875,16.979999542236328,-0.009587380103766918,-0.20114323496818542,0.0,234.52981567382812,-60.618011474609375,8.640999794006348,0.38226279348651615,-0.37373860726222263,0.7314060410314767
0.0,0.0,93.1500015258789,0.0,0.0,0.0,-1316.7161865234375,3787.16796875,16.979999542236328,-0.009587380103766918,-0.20114323496818542,0.0,234.52981567382812,-60.618011474609375,8.640999794006348,0.0,0.0,93.1500015258789,0.0,0.0,0.0,-1706.08349609375,4139.732421875,16.979999542236328,-0.009587380103766918,-1.2686021327972412,0.0,-217.30064392089844,535.4713745117188,8.66100025177002,-0.2601514348674404,0.40806200344182186,1.9134513743942705
0.0,0.0,93.1500015258789,0.0,0.0,0.0,-1706.08349609375,4139.732421875,16.979999542236328,-0.009587380103766918,-1.2686021327972412,0.0,-217.30064392089844,535.4713745117188,8.66100025177002,0.0,0.0,93.1500015258789,0.0,0.0,0.0,-2320.244873046875,4276.26318359375,16.979999542236328,-0.009587380103766918,1.404455304145813,0.0,-225.88563537597656,-588.93212890625,8.671000480651855,-0.15942803960383056,-0.94453300589949,1.461422014490779
0.0,0.0,93.1500015258789,0.0,0.0,0.0,-2320.244873046875,4276.26318359375,16.979999542236328,-0.009587380103766918,1.404455304145813,0.0,-225.88563537597656,-588.93212890625,8.671000480651855,0.0,0.0,93.1500015258789,0.0,0.0,0.0,-2342.268310546875,4519.8291015625,16.979999542236328,-0.009491506032645702,1.5928473472595215,0.0,-17.450712203979492,789.2586059570312,8.66100025177002,0.952455553334066,0.01691365425057721,0.9223213024103529
0.0,0.0,93.1500015258789,0.0,0.0,0.0,-2342.268310546875,4519.8291015625,16.979999542236328,-0.009491506032645702,1.5928473472595215,0.0,-17.450712203979492,789.2586059570312,8.66100025177002,0.0,0.0,93.1500015258789,0.0,0.0,0.0,-962.3246459960938,4508.28759765625,17.010000228881836,-0.009587380103766918,-1.5188326835632324,0.0,56.70337677001953,-919.2321166992188,8.331000328063965,0.1672456793428826,-0.5424836328581691,2.617668271374953
0.0,0.0,93.1500015258789,0.0,0.0,0.0,-962.3246459960938,4508.28759765625,17.010000228881836,-0.009587380103766918,-1.5188326835632324,0.0,56.70337677001953,-919.2321166992188,8.331000328063965,0.0,0.0,93.1500015258789,0.0,0.0,0.0,-955.47216796875,4477.76220703125,17.010000228881836,-0.009683254174888134,-1.5823971033096313,0.0,15.318182945251465,465.56060791015625,8.310999870300293,-0.7152431691665566,-0.10199542454320971,0.7770262521439406
0.0,0.0,93.1500015258789,0.0,0.0,0.0,-955.47216796875,4477.76220703125,17.010000228881836,-0.009683254174888134,-1.5823971033096313,0.0,15.318182945251465,465.56060791015625,8.310999870300293,0.0,0.0,93.1500015258789,0.0,0.0,0.0,-941.8333740234375,4493.3720703125,17.010000228881836,-0.009491506032645702,-1.317785382270813,-9.58738019107841e-05,121.59310150146484,-307.1493835449219,8.310999870300293,0.9449184377936527,0.953482530699681,0.42690705292932307
0.0,0.0,93.1500015258789,0.0,0.0,0.0,-941.8333740234375,4493.3720703125,17.010000228881836,-0.009491506032645702,-1.317785382270813,-9.58738019107841e-05,121.59310150146484,-307.1493835449219,8.310999870300293,0.0,0.0,93.1500015258789,0.0,0.0,0.0,-87.22621154785156,3228.291259765625,17.010000228881836,-0.009587380103766918,-0.7820425629615784,0.0,477.0735778808594,-472.5758056640625,8.310999870300293,0.09956519517551399,0.07233448484077942,2.959508512429494
0.0,0.0,93.1500015258789,0.0,0.0,0.0,-87.22621154785156,3228.291259765625,17.010000228881836,-0.009587380103766918,-0.7820425629615784,0.0,477.0735778808594,-472.5758056640625,8.310999870300293,0.0,0.0,93.1500015258789,0.0,0.0,0.0,825.97802734375,2431.049072265625,17.010000228881836,-0.009491506032645702,-0.6675692796707153,0.0,1008.2855834960938,-797.09326171875,8.310999870300293,0.9917092258631195,0.042836001497598766,1.1769004692929457
0.0,0.0,93.1500015258789,0.0,0.0,0.0,825.97802734375,2431.049072265625,17.010000228881836,-0.009491506032645702,-0.6675692796707153,0.0,1008.2855834960938,-797.09326171875,8.310999870300293,0.0,0.0,93.1500015258789,0.0,0.0,0.0,1044.849609375,2260.990234375,17.010000228881836,-0.009875001385807991,-0.6505037546157837,0.0,-45.76020431518555,34.17658996582031,8.310999870300293,-0.9574417218221516,0.027049091287620026,0.44416184362205513
0.0,0.0,93.1500015258789,0.0,0.0,0.0,1044.849609375,2260.990234375,17.010000228881836,-0.009875001385807991,-0.6505037546157837,0.0,-45.76020431518555,34.17658996582031,8.310999870300293,0.0,0.0,93.1500015258789,0.0,0.0,0.0,842.66796875,3566.987060546875,17.010000228881836,-0.009587380103766918,-2.1078813076019287,9.58738019107841e-05,445.72222900390625,849.180908203125,8.310999870300293,-0.37275761738074686,0.31897594362323195,2.4428210471351406
0.0,0.0,93.1500015258789,0.0,0.0,0.0,842.66796875,3566.987060546875,17.010000228881836,-0.009587380103766918,-2.1078813076019287,9.58738019107841e-05,445.72222900390625,849.180908203125,8.310999870300293,0.0,0.0,93.1500015258789,0.0,0.0,0.0,-591.9642333984375,3086.741455078125,17.010000228881836,-0.009587380103766918,3.0554020404815674,0.0,-1282.4266357421875,98.05484008789062,8.301000595092773,0.8527331390310522,-0.2616496585083356,2.409681145286555
0.0,0.0,93.1500015258789,0.0,0.0,0.0,-591.9642333984375,3086.741455078125,17.010000228881836,-0.009587380103766918,3.0554020404815674,0.0,-1282.4266357421875,98.05484008789062,8.301000595092773,0.0,0.0,93.1500015258789,0.0,0.0,0.0,-3493.333251953125,4243.76220703125,20.671642303466797,0.11466506123542786,2.492814540863037,0.01073786523193121,-1100.91552734375,823.1222534179688,175.0919189453125,0.9989056925680002,-0.10986365560855864,2.260868026265456
0.0,0.0,93.1500015258789,0.0,0.0,0.0,-3493.333251953125,4243.76220703125,20.671642303466797,0.11466506123542786,2.492814540863037,0.01073786523193121,-1100.91552734375,823.1222534179688,175.0919189453125,0.0,0.0,93.1500015258789,0.0,0.0,0.0,-4003.775390625,3955.7548828125,1125.4327392578125,0.7074527740478516,-1.989189624786377,1.56907057762146,-279.42901611328125,-672.4970703125,619.6463623046875,0.6294352193044026,0.29209866859527134,1.278876041594998
0.0,0.0,93.1500015258789,0.0,0.0,0.0,-4003.775390625,3955.7548828125,1125.4327392578125,0.7074527740478516,-1.989189624786377,1.56907057762146,-279.42901611328125,-672.4970703125,619.6463623046875,0.0,0.0,93.1500015258789,0.0,0.0,0.0,-3389.28759765625,3682.33056640625,17.010000228881836,-0.009587380103766918,1.415289044380188,0.0,253.39324951171875,1340.4796142578125,8.321000099182129,0.3648690202005821,0.7042321443510454,2.5063861273011696
0.0,0.0,93.1500015258789,0.0,0.0,0.0,-3389.28759765625,3682.33056640625,17.010000228881836,-0.009587380103766918,1.415289044380188,0.0,253.39324951171875,1340.4796142578125,8.321000099182129,0.0,0.0,93.1500015258789,0.0,0.0,0.0,-3386.38818359375,3970.407958984375,17.010000228881836,-0.009875001385807991,1.8062623739242554,0.0001917476038215682,34.689491271972656,-65.18316650390625,8.321000099182129,-0.9496125919085138,0.6598533154511984,0.45502470208688806
0.0,0.0,93.1500015258789,0.0,0.0,0.0,-3386.38818359375,3970.407958984375,17.010000228881836,-0.009875001385807991,1.8062623739242554,0.0001917476038215682,34.689491271972656,-65.18316650390625,8.321000099182129,0.0,0.0,93.1500015258789,0.0,0.0,0.0,-3389.548095703125,3978.298583984375,17.010000228881836,-0.009491506032645702,1.8462417125701904,-9.58738019107841e-05,-77.14675903320312,176.29734802246094,8.310999870300293,0.9311054448112391,0.7430943965001646,0.20796135787713865
0.0,0.0,93.1500015258789,0.0,0.0,0.0,-3389.548095703125,3978.298583984375,17.010000228881836,-0.009491506032645702,1.8462417125701904,-9.58738019107841e-05,-77.14675903320312,176.29734802246094,8.310999870300293,0.0,0.0,93.1500015258789,0.0,0.0,0.0,-2241.770751953125,4301.71337890625,17.010000228881836,-0.009587380103766918,-0.9741736650466919,0.0,612.119140625,-869.2406005859375,8.331000328063965,0.5084004288186444,-0.5851850321579704,2.3000762002818647
0.0,0.0,93.1500015258789,0.0,0.0,0.0,-2241.770751953125,4301.71337890625,17.010000228881836,-0.009587380103766918,-0.9741736650466919,0.0,612.119140625,-869.2406005859375,8.331000328063965,0.0,0.0,93.1500015258789,0.0,0.0,0.0,-1215.72607421875,2374.90185546875,17.010000228881836,-0.009587380103766918,-1.074074149131775,-9.58738019107841e-05,671.4988403320312,-1239.8626708984375,8.321000099182129,0.9661348140521353,0.004123963697693636,1.6686375100772182
0.0,0.0,93.1500015258789,0.0,0.0,0.0,-1215.72607421875,2374.90185546875,17.010000228881836,-0.009587380103766918,-1.074074149131775,-9.58738019107841e-05,671.4988403320312,-1239.8626708984375,8.321000099182129,0.0,0.0,93.1500015258789,0.0,0.0,0.0,-1230.57958984375,2360.657470703125,17.010000228881836,-0.009587380103766918,-0.7850146889686584,0.0,-529.5355224609375,608.58251953125,8.321000099182129,-0.999460320074914,-0.36485121819059446,1.143185454949105
0.0,0.0,93.1500015258789,0.0,0.0,0.0,-1230.57958984375,2360.657470703125,17.010000228881836,-0.009587380103766918,-0.7850146889686584,0.0,-529.5355224609375,608.58251953125,8.321000099182129,0.0,0.0,93.1500015258789,0.0,0.0,0.0,-1241.3399658203125,2376.2900390625,17.010000228881836,-0.009587380103766918,-0.7714964747428894,0.0,132.5841064453125,-133.14158630371094,8.321000099182129,0.11810156758922541,-0.10932040171570236,1.3565572876890428
0.0,0.0,93.1500015258789,0.0,0.0,0.0,-1241.3399658203125,2376.2900390625,17.010000228881836,-0.009587380103766918,-0.7714964747428894,0.0,132.5841064453125,-133.14158630371094,8.321000099182129,0.0,0.0,93.1500015258789,0.0,0.0,0.0,-1115.06787109375,2266.225341796875,17.010000228881836,-0.009491506032645702,-0.6713083386421204,0.0,474.38861083984375,-371.685546875,8.321000099182129,0.8712533780995548,0.16534316354494036,0.43328057929204533
0.0,0.0,93.1500015258789,0.0,0.0,0.0,-1115.06787109375,2266.225341796875,17.010000228881836,-0.009491506032645702,-0.6713083386421204,0.0,474.38861083984375,-371.685546875,8.321000099182129,0.0,0.0,93.1500015258789,0.0,0.0,0.0,-1073.8392333984375,2234.19677734375,17.010000228881836,-0.009683254174888134,-0.6394782662391663,0.0,-28.78717613220215,21.71563148498535,8.310999870300293,-0.01813586796084965,-0.030463710948534537,2.220648379165368
