ballLocX_0,ballLocY_0,ballLocZ_0,ballVelX_0,ballVelY_0,ballVelZ_0,carLocX_0,carLocY_0,carLocZ_0,carPitch_0,carYaw_0,carRoll_0,carVelX_0,carVelY_0,carVelZ_0,ballLocX_1,ballLocY_1,ballLocZ_1,ballVelX_1,ballVelY_1,ballVelZ_1,carLocX_1,carLocY_1,carLocZ_1,carPitch_1,carYaw_1,carRoll_1,carVelX_1,carVelY_1,carVelZ_1,throttle,steer,time
-1370.4776611328125,338.36163330078125,92.8699951171875,-53.3719596862793,85.02291870117188,0.0,2126.197998046875,2185.86962890625,17.010000228881836,-0.009491506032645702,-0.4349794387817383,-9.58738019107841e-05,937.6959838867188,-435.9292297363281,8.321000099182129,-1442.638427734375,453.2789001464844,92.8699951171875,-51.52777862548828,81.71456146240234,0.0,2140.096435546875,2151.13427734375,17.010000228881836,-0.009587380103766918,-0.09913350641727448,0.0,-562.380615234375,94.17298889160156,8.321000099182129,-0.4729227779942886,-0.32422430395042284,1.347814218559172
-1442.638427734375,453.2789001464844,92.8699951171875,-51.52777862548828,81.71456146240234,0.0,2140.096435546875,2151.13427734375,17.010000228881836,-0.009587380103766918,-0.09913350641727448,0.0,-562.380615234375,94.17298889160156,8.321000099182129,-1464.2662353515625,487.4085998535156,92.8699951171875,-50.97370529174805,80.70641326904297,0.0,1844.4044189453125,2170.960693359375,17.010000228881836,-0.009587380103766918,-0.04544417932629585,0.0,-838.6466064453125,39.3066291809082,8.321000099182129,-0.7564329401567838,-0.010352468206429629,0.4144145674777424
-1464.2662353515625,487.4085998535156,92.8699951171875,-50.97370529174805,80.70641326904297,0.0,1844.4044189453125,2170.960693359375,17.010000228881836,-0.009587380103766918,-0.04544417932629585,0.0,-838.6466064453125,39.3066291809082,8.321000099182129,759.5285034179688,1156.760498046875,203.95529174804688,1573.20166015625,436.6944580078125,-372.1525573730469,1575.0908203125,3807.199462890625,17.010000228881836,-0.009587380103766918,-2.796351194381714,0.0,1236.2666015625,581.53466796875,8.321000099182129,-0.9888455076758325,0.7121095279321242,1.975137640475687
759.5285034179688,1156.760498046875,203.95529174804688,1573.20166015625,436.6944580078125,-372.1525573730469,1575.0908203125,3807.199462890625,17.010000228881836,-0.009587380103766918,-2.796351194381714,0.0,1236.2666015625,581.53466796875,8.321000099182129,2770.070556640625,1758.60302734375,117.242431640625,1041.5567626953125,333.12628173828125,-51.44548797607422,1659.0201416015625,3938.69677734375,17.010000228881836,-0.009491506032645702,2.976114511489868,0.0,-775.7711791992188,130.0409698486328,8.310999870300293,0.670408519710191,-0.13120016936373333,1.6057186173627342
2770.070556640625,1758.60302734375,117.242431640625,1041.5567626953125,333.12628173828125,-51.44548797607422,1659.0201416015625,3938.69677734375,17.010000228881836,-0.009491506032645702,2.976114511489868,0.0,-775.7711791992188,130.0409698486328,8.310999870300293,3669.421142578125,2049.26025390625,93.19107055664062,782.5054321289062,254.10208129882812,-3.960728645324707,1651.5245361328125,3938.64794921875,17.010000228881836,-0.009587380103766918,3.118391275405884,0.0,277.7221984863281,-29.863706588745117,8.310999870300293,-0.2685636288105552,-0.373608730751433,0.9890150964906246
3669.421142578125,2049.26025390625,93.19107055664062,782.5054321289062,254.10208129882812,-3.960728645324707,1651.5245361328125,3938.64794921875,17.010000228881836,-0.009587380103766918,3.118391275405884,0.0,277.7221984863281,-29.863706588745117,8.310999870300293,4001.191650390625,2297.68212890625,358.034912109375,-3.930999755859375,136.5567169189453,-115.61790466308594,1620.26123046875,4478.92138671875,17.010000228881836,-0.009587380103766918,0.5706408619880676,0.0,691.001220703125,453.0141906738281,8.3410005569458,0.6459224302534398,-0.9795498476873804,1.4828965621525008
4001.191650390625,2297.68212890625,358.034912109375,-3.930999755859375,136.5567169189453,-115.61790466308594,1620.26123046875,4478.92138671875,17.010000228881836,-0.009587380103766918,0.5706408619880676,0.0,691.001220703125,453.0141906738281,8.3410005569458,3999.939453125,2344.90869140625,277.93756103515625,-3.930999755859375,134.88711547851562,-339.1605529785156,1911.5462646484375,4564.92822265625,17.010000228881836,-0.009587380103766918,0.1968289166688919,-9.58738019107841e-05,932.9513549804688,191.40744018554688,8.310999870300293,0.7033231743657866,0.2975663270924709,0.3496596189193051
3999.939453125,2344.90869140625,277.93756103515625,-3.930999755859375,134.88711547851562,-339.1605529785156,1911.5462646484375,4564.92822265625,17.010000228881836,-0.009587380103766918,0.1968289166688919,-9.58738019107841e-05,932.9513549804688,191.40744018554688,8.310999870300293,3999.51123046875,2360.899169921875,232.74728393554688,-3.930999755859375,134.3160400390625,-415.07623291015625,2025.3270263671875,4589.9521484375,17.010000228881836,-0.009587380103766918,0.23757527768611908,0.0,983.9286499023438,230.83941650390625,8.310999870300293,0.8470967050554495,0.009996969411147697,0.12140083925081768
3999.51123046875,2360.899169921875,232.74728393554688,-3.930999755859375,134.3160400390625,-415.07623291015625,2025.3270263671875,4589.9521484375,17.010000228881836,-0.009587380103766918,0.23757527768611908,0.0,983.9286499023438,230.83941650390625,8.310999870300293,3908.155029296875,2417.680419921875,111.07283020019531,-339.9560241699219,155.909912109375,-159.21026611328125,2410.007568359375,4737.685546875,17.010000228881836,-0.009491506032645702,0.5579854846000671,0.0,911.2509765625,554.270751953125,8.310999870300293,0.30591272650779433,0.4223820302877593,0.39799058922271513
3908.155029296875,2417.680419921875,111.07283020019531,-339.9560241699219,155.909912109375,-159.21026611328125,2410.007568359375,4737.685546875,17.010000228881836,-0.009491506032645702,0.5579854846000671,0.0,911.2509765625,554.270751953125,8.310999870300293,3117.757568359375,2823.31591796875,93.13999938964844,-297.3711853027344,153.3760986328125,0.0,3990.55419921875,3518.302001953125,71.87125396728516,-0.3742913007736206,-2.0718328952789307,-0.6052513122558594,-569.3997802734375,-1058.6951904296875,-434.1311950683594,0.2961557363479841,-0.3457248106868803,2.5698016952085005
3117.757568359375,2823.31591796875,93.13999938964844,-297.3711853027344,153.3760986328125,0.0,3990.55419921875,3518.302001953125,71.87125396728516,-0.3742913007736206,-2.0718328952789307,-0.6052513122558594,-569.3997802734375,-1058.6951904296875,-434.1311950683594,2707.535888671875,3035.007080078125,93.13999938964844,-287.51715087890625,148.32469177246094,0.0,4063.216552734375,3746.319091796875,202.8724822998047,-0.5854054093360901,-1.6159528493881226,-1.2297731637954712,64.26876068115234,915.0355224609375,993.1636962890625,-0.987439329122106,0.057331065989523096,1.488312983525617
2707.535888671875,3035.007080078125,93.13999938964844,-287.51715087890625,148.32469177246094,0.0,4063.216552734375,3746.319091796875,202.8724822998047,-0.5854054093360901,-1.6159528493881226,-1.2297731637954712,64.26876068115234,915.0355224609375,993.1636962890625,1927.9920654296875,3436.29931640625,93.13999938964844,-269.4006042480469,138.24075317382812,0.0,3850.439208984375,4078.713623046875,1781.681640625,-0.01073786523193121,2.216027021408081,2.068093776702881,285.25592041015625,-396.9033203125,29.356935501098633,-0.2525782148766521,0.4710882541848235,2.807525053922106
1927.9920654296875,3436.29931640625,93.13999938964844,-269.4006042480469,138.24075317382812,0.0,3850.439208984375,4078.713623046875,1781.681640625,-0.01073786523193121,2.216027021408081,2.068093776702881,285.25592041015625,-396.9033203125,29.356935501098633,1794.5059814453125,3504.7666015625,93.13999938964844,-266.39990234375,136.4463653564453,0.0,4020.799560546875,3823.845703125,1687.945556640625,0.7176153659820557,2.1326167583465576,2.0147879123687744,336.20574951171875,-590.5706176757812,-507.7390441894531,-0.67352896029709,0.5635131245355045,0.4999044310846177
1794.5059814453125,3504.7666015625,93.13999938964844,-266.39990234375,136.4463653564453,0.0,4020.799560546875,3823.845703125,1687.945556640625,0.7176153659820557,2.1326167583465576,2.0147879123687744,336.20574951171875,-590.5706176757812,-507.7390441894531,1311.0045166015625,3751.511962890625,93.13999938964844,-255.27655029296875,129.7723388671875,0.0,3624.043212890625,4415.88671875,1196.4595947265625,-1.2642878293991089,2.3246519565582275,1.600900650024414,-309.0767517089844,297.42254638671875,-1268.2738037109375,0.9763144632945424,0.6746620719739309,1.8923715617489876
1311.0045166015625,3751.511962890625,93.13999938964844,-255.27655029296875,129.7723388671875,0.0,3624.043212890625,4415.88671875,1196.4595947265625,-1.2642878293991089,2.3246519565582275,1.600900650024414,-309.0767517089844,297.42254638671875,-1268.2738037109375,762.640625,4029.493896484375,93.13999938964844,-242.0437469482422,122.4326400756836,0.0,3681.541015625,4331.75390625,1658.2828369140625,-1.2456883192062378,1.5393496751785278,2.4184165000915527,-6.1609978675842285,-252.92962646484375,721.873046875,-0.9992571448305843,0.008181621430614029,2.204177678329472
762.640625,4029.493896484375,93.13999938964844,-242.0437469482422,122.4326400756836,0.0,3681.541015625,4331.75390625,1658.2828369140625,-1.2456883192062378,1.5393496751785278,2.4184165000915527,-6.1609978675842285,-252.92962646484375,721.873046875,571.9721069335938,4125.85791015625,93.13999938964844,-237.3000946044922,119.86263275146484,0.0,3665.911376953125,4368.98095703125,1573.6248779296875,-1.1141494512557983,2.1644468307495117,1.7748157978057861,-171.6370086669922,213.43125915527344,-547.5604858398438,0.39091987180323085,-0.33289230065301023,0.7964356617319126
571.9721069335938,4125.85791015625,93.13999938964844,-237.3000946044922,119.86263275146484,0.0,3665.911376953125,4368.98095703125,1573.6248779296875,-1.1141494512557983,2.1644468307495117,1.7748157978057861,-171.6370086669922,213.43125915527344,-547.5604858398438,445.912841796875,4189.5673828125,93.13999938964844,-234.21726989746094,118.20319366455078,0.0,3522.661376953125,4517.2685546875,1201.5155029296875,-1.0099345445632935,2.338170289993286,1.5860402584075928,-359.06231689453125,347.4923095703125,-825.1655883789062,0.11538101854192773,-0.04613212185806374,0.5367062506035012
445.912841796875,4189.5673828125,93.13999938964844,-234.21726989746094,118.20319366455078,0.0,3522.661376953125,4517.2685546875,1201.5155029296875,-1.0099345445632935,2.338170289993286,1.5860402584075928,-359.06231689453125,347.4923095703125,-825.1655883789062,357.2659912109375,4234.27490234375,93.13999938964844,-232.1005401611328,117.05471801757812,0.0,3455.9208984375,4584.0087890625,1039.758544921875,-0.9985256195068359,2.3379783630371094,1.5863279104232788,5.620296478271484,-17.126575469970703,-12.965948104858398,-0.1140958179622582,0.014464371200081183,0.37475530818072755
357.2659912109375,4234.27490234375,93.13999938964844,-232.1005401611328,117.05471801757812,0.0,3455.9208984375,4584.0087890625,1039.758544921875,-0.9985256195068359,2.3379783630371094,1.5863279104232788,5.620296478271484,-17.126575469970703,-12.965948104858398,-69.80891418457031,4449.2294921875,93.13999938964844,-221.9297332763672,111.55004119873047,0.0,4028.892822265625,3891.139404296875,904.4440307617188,1.4628424644470215,1.8105766773223877,1.4919880628585815,-34.19947052001953,70.8607406616211,886.7965698242188,0.8083588662192746,0.9323259809683548,1.8991168865884376
-69.80891418457031,4449.2294921875,93.13999938964844,-221.9297332763672,111.55004119873047,0.0,4028.892822265625,3891.139404296875,904.4440307617188,1.4628424644470215,1.8105766773223877,1.4919880628585815,-34.19947052001953,70.8607406616211,886.7965698242188,-77.11832427978516,4452.90380859375,93.13999938964844,-221.76168823242188,111.46134185791016,0.0,4027.756103515625,3894.342529296875,933.2462158203125,1.3880608081817627,1.845666527748108,1.525064468383789,-48.352943420410156,108.6911849975586,837.7716064453125,-0.588704322344612,-0.878950509434181,0.0390716874468886
-77.11832427978516,4452.90380859375,93.13999938964844,-221.76168823242188,111.46134185791016,0.0,4027.756103515625,3894.342529296875,933.2462158203125,1.3880608081817627,1.845666527748108,1.525064468383789,-48.352943420410156,108.6911849975586,837.7716064453125,-641.4373168945312,4735.93359375,93.13999938964844,-208.7918701171875,104.54643249511719,0.0,3966.40185546875,4021.73388671875,219.33241271972656,0.541399359703064,1.9791228771209717,1.375309705734253,-493.84210205078125,1039.6761474609375,591.8050537109375,0.6499231081158494,-0.9055745990528962,2.61767365155092
-641.4373168945312,4735.93359375,93.13999938964844,-208.7918701171875,104.54643249511719,0.0,3966.40185546875,4021.73388671875,219.33241271972656,0.541399359703064,1.9791228771209717,1.375309705734253,-493.84210205078125,1039.6761474609375,591.8050537109375,-1003.9517822265625,4917.5126953125,93.13999938964844,-200.28372192382812,100.29235076904297,0.0,3404.235107421875,3515.623779296875,17.010000228881836,-0.009683254174888134,0.30852189660072327,0.0,-1092.1080322265625,-429.0605773925781,8.321000099182129,-0.8157768208393927,0.4376127432639411,1.7706071358689819
-1003.9517822265625,4917.5126953125,93.13999938964844,-200.28372192382812,100.29235076904297,0.0,3404.235107421875,3515.623779296875,17.010000228881836,-0.009683254174888134,0.30852189660072327,0.0,-1092.1080322265625,-429.0605773925781,8.321000099182129,-1181.42626953125,5003.869140625,98.73866271972656,-193.25865173339844,63.35696792602539,53.51482391357422,2263.96337890625,3291.7734375,17.010000228881836,-0.009587380103766918,0.08657404035329819,0.0,-1393.0152587890625,-138.89173889160156,8.321000099182129,-0.9998607541640503,0.10073151277168832,0.9023367803271327
-1181.42626953125,5003.869140625,98.73866271972656,-193.25865173339844,63.35696792602539,53.51482391357422,2263.96337890625,3291.7734375,17.010000228881836,-0.009587380103766918,0.08657404035329819,0.0,-1393.0152587890625,-138.89173889160156,8.321000099182129,-1656.7135009765625,4698.455078125,92.90999603271484,-157.13336181640625,-130.01336669921875,0.0,-301.72979736328125,703.2311401367188,17.010000228881836,-0.009587380103766918,1.6123096942901611,0.0,6.445455074310303,-1408.480712890625,8.310999870300293,-0.4480236951469775,-0.2960720068054435,2.861935906246753
-1656.7135009765625,4698.455078125,92.90999603271484,-157.13336181640625,-130.01336669921875,0.0,-301.72979736328125,703.2311401367188,17.010000228881836,-0.009587380103766918,1.6123096942901611,0.0,6.445455074310303,-1408.480712890625,8.310999870300293,-1855.737548828125,4534.11328125,92.90999603271484,-152.5045166015625,-125.69451904296875,0.0,-141.59144592285156,-1102.0653076171875,17.010000228881836,-0.009587380103766918,1.6832562685012817,-9.58738019107841e-05,155.562255859375,-1401.408935546875,8.310999870300293,-0.8446216770805056,-0.012676903124330858,1.2946150384979909
-1855.737548828125,4534.11328125,92.90999603271484,-152.5045166015625,-125.69451904296875,0.0,-141.59144592285156,-1102.0653076171875,17.010000228881836,-0.009587380103766918,1.6832562685012817,-9.58738019107841e-05,155.562255859375,-1401.408935546875,8.310999870300293,-2049.543212890625,4374.59375,92.90999603271484,-147.85775756835938,-121.4577407836914,0.0,-120.85601043701172,-1266.1634521484375,17.010000228881836,-0.009587380103766918,1.6586167812347412,0.0,-28.26007843017578,348.4249572753906,8.310999870300293,0.2901758050493436,-0.07191620376642786,1.2839852266031002
-2049.543212890625,4374.59375,92.90999603271484,-147.85775756835938,-121.4577407836914,0.0,-120.85601043701172,-1266.1634521484375,17.010000228881836,-0.009587380103766918,1.6586167812347412,0.0,-28.26007843017578,348.4249572753906,8.310999870300293,-2107.830078125,4326.7275390625,92.90999603271484,-146.43124389648438,-120.18123626708984,0.0,-118.88189697265625,-1290.8856201171875,17.010000228881836,-0.009779127314686775,1.650275707244873,0.0,30.0645809173584,-377.7806701660156,8.310999870300293,-0.9997194353766025,-0.0006461202217941635,0.40141011580687547
-2107.830078125,4326.7275390625,92.90999603271484,-146.43124389648438,-120.18123626708984,0.0,-118.88189697265625,-1290.8856201171875,17.010000228881836,-0.009779127314686775,1.650275707244873,0.0,30.0645809173584,-377.7806701660156,8.310999870300293,-2325.13720703125,4148.46875,92.90999603271484,-140.9872283935547,-115.5818099975586,0.0,656.5918579101562,-1277.8048095703125,17.010000228881836,-0.009683254174888134,-1.5834516286849976,0.0,178.1079559326172,1032.714111328125,8.3410005569458,-0.7649810299315187,-0.9627837866162593,1.5129473934888011
-2325.13720703125,4148.46875,92.90999603271484,-140.9872283935547,-115.5818099975586,0.0,656.5918579101562,-1277.8048095703125,17.010000228881836,-0.009683254174888134,-1.5834516286849976,0.0,178.1079559326172,1032.714111328125,8.3410005569458,-2484.702392578125,4017.539794921875,92.90999603271484,-136.85015869140625,-112.24375915527344,0.0,716.1715087890625,-1301.1236572265625,17.010000228881836,-0.009491506032645702,-1.1440620422363281,0.0,204.000244140625,-423.2740783691406,8.301000595092773,0.41997088105477176,0.3550103968579058,1.1489261027166222
-2484.702392578125,4017.539794921875,92.90999603271484,-136.85015869140625,-112.24375915527344,0.0,716.1715087890625,-1301.1236572265625,17.010000228881836,-0.009491506032645702,-1.1440620422363281,0.0,204.000244140625,-423.2740783691406,8.301000595092773,-2519.0791015625,3989.410888671875,92.90999603271484,-135.94296264648438,-111.53296661376953,0.0,800.7060546875,-1415.61376953125,17.010000228881836,-0.009491506032645702,-0.7569236159324646,-9.58738019107841e-05,501.53240966796875,-454.3197326660156,8.331000328063965,0.9353361762845287,0.8309660577368662,0.25209182657823703
-2519.0791015625,3989.410888671875,92.90999603271484,-135.94296264648438,-111.53296661376953,0.0,800.7060546875,-1415.61376953125,17.010000228881836,-0.009491506032645702,-0.7569236159324646,-9.58738019107841e-05,501.53240966796875,-454.3197326660156,8.331000328063965,-2724.32421875,3820.662109375,92.90999603271484,-130.39353942871094,-107.37354278564453,0.0,2414.01611328125,-1738.940185546875,17.010000228881836,-0.009587380103766918,0.17966750264167786,9.58738019107841e-05,1335.4552001953125,229.80563354492188,8.310999870300293,0.9710447684469099,0.22508553043600152,1.6104744097592985
-2724.32421875,3820.662109375,92.90999603271484,-130.39353942871094,-107.37354278564453,0.0,2414.01611328125,-1738.940185546875,17.010000228881836,-0.009587380103766918,0.17966750264167786,9.58738019107841e-05,1335.4552001953125,229.80563354492188,8.310999870300293,-2783.271728515625,3772.075927734375,92.90999603271484,-128.79705810546875,-106.16703796386719,0.0,3028.975341796875,-1594.7926025390625,17.010000228881836,-0.009587380103766918,0.26192721724510193,0.0,1361.6392822265625,362.7188415527344,8.310999870300293,0.8644786251680667,0.035457071314917675,0.48803519654490657
-2783.271728515625,3772.075927734375,92.90999603271484,-128.79705810546875,-106.16703796386719,0.0,3028.975341796875,-1594.7926025390625,17.010000228881836,-0.009587380103766918,0.26192721724510193,0.0,1361.6392822265625,362.7188415527344,8.310999870300293,-3060.08544921875,3543.21826171875,92.90999603271484,-121.50914764404297,-100.80642700195312,0.0,4078.989990234375,145.39710998535156,1188.87939453125,0.4047791659832001,1.5603461265563965,1.5665779113769531,-8.361000061035156,1125.468017578125,462.92620849609375,0.9602202711838294,0.19409886685614766,2.2354297047444405
-3060.08544921875,3543.21826171875,92.90999603271484,-121.50914764404297,-100.80642700195312,0.0,4078.989990234375,145.39710998535156,1188.87939453125,0.4047791659832001,1.5603461265563965,1.5665779113769531,-8.361000061035156,1125.468017578125,462.92620849609375,-3261.833740234375,3375.447265625,92.90999603271484,-116.2657241821289,-96.7308120727539,0.0,4078.989990234375,-311.88775634765625,691.3937377929688,0.9356324076652527,1.5545936822891235,1.5574698448181152,-8.361000061035156,-814.7857055664062,-1053.5623779296875,-0.8417667735288307,0.26318984872772583,1.7038674687093192
-3261.833740234375,3375.447265625,92.90999603271484,-116.2657241821289,-96.7308120727539,0.0,4078.989990234375,-311.88775634765625,691.3937377929688,0.9356324076652527,1.5545936822891235,1.5574698448181152,-8.361000061035156,-814.7857055664062,-1053.5623779296875,-3446.4072265625,3221.794189453125,92.90999603271484,-111.54882049560547,-92.83954620361328,0.0,4079.068359375,-2268.42529296875,424.66766357421875,-1.0280547142028809,1.5498958826065063,1.5909298658370972,-10.334939956665039,-754.2946166992188,963.7938232421875,-0.6454372775547337,-0.7427933235491574,1.6125922169241704
-3446.4072265625,3221.794189453125,92.90999603271484,-111.54882049560547,-92.83954620361328,0.0,4079.068359375,-2268.42529296875,424.66766357421875,-1.0280547142028809,1.5498958826065063,1.5909298658370972,-10.334939956665039,-754.2946166992188,963.7938232421875,-3671.90576171875,3034.3984375,92.90999603271484,-105.98040771484375,-87.86041259765625,0.0,4078.97998046875,-1235.303466796875,564.4909057617188,1.45622718334198,1.4865232706069946,1.4870026111602783,-8.281000137329102,-15.486897468566895,-1536.2578125,-0.9625477923479173,-0.8936979687177227,2.244998206136067
-3671.90576171875,3034.3984375,92.90999603271484,-105.98040771484375,-87.86041259765625,0.0,4078.97998046875,-1235.303466796875,564.4909057617188,1.45622718334198,1.4865232706069946,1.4870026111602783,-8.281000137329102,-15.486897468566895,-1536.2578125,-3842.406982421875,2893.184814453125,93.6205825805664,-98.11677551269531,-85.85835266113281,9.905710220336914,4075.20556640625,-1296.0286865234375,235.76646423339844,1.4707040786743164,0.6690073609352112,0.6582695245742798,24.87067413330078,1.4631356000900269,175.45225524902344,0.4814387797292565,-0.3865041116021725,1.6459852702108435
-3842.406982421875,2893.184814453125,93.6205825805664,-98.11677551269531,-85.85835266113281,9.905710220336914,4075.20556640625,-1296.0286865234375,235.76646423339844,1.4707040786743164,0.6690073609352112,0.6582695245742798,24.87067413330078,1.4631356000900269,175.45225524902344,-3824.453369140625,2719.022705078125,92.93999481201172,97.8310775756836,-79.15108489990234,0.0,2442.24365234375,-1527.7308349609375,17.010000228881836,-0.009683254174888134,0.21562017500400543,0.0,-1268.844970703125,-269.43548583984375,8.321000099182129,-0.7679671018584149,-0.04332349197536227,2.046662266249051
-3824.453369140625,2719.022705078125,92.93999481201172,97.8310775756836,-79.15108489990234,0.0,2442.24365234375,-1527.7308349609375,17.010000228881836,-0.009683254174888134,0.21562017500400543,0.0,-1268.844970703125,-269.43548583984375,8.321000099182129,-3581.449951171875,2523.956787109375,92.93999481201172,91.6781005859375,-73.13810729980469,0.0,-425.4266662597656,-3422.9697265625,17.010000228881836,-0.009587380103766918,0.9909515976905823,0.0,-795.8622436523438,-1162.9566650390625,8.321000099182129,-0.3441947592606184,-0.16359374922577272,2.556813667232717
-3581.449951171875,2523.956787109375,92.93999481201172,91.6781005859375,-73.13810729980469,0.0,-425.4266662597656,-3422.9697265625,17.010000228881836,-0.009587380103766918,0.9909515976905823,0.0,-795.8622436523438,-1162.9566650390625,8.321000099182129,-3418.582763671875,2394.47021484375,92.93999481201172,87.31135559082031,-69.16117095947266,0.0,-2025.677001953125,-5103.20068359375,283.3166198730469,-0.6668981313705444,-0.015531555749475956,1.5864237546920776,-890.2577514648438,12.784591674804688,696.1171264648438,-0.18599742110542838,0.08604725886978429,1.818771887051419
-3418.582763671875,2394.47021484375,92.93999481201172,87.31135559082031,-69.16117095947266,0.0,-2025.677001953125,-5103.20068359375,283.3166198730469,-0.6668981313705444,-0.015531555749475956,1.5864237546920776,-890.2577514648438,12.784591674804688,696.1171264648438,-3314.387451171875,2312.147216796875,92.93999481201172,84.40035247802734,-66.58567810058594,0.0,-1922.939453125,-5060.1494140625,62.72125244140625,-0.6665146350860596,1.061035394668579,0.367196649312973,352.4168395996094,520.4199829101562,-524.62451171875,0.5087616688133122,0.409783182623979,1.2199730254966497
-3314.387451171875,2312.147216796875,92.93999481201172,84.40035247802734,-66.58567810058594,0.0,-1922.939453125,-5060.1494140625,62.72125244140625,-0.6665146350860596,1.061035394668579,0.367196649312973,352.4168395996094,520.4199829101562,-524.62451171875,-3279.52734375,2284.757080078125,92.93999481201172,83.40435028076172,-65.74767303466797,0.0,-1795.5428466796875,-4728.4306640625,16.983322143554688,-0.008532768115401268,1.2096396684646606,-0.0007669904152862728,335.3150329589844,892.5194091796875,8.98115348815918,0.4582883194343146,-0.09843792379970034,0.42100046920798206
-3279.52734375,2284.757080078125,92.93999481201172,83.40435028076172,-65.74767303466797,0.0,-1795.5428466796875,-4728.4306640625,16.983322143554688,-0.008532768115401268,1.2096396684646606,-0.0007669904152862728,335.3150329589844,892.5194091796875,8.98115348815918,-3165.66650390625,2195.0341796875,92.93999481201172,80.06134796142578,-63.04134750366211,0.0,-1789.606689453125,-4709.29736328125,17.010000228881836,-0.009587380103766918,1.1712901592254639,0.0,-92.07843780517578,-223.5248260498047,8.301000595092773,-0.14553637146290055,0.04147988441197097,1.3824908685671176
-3165.66650390625,2195.0341796875,92.93999481201172,80.06134796142578,-63.04134750366211,0.0,-1789.606689453125,-4709.29736328125,17.010000228881836,-0.009587380103766918,1.1712901592254639,0.0,-92.07843780517578,-223.5248260498047,8.301000595092773,-3030.06640625,2088.301513671875,92.93999481201172,75.89025115966797,-59.930625915527344,0.0,-2371.5322265625,-4165.89794921875,17.010000228881836,-0.009491506032645702,-3.032680034637451,0.0,-941.8445434570312,-90.58113861083984,8.321000099182129,0.6122609944299122,0.6389522243577597,1.7394060795422206
-3030.06640625,2088.301513671875,92.93999481201172,75.89025115966797,-59.930625915527344,0.0,-2371.5322265625,-4165.89794921875,17.010000228881836,-0.009491506032645702,-3.032680034637451,0.0,-941.8445434570312,-90.58113861083984,8.321000099182129,-2842.206787109375,1939.7567138671875,92.93999481201172,70.19483947753906,-55.65868377685547,0.0,-4078.97998046875,-3272.0673828125,711.3645629882812,0.4073677659034729,1.5811506509780884,-1.566673755645752,8.301000595092773,864.2687377929688,346.3944091796875,0.3558973629120028,-0.10641223153023607,2.569458213447433
-2842.206787109375,1939.7567138671875,92.93999481201172,70.19483947753906,-55.65868377685547,0.0,-4078.97998046875,-3272.0673828125,711.3645629882812,0.4073677659034729,1.5811506509780884,-1.566673755645752,8.301000595092773,864.2687377929688,346.3944091796875,-2749.69580078125,1866.1722412109375,92.93999481201172,67.29859924316406,-53.656211853027344,0.0,-4078.97998046875,-3409.890625,640.8429565429688,-0.10862501710653305,1.580479621887207,-1.5718508958816528,8.310999870300293,-447.0310974121094,-27.964488983154297,-0.16534219785766902,0.48726302357218393,1.3451759501603178
-2749.69580078125,1866.1722412109375,92.93999481201172,67.29859924316406,-53.656211853027344,0.0,-4078.97998046875,-3409.890625,640.8429565429688,-0.10862501710653305,1.580479621887207,-1.5718508958816528,8.310999870300293,-447.0310974121094,-27.964488983154297,-2651.21484375,1787.4954833984375,92.93999481201172,64.29368591308594,-51.63368606567383,0.0,-4078.97998046875,-3100.776123046875,667.7296142578125,0.5174309015274048,1.5818217992782593,-1.5655232667922974,8.310999870300293,359.5204772949219,185.6259307861328,0.3197546097731143,0.3482928477650834,1.5023317399517424
-2651.21484375,1787.4954833984375,92.93999481201172,64.29368591308594,-51.63368606567383,0.0,-4078.97998046875,-3100.776123046875,667.7296142578125,0.5174309015274048,1.5818217992782593,-1.5655232667922974,8.310999870300293,359.5204772949219,185.6259307861328,-2589.234375,1737.5947265625,92.93999481201172,62.47693634033203,-50.358970642089844,0.0,-4078.97998046875,-2528.5927734375,1010.6021728515625,0.5976772904396057,1.582301139831543,-1.5643727779388428,8.301000595092773,755.3707885742188,485.5838317871094,0.9794854413546064,7.1971016714152155e-06,0.9783756569124051
-2589.234375,1737.5947265625,92.93999481201172,62.47693634033203,-50.358970642089844,0.0,-4078.97998046875,-2528.5927734375,1010.6021728515625,0.5976772904396057,1.582301139831543,-1.5643727779388428,8.301000595092773,755.3707885742188,485.5838317871094,-2582.41796875,1732.089111328125,92.93999481201172,62.26788330078125,-50.21788024902344,0.0,-4078.97998046875,-2455.23291015625,1053.7113037109375,0.5351675748825073,1.5821094512939453,-1.5649480819702148,8.331000328063965,506.9844665527344,250.0993194580078,-0.8355196149762021,-0.9662919177674293,0.10305670450630089
-2582.41796875,1732.089111328125,92.93999481201172,62.26788330078125,-50.21788024902344,0.0,-4078.97998046875,-2455.23291015625,1053.7113037109375,0.5351675748825073,1.5821094512939453,-1.5649480819702148,8.331000328063965,506.9844665527344,250.0993194580078,-2570.664794921875,1722.59619140625,92.93999481201172,61.92185974121094,-49.98186111450195,0.0,-4078.97998046875,-2374.494140625,1099.6461181640625,0.6373690366744995,1.5826846361160278,-1.563893437385559,8.3410005569458,407.26025390625,308.3208923339844,0.696197053654338,0.8621476742295475,0.19703648580497202
-2570.664794921875,1722.59619140625,92.93999481201172,61.92185974121094,-49.98186111450195,0.0,-4078.97998046875,-2374.494140625,1099.6461181640625,0.6373690366744995,1.5826846361160278,-1.563893437385559,8.3410005569458,407.26025390625,308.3208923339844,-2441.147216796875,1617.6287841796875,92.93999481201172,58.22583770751953,-47.39583969116211,0.0,-3599.06640625,-3955.404541015625,16.985157012939453,-0.010162622667849064,2.205960273742676,0.0011504855938255787,898.63818359375,-1211.1915283203125,8.983625411987305,-0.965983021765194,0.026423753784623822,2.263072482580256
-2441.147216796875,1617.6287841796875,92.93999481201172,58.22583770751953,-47.39583969116211,0.0,-3599.06640625,-3955.404541015625,16.985157012939453,-0.010162622667849064,2.205960273742676,0.0011504855938255787,898.63818359375,-1211.1915283203125,8.983625411987305,-2428.60986328125,1607.470458984375,92.93999481201172,57.86537170410156,-47.135372161865234,0.0,-3446.77734375,-4162.37646484375,17.010000228881836,-0.009299758821725845,2.1873607635498047,0.0,463.8187255859375,-641.3983764648438,8.301000595092773,0.5795375572283289,0.06636057799422036,0.22408914328624974
-2428.60986328125,1607.470458984375,92.93999481201172,57.86537170410156,-47.135372161865234,0.0,-3446.77734375,-4162.37646484375,17.010000228881836,-0.009299758821725845,2.1873607635498047,0.0,463.8187255859375,-641.3983764648438,8.301000595092773,-2291.25537109375,1495.2406005859375,92.93999481201172,53.855342864990234,-44.185340881347656,0.0,-3493.943603515625,-3787.15966796875,17.010000228881836,-0.009587380103766918,1.4754018783569336,0.0,48.85502243041992,412.4632873535156,8.301000595092773,0.14530565377173132,-0.31010858457546897,2.452341126942983
-2291.25537109375,1495.2406005859375,92.93999481201172,53.855342864990234,-44.185340881347656,0.0,-3493.943603515625,-3787.15966796875,17.010000228881836,-0.009587380103766918,1.4754018783569336,0.0,48.85502243041992,412.4632873535156,8.301000595092773,-2172.02490234375,1396.9908447265625,92.93999481201172,50.11445236206055,-41.434452056884766,0.0,-3269.910888671875,-4204.7666015625,17.010000228881836,-0.009587380103766918,2.736525774002075,0.0,412.0539855957031,-231.9881134033203,8.310999870300293,-0.1721565006207777,-0.5065233814787754,2.2953861026656455
-2172.02490234375,1396.9908447265625,92.93999481201172,50.11445236206055,-41.434452056884766,0.0,-3269.910888671875,-4204.7666015625,17.010000228881836,-0.009587380103766918,2.736525774002075,0.0,412.0539855957031,-231.9881134033203,8.310999870300293,-2113.897216796875,1348.896240234375,92.93999481201172,48.17543029785156,-40.01543045043945,0.0,-3642.397705078125,-4128.46630859375,24.96079444885254,0.14342720806598663,2.976785659790039,-0.12904612720012665,-714.5382080078125,137.561767578125,103.31084442138672,0.6190249657213287,0.10765140764580018,1.181099271892279
-2113.897216796875,1348.896240234375,92.93999481201172,48.17543029785156,-40.01543045043945,0.0,-3642.397705078125,-4128.46630859375,24.96079444885254,0.14342720806598663,2.976785659790039,-0.12904612720012665,-714.5382080078125,137.561767578125,103.31084442138672,-2076.612548828125,1317.833740234375,92.93999481201172,46.894142150878906,-39.07414245605469,0.0,-3521.453857421875,-4153.5068359375,17.232009887695312,0.006902913562953472,2.8441920280456543,-0.013614079914987087,677.9702758789062,-194.54104614257812,0.8645526766777039,-0.9731810026280018,0.12881686390194105,0.7904908504444279
-2076.612548828125,1317.833740234375,92.93999481201172,46.894142150878906,-39.07414245605469,0.0,-3521.453857421875,-4153.5068359375,17.232009887695312,0.006902913562953472,2.8441920280456543,-0.013614079914987087,677.9702758789062,-194.54104614257812,0.8645526766777039,-2024.149169921875,1274.1251220703125,92.93999481201172,45.02729797363281,-37.707298278808594,0.0,-2639.56982421875,-3717.5859375,17.010000228881836,-0.009587380103766918,-1.7201677560806274,0.0,309.07867431640625,1140.4859619140625,8.3410005569458,-0.9060675859663239,-0.7554501352924401,1.1304352873849268
-2024.149169921875,1274.1251220703125,92.93999481201172,45.02729797363281,-37.707298278808594,0.0,-2639.56982421875,-3717.5859375,17.010000228881836,-0.009587380103766918,-1.7201677560806274,0.0,309.07867431640625,1140.4859619140625,8.3410005569458,-1903.519775390625,1173.062744140625,92.93999481201172,41.22040557861328,-34.34040832519531,0.0,-2741.7978515625,-5015.10302734375,48.49612808227539,0.6010328531265259,-1.6537271738052368,0.13805827498435974,-34.896846771240234,-732.0421142578125,528.7782592773438,0.45218223825407444,-0.016336820233127124,2.863586204435933
-1903.519775390625,1173.062744140625,92.93999481201172,41.22040557861328,-34.34040832519531,0.0,-2741.7978515625,-5015.10302734375,48.49612808227539,0.6010328531265259,-1.6537271738052368,0.13805827498435974,-34.896846771240234,-732.0421142578125,528.7782592773438,-1885.619873046875,1158.1822509765625,92.93999481201172,40.693939208984375,-33.81393814086914,0.0,-2739.090576171875,-5071.42333984375,125.56383514404297,1.2468388080596924,-1.3537380695343018,0.42395395040512085,-11.299287796020508,100.75872802734375,-242.56243896484375,-0.6069086031074397,0.0318646437462021,0.4230579617684782
-1885.619873046875,1158.1822509765625,92.93999481201172,40.693939208984375,-33.81393814086914,0.0,-2739.090576171875,-5071.42333984375,125.56383514404297,1.2468388080596924,-1.3537380695343018,0.42395395040512085,-11.299287796020508,100.75872802734375,-242.56243896484375,-1781.4859619140625,1072.31982421875,92.93999481201172,37.50022506713867,-30.620223999023438,0.0,-4071.7060546875,-3698.5654296875,778.8016967773438,-1.3247841596603394,1.7118266820907593,-1.5851774215698242,29.208688735961914,-194.2071990966797,1045.5147705078125,-0.9488647332719384,-0.3894081797082002,2.66402698243202
-1781.4859619140625,1072.31982421875,92.93999481201172,37.50022506713867,-30.620223999023438,0.0,-4071.7060546875,-3698.5654296875,778.8016967773438,-1.3247841596603394,1.7118266820907593,-1.5851774215698242,29.208688735961914,-194.2071990966797,1045.5147705078125,-1695.45703125,1002.8021240234375,92.93999481201172,34.638484954833984,-27.75848388671875,0.0,-2705.773681640625,-4290.71923828125,17.010000228881836,-0.009587380103766918,-0.7296954989433289,0.0,1061.2584228515625,-926.2745971679688,8.321000099182129,0.9726222699676174,-0.2889392075228841,2.388797850648018
-1695.45703125,1002.8021240234375,92.93999481201172,34.638484954833984,-27.75848388671875,0.0,-2705.773681640625,-4290.71923828125,17.010000228881836,-0.009587380103766918,-0.7296954989433289,0.0,1061.2584228515625,-926.2745971679688,8.321000099182129,-1659.7264404296875,974.330078125,92.93999481201172,33.37873077392578,-26.49873161315918,0.0,-2538.476806640625,-4445.99560546875,17.010000228881836,-0.009683254174888134,-0.7795498371124268,0.0,-210.79847717285156,209.0748748779297,8.310999870300293,-0.33603849997206325,-0.008436407454466692,1.0430368771419865
-1659.7264404296875,974.330078125,92.93999481201172,33.37873077392578,-26.49873161315918,0.0,-2538.476806640625,-4445.99560546875,17.010000228881836,-0.009683254174888134,-0.7795498371124268,0.0,-210.79847717285156,209.0748748779297,8.310999870300293,-1594.849365234375,923.366455078125,92.93999481201172,30.959821701049805,-24.079822540283203,0.0,-2534.007080078125,-5102.84521484375,635.9418334960938,0.9404261112213135,-3.1324846744537354,-1.5595791339874268,-517.8505249023438,13.226300239562988,689.9579467773438,0.9998567834318453,-0.3558229402224323,2.020540096044627
-1594.849365234375,923.366455078125,92.93999481201172,30.959821701049805,-24.079822540283203,0.0,-2534.007080078125,-5102.84521484375,635.9418334960938,0.9404261112213135,-3.1324846744537354,-1.5595791339874268,-517.8505249023438,13.226300239562988,689.9579467773438,-1548.2899169921875,887.3599853515625,92.93999481201172,0.0,0.0,0.0,-3479.4404296875,-4547.71142578125,199.9929962158203,-1.3081021308898926,1.2586312294006348,-0.46057772636413574,90.56211853027344,308.1069030761719,-1073.40966796875,0.04171540385538086,-0.5388809469583933,1.9848842540088611
-1548.2899169921875,887.3599853515625,92.93999481201172,0.0,0.0,0.0,-3479.4404296875,-4547.71142578125,199.9929962158203,-1.3081021308898926,1.2586312294006348,-0.46057772636413574,90.56211853027344,308.1069030761719,-1073.40966796875,-1548.2899169921875,887.3599853515625,92.93999481201172,0.0,0.0,0.0,-3415.385986328125,-4624.51708984375,461.8370056152344,-1.0383132696151733,2.3752734661102295,-1.5869989395141602,167.58746337890625,-156.19039916992188,411.6651306152344,-0.6392781088218318,-0.23294301505209702,1.9869428792379864
-1548.2899169921875,887.3599853515625,92.93999481201172,0.0,0.0,0.0,-3415.385986328125,-4624.51708984375,461.8370056152344,-1.0383132696151733,2.3752734661102295,-1.5869989395141602,167.58746337890625,-156.19039916992188,411.6651306152344,-1548.2899169921875,887.3599853515625,92.93999481201172,0.0,0.0,0.0,-2750.695556640625,-5084.05078125,390.1378173828125,1.1361044645309448,2.971992015838623,-1.54740309715271,456.1725769042969,-75.51053619384766,-824.0938720703125,-0.29492724824676375,-0.5793395204231536,1.9209683297357003
-1548.2899169921875,887.3599853515625,92.93999481201172,0.0,0.0,0.0,-2750.695556640625,-5084.05078125,390.1378173828125,1.1361044645309448,2.971992015838623,-1.54740309715271,456.1725769042969,-75.51053619384766,-824.0938720703125,-1548.2899169921875,887.3599853515625,92.93999481201172,0.0,0.0,0.0,-2683.67626953125,-5094.6435546875,224.58706665039062,1.2703278064727783,3.044951915740967,-1.5394456386566162,43.42068099975586,4.4665141105651855,-152.49325561523438,0.3330758580917059,-0.13944549805137355,0.2929030098686525
-1548.2899169921875,887.3599853515625,92.93999481201172,0.0,0.0,0.0,-2683.67626953125,-5094.6435546875,224.58706665039062,1.2703278064727783,3.044951915740967,-1.5394456386566162,43.42068099975586,4.4665141105651855,-152.49325561523438,-1548.2899169921875,887.3599853515625,92.93999481201172,0.0,0.0,0.0,-2682.984375,-5094.6962890625,221.94467163085938,1.271478295326233,3.046006441116333,-1.5388703346252441,29.292009353637695,6.0858917236328125,-113.18204498291016,-0.41848313397441195,0.009378041439219864,0.01911434941071377
-1548.2899169921875,887.3599853515625,92.93999481201172,0.0,0.0,0.0,-2682.984375,-5094.6962890625,221.94467163085938,1.271478295326233,3.046006441116333,-1.5388703346252441,29.292009353637695,6.0858917236328125,-113.18204498291016,-1548.2899169921875,887.3599853515625,92.93999481201172,0.0,0.0,0.0,-1588.034423828125,-4042.114990234375,17.010000228881836,-0.009587380103766918,-2.600768566131592,9.58738019107841e-05,1016.5171508789062,640.7144165039062,8.301000595092773,-0.5985947775590137,0.15112384072672128,1.9639296012468321
-1548.2899169921875,887.3599853515625,92.93999481201172,0.0,0.0,0.0,-1588.034423828125,-4042.114990234375,17.010000228881836,-0.009587380103766918,-2.600768566131592,9.58738019107841e-05,1016.5171508789062,640.7144165039062,8.301000595092773,-1548.2899169921875,887.3599853515625,92.93999481201172,0.0,0.0,0.0,-559.21533203125,-549.5319213867188,17.010000228881836,-0.009587380103766918,-1.0270960330963135,0.0,-684.4122314453125,1232.7510986328125,8.301000595092773,-0.9871699815069721,-0.299855660687999,2.9441936999271974
-1548.2899169921875,887.3599853515625,92.93999481201172,0.0,0.0,0.0,-559.21533203125,-549.5319213867188,17.010000228881836,-0.009587380103766918,-1.0270960330963135,0.0,-684.4122314453125,1232.7510986328125,8.301000595092773,-1628.89208984375,977.9586791992188,129.41619873046875,-1179.1031494140625,1301.412353515625,506.5166015625,-1508.81005859375,868.658447265625,17.093852996826172,-0.03480219095945358,-0.873889684677124,-0.031063111498951912,-773.7008666992188,990.211181640625,9.614802360534668,-0.44075329870635394,-0.01281513845023745,1.216499697152713
-1628.89208984375,977.9586791992188,129.41619873046875,-1179.1031494140625,1301.412353515625,506.5166015625,-1508.81005859375,868.658447265625,17.093852996826172,-0.03480219095945358,-0.873889684677124,-0.031063111498951912,-773.7008666992188,990.211181640625,9.614802360534668,-2640.806640625,2094.9609375,317.89105224609375,-1147.78564453125,1266.963134765625,-65.1366195678711,-1581.208984375,942.0489501953125,17.0,-0.009491506032645702,-1.0119479894638062,0.0,299.4120788574219,-499.8250427246094,8.430999755859375,0.9308254535856798,-0.42727422752205607,0.9530330458903506
-2640.806640625,2094.9609375,317.89105224609375,-1147.78564453125,1266.963134765625,-65.1366195678711,-1581.208984375,942.0489501953125,17.0,-0.009491506032645702,-1.0119479894638062,0.0,299.4120788574219,-499.8250427246094,8.430999755859375,-3600.767578125,4246.13037109375,481.767822265625,495.52874755859375,326.9140930175781,-71.99675750732422,-1673.5994873046875,1968.6605224609375,17.0,-0.009587380103766918,-1.8256288766860962,9.58738019107841e-05,188.56858825683594,843.7732543945312,8.430999755859375,-0.3539248591041517,0.197397031796223,2.4748203516766267
-3600.767578125,4246.13037109375,481.767822265625,495.52874755859375,326.9140930175781,-71.99675750732422,-1673.5994873046875,1968.6605224609375,17.0,-0.009587380103766918,-1.8256288766860962,9.58738019107841e-05,188.56858825683594,843.7732543945312,8.430999755859375,-2860.6640625,4738.990234375,221.2886505126953,363.45001220703125,246.61630249023438,-36.19422912597656,-2558.63623046875,2441.853759765625,17.0,-0.009587380103766918,1.2352380752563477,0.0,-463.7722473144531,-880.0116577148438,8.440999984741211,-0.36499278228874654,-0.8897143928763804,1.6810238078450368
-2860.6640625,4738.990234375,221.2886505126953,363.45001220703125,246.61630249023438,-36.19422912597656,-2558.63623046875,2441.853759765625,17.0,-0.009587380103766918,1.2352380752563477,0.0,-463.7722473144531,-880.0116577148438,8.440999984741211,-2613.359130859375,4907.43017578125,118.30549621582031,331.3702087402344,230.74380493164062,167.3061981201172,-2711.044677734375,1725.9803466796875,17.0,-0.009587380103766918,1.4238218069076538,-9.58738019107841e-05,-171.74771118164062,-1115.423828125,8.430999755859375,-0.4487991372367388,-0.04227341662682603,0.694429507376924
-2613.359130859375,4907.43017578125,118.30549621582031,331.3702087402344,230.74380493164062,167.3061981201172,-2711.044677734375,1725.9803466796875,17.0,-0.009587380103766918,1.4238218069076538,-9.58738019107841e-05,-171.74771118164062,-1115.423828125,8.430999755859375,-1994.373779296875,4903.01708984375,94.26441955566406,326.25634765625,-75.1644058227539,19.3570556640625,-2578.786376953125,2573.02001953125,17.0,-0.009491506032645702,1.407810926437378,0.0,194.42503356933594,1184.3843994140625,8.430999755859375,0.9889232552399633,-0.009475650818889701,1.7939978756799917
-1994.373779296875,4903.01708984375,94.26441955566406,326.25634765625,-75.1644058227539,19.3570556640625,-2578.786376953125,2573.02001953125,17.0,-0.009491506032645702,1.407810926437378,0.0,194.42503356933594,1184.3843994140625,8.430999755859375,-1666.6383056640625,4827.736328125,93.12999725341797,318.9353942871094,-73.0457992553711,0.0,-2220.99267578125,3830.489501953125,17.0,-0.009587380103766918,1.1592100858688354,0.0,538.8666381835938,1250.29296875,8.430999755859375,0.5811820413449518,-0.11591368743025941,1.026014000350557
-1666.6383056640625,4827.736328125,93.12999725341797,318.9353942871094,-73.0457992553711,0.0,-2220.99267578125,3830.489501953125,17.0,-0.009587380103766918,1.1592100858688354,0.0,538.8666381835938,1250.29296875,8.430999755859375,-1510.06640625,4791.94677734375,93.12999725341797,315.3807067871094,-71.96094512939453,0.0,-1921.821533203125,4449.24365234375,17.0,-0.009587380103766918,1.0819358825683594,0.0,658.7882690429688,1246.1273193359375,8.430999755859375,0.8451251079766697,-0.06532863545622557,0.49812500867199105
-1510.06640625,4791.94677734375,93.12999725341797,315.3807067871094,-71.96094512939453,0.0,-1921.821533203125,4449.24365234375,17.0,-0.009587380103766918,1.0819358825683594,0.0,658.7882690429688,1246.1273193359375,8.430999755859375,-1423.2635498046875,4772.0869140625,93.12999725341797,313.392578125,-71.35819244384766,0.0,-1786.8125,4697.34423828125,17.0,-0.009875001385807991,1.0572962760925293,0.0,260.3971862792969,461.911376953125,8.430999755859375,-0.9717934561412739,-0.04278538538536192,0.27536731735648345
-1423.2635498046875,4772.0869140625,93.12999725341797,313.392578125,-71.35819244384766,0.0,-1786.8125,4697.34423828125,17.0,-0.009875001385807991,1.0572962760925293,0.0,260.3971862792969,461.911376953125,8.430999755859375,-1243.724365234375,4731.298828125,93.12999725341797,309.24017333984375,-70.09752655029297,0.0,-1797.77392578125,4678.27978515625,17.0,-0.009683254174888134,1.0530778169631958,0.0,-150.6482391357422,-264.55291748046875,8.430999755859375,-0.5092620906137602,-0.0006933279289669407,0.5719718882973552
-1243.724365234375,4731.298828125,93.12999725341797,309.24017333984375,-70.09752655029297,0.0,-1797.77392578125,4678.27978515625,17.0,-0.009683254174888134,1.0530778169631958,0.0,-150.6482391357422,-264.55291748046875,8.430999755859375,-970.4849243164062,4669.6162109375,93.12999725341797,302.8111267089844,-68.14103698730469,0.0,-1721.2288818359375,4760.55615234375,17.0,-0.009587380103766918,0.7906712293624878,0.0,242.24964904785156,228.2288360595703,8.421000480651855,0.30003958585042334,-0.3408196490539136,0.9431867575180206
-970.4849243164062,4669.6162109375,93.12999725341797,302.8111267089844,-68.14103698730469,0.0,-1721.2288818359375,4760.55615234375,17.0,-0.009587380103766918,0.7906712293624878,0.0,242.24964904785156,228.2288360595703,8.421000480651855,-818.5481567382812,4635.4970703125,93.12999725341797,299.1763916015625,-67.08023071289062,0.0,-1599.6590576171875,4985.45556640625,24.163209915161133,0.21073061227798462,1.380391001701355,-0.048416268080472946,125.39844512939453,632.169921875,153.30067443847656,0.7563626916091327,0.6828832478343279,0.5830097440650377
-818.5481567382812,4635.4970703125,93.12999725341797,299.1763916015625,-67.08023071289062,0.0,-1599.6590576171875,4985.45556640625,24.163209915161133,0.21073061227798462,1.380391001701355,-0.048416268080472946,125.39844512939453,632.169921875,153.30067443847656,-797.0491943359375,4630.66162109375,93.12999725341797,298.6583251953125,-66.92677307128906,0.0,-1592.44775390625,5025.09619140625,37.21296310424805,0.526155412197113,1.4593909978866577,-0.043910201638936996,73.48187255859375,380.1309509277344,226.7236785888672,-0.9121319953070565,-0.1705350546442997,0.08549552695001239
-797.0491943359375,4630.66162109375,93.12999725341797,298.6583251953125,-66.92677307128906,0.0,-1592.44775390625,5025.09619140625,37.21296310424805,0.526155412197113,1.4593909978866577,-0.043910201638936996,73.48187255859375,380.1309509277344,226.7236785888672,-124.3189468383789,4481.00830078125,93.12999725341797,282.62005615234375,-62.404808044433594,0.0,-1692.1810302734375,5102.98974609375,1227.362060546875,1.3630378246307373,3.095381498336792,1.5252562761306763,-132.31817626953125,-8.371000289916992,596.90478515625,0.6903452229266165,0.05750218060026745,2.3157175045158027
-124.3189468383789,4481.00830078125,93.12999725341797,282.62005615234375,-62.404808044433594,0.0,-1692.1810302734375,5102.98974609375,1227.362060546875,1.3630378246307373,3.095381498336792,1.5252562761306763,-132.31817626953125,-8.371000289916992,596.90478515625,116.39008331298828,4427.93408203125,93.12999725341797,276.9685363769531,-60.86225128173828,0.0,-1791.0982666015625,5073.8505859375,1695.4354248046875,1.2077223062515259,-2.056684732437134,2.6917526721954346,-96.5663833618164,-202.3608856201172,463.69232177734375,0.5169234099379763,-0.02510591651373987,0.8713421528575935
116.39008331298828,4427.93408203125,93.12999725341797,276.9685363769531,-60.86225128173828,0.0,-1791.0982666015625,5073.8505859375,1695.4354248046875,1.2077223062515259,-2.056684732437134,2.6917526721954346,-96.5663833618164,-202.3608856201172,463.69232177734375,393.91754150390625,4367.15673828125,93.12999725341797,270.5641784667969,-59.11026382446289,0.0,-1941.902587890625,4594.498046875,2028.0626220703125,0.029816752299666405,-1.8574589490890503,3.133347511291504,-239.21607971191406,-794.5050659179688,26.734638214111328,0.7521946564111737,0.06415508749568649,1.0043483148580918
393.91754150390625,4367.15673828125,93.12999725341797,270.5641784667969,-59.11026382446289,0.0,-1941.902587890625,4594.498046875,2028.0626220703125,0.029816752299666405,-1.8574589490890503,3.133347511291504,-239.21607971191406,-794.5050659179688,26.734638214111328,1128.0902099609375,4208.00390625,93.12999725341797,253.70663452148438,-54.6041259765625,0.0,-1932.82958984375,4654.43212890625,39.41802978515625,-0.0003834952076431364,-1.9956130981445312,-3.1148438453674316,157.1458282470703,53.0660400390625,40.573944091796875,-0.9633071962626759,-0.7654204112619791,2.8044170112103046
1128.0902099609375,4208.00390625,93.12999725341797,253.70663452148438,-54.6041259765625,0.0,-1932.82958984375,4654.43212890625,39.41802978515625,-0.0003834952076431364,-1.9956130981445312,-3.1148438453674316,157.1458282470703,53.0660400390625,40.573944091796875,1500.0819091796875,4128.1796875,93.12999725341797,244.75001525878906,-52.48280334472656,0.0,-1465.41650390625,4860.14501953125,17.010000228881836,-0.009587380103766918,-2.990112066268921,0.0,848.2418212890625,198.27655029296875,8.321000099182129,-0.9906572383481164,0.426846711105991,1.4847949147709443
1500.0819091796875,4128.1796875,93.12999725341797,244.75001525878906,-52.48280334472656,0.0,-1465.41650390625,4860.14501953125,17.010000228881836,-0.009587380103766918,-2.990112066268921,0.0,848.2418212890625,198.27655029296875,8.321000099182129,1595.0877685546875,4107.7880859375,93.12999725341797,242.4093780517578,-51.96467208862305,0.0,-1114.7276611328125,4905.3701171875,17.010000228881836,-0.009587380103766918,-2.989345073699951,0.0,930.1541137695312,127.89899444580078,8.310999870300293,-0.2524308990538513,-0.09288167921184425,0.39266449817257865
1595.0877685546875,4107.7880859375,93.12999725341797,242.4093780517578,-51.96467208862305,0.0,-1114.7276611328125,4905.3701171875,17.010000228881836,-0.009587380103766918,-2.989345073699951,0.0,930.1541137695312,127.89899444580078,8.310999870300293,1731.5477294921875,4078.53515625,93.12999725341797,239.0178985595703,-51.21437454223633,0.0,-1020.4193115234375,4919.142578125,17.010000228881836,-0.009395631961524487,-2.97371768951416,0.0,-379.2796325683594,-65.5526123046875,8.310999870300293,0.9973665619580829,0.03194383146425381,0.5725189672440791
1731.5477294921875,4078.53515625,93.12999725341797,239.0178985595703,-51.21437454223633,0.0,-1020.4193115234375,4919.142578125,17.010000228881836,-0.009395631961524487,-2.97371768951416,0.0,-379.2796325683594,-65.5526123046875,8.310999870300293,1831.9178466796875,4057.0439453125,93.12999725341797,236.53480529785156,-50.65776062011719,0.0,-996.3966064453125,4922.02685546875,17.010000228881836,-0.009683254174888134,-2.853395938873291,0.0,381.9549865722656,81.53465270996094,8.310999870300293,-0.9764898205635841,-0.35452811432732173,0.4200527087345449
1831.9178466796875,4057.0439453125,93.12999725341797,236.53480529785156,-50.65776062011719,0.0,-996.3966064453125,4922.02685546875,17.010000228881836,-0.009683254174888134,-2.853395938873291,0.0,381.9549865722656,81.53465270996094,8.310999870300293,1885.7906494140625,4045.53125,93.12999725341797,235.20423889160156,-50.3736457824707,0.0,-959.903076171875,4930.9697265625,17.010000228881836,-0.009395631961524487,-2.806513786315918,9.58738019107841e-05,-82.85733032226562,-19.280658721923828,8.310999870300293,0.8114604715390832,-0.43746025185530324,0.22991728970521308
1885.7906494140625,4045.53125,93.12999725341797,235.20423889160156,-50.3736457824707,0.0,-959.903076171875,4930.9697265625,17.010000228881836,-0.009395631961524487,-2.806513786315918,9.58738019107841e-05,-82.85733032226562,-19.280658721923828,8.310999870300293,2273.060302734375,3962.580078125,93.12999725341797,225.94476318359375,-48.33775329589844,0.0,-252.11158752441406,4193.5869140625,17.010000228881836,-0.009587380103766918,1.4114540815353394,0.0,-74.692138671875,-1169.611572265625,8.321000099182129,-0.9329214236361363,0.6278342884925178,1.6885937154447532
2273.060302734375,3962.580078125,93.12999725341797,225.94476318359375,-48.33775329589844,0.0,-252.11158752441406,4193.5869140625,17.010000228881836,-0.009587380103766918,1.4114540815353394,0.0,-74.692138671875,-1169.611572265625,8.321000099182129,2719.718505859375,3867.18115234375,93.12999725341797,215.4805908203125,-45.90839767456055,0.0,-2012.2999267578125,2560.975830078125,17.010000228881836,-0.009587380103766918,0.07679491490125656,0.0,-1347.181884765625,-160.90310668945312,8.321000099182129,-0.40884980699424744,0.32217920106693165,2.0183424357415873
2719.718505859375,3867.18115234375,93.12999725341797,215.4805908203125,-45.90839767456055,0.0,-2012.2999267578125,2560.975830078125,17.010000228881836,-0.009587380103766918,0.07679491490125656,0.0,-1347.181884765625,-160.90310668945312,8.321000099182129,3048.00390625,3797.43701171875,93.12999725341797,208.00772094726562,-44.04767990112305,0.0,-1571.146484375,2604.25146484375,17.010000228881836,-0.009491506032645702,0.1299089938402176,0.0,1069.0384521484375,138.50877380371094,8.321000099182129,0.9983989257720313,0.04544203893175267,1.5525140571255776
3048.00390625,3797.43701171875,93.12999725341797,208.00772094726562,-44.04767990112305,0.0,-1571.146484375,2604.25146484375,17.010000228881836,-0.009491506032645702,0.1299089938402176,0.0,1069.0384521484375,138.50877380371094,8.321000099182129,3629.9052734375,3675.028564453125,93.12999725341797,194.1149444580078,-40.574485778808594,0.0,-1800.4417724609375,2564.7607421875,17.010000228881836,-0.009683254174888134,0.18254370987415314,-9.58738019107841e-05,-327.059814453125,-58.63687515258789,8.310999870300293,-0.09241680259453555,-0.02395057220867683,2.889490619096847
3629.9052734375,3675.028564453125,93.12999725341797,194.1149444580078,-40.574485778808594,0.0,-1800.4417724609375,2564.7607421875,17.010000228881836,-0.009683254174888134,0.18254370987415314,-9.58738019107841e-05,-327.059814453125,-58.63687515258789,8.310999870300293,3681.849609375,3664.074462890625,93.12999725341797,192.8262176513672,-40.25230407714844,0.0,-1805.6029052734375,2564.01953125,17.010000228881836,-0.009395631961524487,0.18637867271900177,0.0,204.6155242919922,39.145042419433594,8.310999870300293,0.8868406292933354,0.017936024595625884,0.27514786281005854
3681.849609375,3664.074462890625,93.12999725341797,192.8262176513672,-40.25230407714844,0.0,-1805.6029052734375,2564.01953125,17.010000228881836,-0.009395631961524487,0.18637867271900177,0.0,204.6155242919922,39.145042419433594,8.310999870300293,3700.2548828125,3660.237548828125,93.12999725341797,192.36737060546875,-40.13759231567383,0.0,-1781.0242919921875,2569.691650390625,17.010000228881836,-0.009395631961524487,0.21322332322597504,-9.58738019107841e-05,318.790771484375,86.14102935791016,8.310999870300293,0.9996650310137567,0.4205024479460622,0.09224594879827919
3700.2548828125,3660.237548828125,93.12999725341797,192.36737060546875,-40.13759231567383,0.0,-1781.0242919921875,2569.691650390625,17.010000228881836,-0.009395631961524487,0.21322332322597504,-9.58738019107841e-05,318.790771484375,86.14102935791016,8.310999870300293,3926.13525390625,3593.154052734375,118.77758026123047,91.88091278076172,-81.268310546875,48.64387893676758,-2311.187255859375,2138.283935546875,17.010000228881836,-0.009683254174888134,1.0663083791732788,0.0,-549.32958984375,-874.9227905273438,8.321000099182129,-0.9095694393738758,-0.35084041657473936,1.3184579962582177
3926.13525390625,3593.154052734375,118.77758026123047,91.88091278076172,-81.268310546875,48.64387893676758,-2311.187255859375,2138.283935546875,17.010000228881836,-0.009683254174888134,1.0663083791732788,0.0,-549.32958984375,-874.9227905273438,8.321000099182129,3560.84130859375,3422.72119140625,93.02999877929688,-173.7538604736328,-39.67921447753906,0.0,-3145.0947265625,3440.540771484375,17.010000228881836,-0.009587380103766918,-3.0367066860198975,0.0,1370.17919921875,280.3534851074219,8.331000328063965,-0.9010793280401675,0.7466996754101263,2.8894996804458515
3560.84130859375,3422.72119140625,93.02999877929688,-173.7538604736328,-39.67921447753906,0.0,-3145.0947265625,3440.540771484375,17.010000228881836,-0.009587380103766918,-3.0367066860198975,0.0,1370.17919921875,280.3534851074219,8.331000328063965,3451.3466796875,3397.670654296875,93.02999877929688,-171.08609008789062,-38.91727066040039,0.0,-2859.063232421875,3461.5634765625,17.010000228881836,-0.009395631961524487,3.1213631629943848,0.0,-255.47682189941406,1.271329402923584,8.321000099182129,0.8346192193955273,0.10220699461687799,0.6335244994808136
3451.3466796875,3397.670654296875,93.02999877929688,-171.08609008789062,-38.91727066040039,0.0,-2859.063232421875,3461.5634765625,17.010000228881836,-0.009395631961524487,3.1213631629943848,0.0,-255.47682189941406,1.271329402923584,8.321000099182129,3266.128662109375,3355.728515625,93.02999877929688,-166.63990783691406,-37.60062789916992,0.0,-2614.932373046875,3618.697998046875,17.010000228881836,-0.009587380103766918,-1.8198764324188232,0.0,253.13804626464844,547.0802612304688,8.331000328063965,-0.5151996448766762,-0.8633795379429461,1.0961083488155055
3266.128662109375,3355.728515625,93.02999877929688,-166.63990783691406,-37.60062789916992,0.0,-2614.932373046875,3618.697998046875,17.010000228881836,-0.009587380103766918,-1.8198764324188232,0.0,253.13804626464844,547.0802612304688,8.331000328063965,2842.653564453125,3261.2802734375,93.02999877929688,-156.64138793945312,-34.45446014404297,0.0,-2863.830078125,4360.35888671875,17.010000228881836,-0.009587380103766918,0.11284346133470535,0.0,1059.6942138671875,151.10073852539062,8.331000328063965,0.6727036742840138,-0.8855879025154566,2.6292659486113905
2842.653564453125,3261.2802734375,93.02999877929688,-156.64138793945312,-34.45446014404297,0.0,-2863.830078125,4360.35888671875,17.010000228881836,-0.009587380103766918,0.11284346133470535,0.0,1059.6942138671875,151.10073852539062,8.331000328063965,2579.563720703125,3204.047119140625,93.02999877929688,-150.47293090820312,-32.39830780029297,0.0,-2314.9755859375,5102.97998046875,400.51104736328125,0.5138835906982422,3.1306631565093994,1.5653315782546997,-588.7725219726562,-8.270999908447266,293.8564758300781,0.5020896750073603,0.766114464687106,1.7080487149449652
