ballLocX_0,ballLocY_0,ballLocZ_0,ballVelX_0,ballVelY_0,ballVelZ_0,carLocX_0,carLocY_0,carLocZ_0,carPitch_0,carYaw_0,carRoll_0,carVelX_0,carVelY_0,carVelZ_0,ballLocX_1,ballLocY_1,ballLocZ_1,ballVelX_1,ballVelY_1,ballVelZ_1,carLocX_1,carLocY_1,carLocZ_1,carPitch_1,carYaw_1,carRoll_1,carVelX_1,carVelY_1,carVelZ_1,throttle,steer,time
-1369.9674072265625,337.5384216308594,92.8699951171875,-53.38355255126953,85.04611206054688,0.0,-3994.48974609375,-1561.608154296875,76.59331512451172,0.20018449425697327,-1.8024274110794067,0.6919212341308594,269.9930419921875,1378.35595703125,-215.17529296875,-1376.6529541015625,348.3265075683594,92.8699951171875,-53.20161056518555,84.74222564697266,0.0,-3952.3076171875,-1388.620361328125,47.36721420288086,0.19222696125507355,-1.91872239112854,0.45530468225479126,418.03179931640625,1350.448974609375,-198.28890991210938,-0.5879478186596108,-0.6721922482896358,0.01203375465774577
-1376.6529541015625,348.3265075683594,92.8699951171875,-53.20161056518555,84.74222564697266,0.0,-3952.3076171875,-1388.620361328125,47.36721420288086,0.19222696125507355,-1.91872239112854,0.45530468225479126,418.03179931640625,1350.448974609375,-198.28890991210938,-1484.4114990234375,519.51806640625,92.8699951171875,-50.45405960083008,79.74711608886719,0.0,-1855.85595703125,463.7735290527344,17.010000228881836,-0.009491506032645702,-3.01408052444458,-9.58738019107841e-05,1388.325927734375,229.4005584716797,8.321000099182129,-0.28710603167115334,0.29221221842987766,2.1636924204364
-1484.4114990234375,519.51806640625,92.8699951171875,-50.45405960083008,79.74711608886719,0.0,-1855.85595703125,463.7735290527344,17.010000228881836,-0.009491506032645702,-3.01408052444458,-9.58738019107841e-05,1388.325927734375,229.4005584716797,8.321000099182129,489.2687072753906,1081.7203369140625,258.8109436035156,1581.4791259765625,439.1180114746094,-262.4814147949219,-291.3748779296875,-259.5024108886719,17.0,-0.009587380103766918,1.8516106605529785,0.0,491.9702453613281,-1312.70263671875,8.421000480651855,-0.9006730023272231,0.6083648062105023,1.4014939332852512
489.2687072753906,1081.7203369140625,258.8109436035156,1581.4791259765625,439.1180114746094,-262.4814147949219,-291.3748779296875,-259.5024108886719,17.0,-0.009587380103766918,1.8516106605529785,0.0,491.9702453613281,-1312.70263671875,8.421000480651855,3129.74560546875,1874.2086181640625,102.23038482666016,929.404052734375,300.90869140625,12.993180274963379,-382.15728759765625,593.101806640625,17.0,-0.009587380103766918,1.6603424549102783,0.0,-102.10869598388672,1123.685546875,8.421000480651855,0.734989698766018,-0.03900210734192297,2.140353500215065
3129.74560546875,1874.2086181640625,102.23038482666016,929.404052734375,300.90869140625,12.993180274963379,-382.15728759765625,593.101806640625,17.0,-0.009587380103766918,1.6603424549102783,0.0,-102.10869598388672,1123.685546875,8.421000480651855,3495.999755859375,1992.935791015625,93.52847290039062,822.3023071289062,266.9580993652344,32.50551223754883,-402.9743957519531,1082.8204345703125,17.0,-0.009587380103766918,1.549416422843933,0.0,20.924057006835938,1248.7615966796875,8.421000480651855,0.7980011921165483,-0.1309411594997438,0.4139920820799645
3495.999755859375,1992.935791015625,93.52847290039062,822.3023071289062,266.9580993652344,32.50551223754883,-402.9743957519531,1082.8204345703125,17.0,-0.009587380103766918,1.549416422843933,0.0,20.924057006835938,1248.7615966796875,8.421000480651855,4000.037841796875,2341.23291015625,287.0525817871094,-3.930999755859375,135.01840209960938,-321.6686096191406,-2166.64111328125,1470.884521484375,17.0,-0.009587380103766918,-1.83953058719635,0.0,-405.70318603515625,-1316.8216552734375,8.430999755859375,0.8724404791469238,0.6706509715327488,2.0180094311653205
4000.037841796875,2341.23291015625,287.0525817871094,-3.930999755859375,135.01840209960938,-321.6686096191406,-2166.64111328125,1470.884521484375,17.0,-0.009587380103766918,-1.83953058719635,0.0,-405.70318603515625,-1316.8216552734375,8.430999755859375,3425.370849609375,2664.709228515625,93.13999938964844,-304.72882080078125,157.05491638183594,0.0,-2402.568603515625,-1457.37939453125,17.0,-0.009587380103766918,-1.5895875692367554,-9.58738019107841e-05,-27.74915313720703,-1409.7296142578125,8.430999755859375,0.9056987659806328,0.02699766524327423,2.089434948433844
3425.370849609375,2664.709228515625,93.13999938964844,-304.72882080078125,157.05491638183594,0.0,-2402.568603515625,-1457.37939453125,17.0,-0.009587380103766918,-1.5895875692367554,-9.58738019107841e-05,-27.74915313720703,-1409.7296142578125,8.430999755859375,2598.390625,3091.30712890625,93.13999938964844,-284.9727783203125,146.951904296875,0.0,-2422.595458984375,-965.2499389648438,17.0,-0.009587380103766918,-1.5296664237976074,-9.58738019107841e-05,-30.90843963623047,808.26025390625,8.430999755859375,-0.3219903865924194,-0.01472126019826309,2.904629301627674
2598.390625,3091.30712890625,93.13999938964844,-284.9727783203125,146.951904296875,0.0,-2422.595458984375,-965.2499389648438,17.0,-0.009587380103766918,-1.5296664237976074,-9.58738019107841e-05,-30.90843963623047,808.26025390625,8.430999755859375,2156.050537109375,3319.143310546875,93.13999938964844,-274.641357421875,141.25921630859375,0.0,-2497.484619140625,775.3515014648438,17.0,-0.009587380103766918,-1.5275572538375854,-9.58738019107841e-05,-56.57456588745117,1308.8265380859375,8.430999755859375,-0.6840624287894846,0.001913497288458189,1.5780613980019158
2156.050537109375,3319.143310546875,93.13999938964844,-274.641357421875,141.25921630859375,0.0,-2497.484619140625,775.3515014648438,17.0,-0.009587380103766918,-1.5275572538375854,-9.58738019107841e-05,-56.57456588745117,1308.8265380859375,8.430999755859375,2134.45263671875,3330.27197265625,93.13999938964844,-274.1493835449219,140.97604370117188,0.0,-2502.1259765625,873.6408081054688,17.0,-0.009491506032645702,-1.5407878160476685,0.0,-58.56795883178711,1112.19775390625,8.421000480651855,0.6409729180961932,0.3578582092996114,0.07721543612131221
2134.45263671875,3330.27197265625,93.13999938964844,-274.1493835449219,140.97604370117188,0.0,-2502.1259765625,873.6408081054688,17.0,-0.009491506032645702,-1.5407878160476685,0.0,-58.56795883178711,1112.19775390625,8.421000480651855,1583.9205322265625,3612.4658203125,93.13999938964844,-261.6132507324219,133.57435607910156,0.0,-3442.283203125,853.6690063476562,17.0,-0.009491506032645702,2.2393243312835693,0.0,-713.3115844726562,858.8220825195312,8.430999755859375,0.8388656954379283,-0.7282508698129175,2.0607416204467075
1583.9205322265625,3612.4658203125,93.13999938964844,-261.6132507324219,133.57435607910156,0.0,-3442.283203125,853.6690063476562,17.0,-0.009491506032645702,2.2393243312835693,0.0,-713.3115844726562,858.8220825195312,8.430999755859375,1280.048828125,3767.2578125,93.13999938964844,-254.54757690429688,129.34495544433594,0.0,-4078.9912109375,1424.5777587890625,490.9402770996094,1.382116675376892,-1.6179662942886353,1.5239139795303345,8.79941463470459,-150.38473510742188,776.46728515625,0.2495593877125971,0.4720229593157971,1.2145212082289518
1280.048828125,3767.2578125,93.13999938964844,-254.54757690429688,129.34495544433594,0.0,-4078.9912109375,1424.5777587890625,490.9402770996094,1.382116675376892,-1.6179662942886353,1.5239139795303345,8.79941463470459,-150.38473510742188,776.46728515625,1239.7452392578125,3787.7255859375,93.13999938964844,-253.5958709716797,128.782958984375,0.0,-4078.97998046875,1403.769287109375,577.2804565429688,1.2942962646484375,-1.6068449020385742,1.53618586063385,8.291000366210938,-65.33053588867188,221.8170166015625,-0.9261819072668432,0.03530210790621509,0.15794894099731138
1239.7452392578125,3787.7255859375,93.13999938964844,-253.5958709716797,128.782958984375,0.0,-4078.97998046875,1403.769287109375,577.2804565429688,1.2942962646484375,-1.6068449020385742,1.53618586063385,8.291000366210938,-65.33053588867188,221.8170166015625,511.6783447265625,4156.3056640625,93.13999938964844,-235.8212127685547,119.07112884521484,0.0,-4078.97998046875,1354.860595703125,547.62060546875,1.2356215715408325,-1.5997501611709595,1.5432806015014648,8.291000366210938,-17.145111083984375,-15.548958778381348,0.15491131227295174,0.0718735476529715,2.9789159398473686
511.6783447265625,4156.3056640625,93.13999938964844,-235.8212127685547,119.07112884521484,0.0,-4078.97998046875,1354.860595703125,547.62060546875,1.2356215715408325,-1.5997501611709595,1.5432806015014648,8.291000366210938,-17.145111083984375,-15.548958778381348,470.1775207519531,4177.26806640625,93.13999938964844,-234.80252075195312,118.52590942382812,0.0,-4078.97998046875,1348.723388671875,552.245849609375,1.2164467573165894,-1.5980244874954224,1.5451979637145996,8.291000366210938,-61.33504104614258,109.32439422607422,0.9929595915976902,0.21007524476047162,0.17600197990475763
470.1775207519531,4177.26806640625,93.13999938964844,-234.80252075195312,118.52590942382812,0.0,-4078.97998046875,1348.723388671875,552.245849609375,1.2164467573165894,-1.5980244874954224,1.5451979637145996,8.291000366210938,-61.33504104614258,109.32439422607422,106.42636108398438,4360.5927734375,93.13999938964844,-226.11085510253906,113.79894256591797,0.0,-3752.1474609375,1618.305419921875,16.254268646240234,-0.019270634278655052,-2.7978851795196533,-0.007669903803616762,819.3717651367188,297.64569091796875,18.311859130859375,-0.12824239902457935,0.012680321937131558,1.5780041982362647
106.42636108398438,4360.5927734375,93.13999938964844,-226.11085510253906,113.79894256591797,0.0,-3752.1474609375,1618.305419921875,16.254268646240234,-0.019270634278655052,-2.7978851795196533,-0.007669903803616762,819.3717651367188,297.64569091796875,18.311859130859375,104.56111145019531,4361.53515625,93.13999938964844,-226.06719970703125,113.77313995361328,0.0,-3745.375,1620.7659912109375,16.337610244750977,-0.018311895430088043,-2.798076868057251,-0.007382282521575689,820.2825317382812,297.2448425292969,17.79200553894043,-0.16813253715663345,0.014946522213423727,0.009010662092951094
104.56111145019531,4361.53515625,93.13999938964844,-226.06719970703125,113.77313995361328,0.0,-3745.375,1620.7659912109375,16.337610244750977,-0.018311895430088043,-2.798076868057251,-0.007382282521575689,820.2825317382812,297.2448425292969,17.79200553894043,-156.09698486328125,4492.578125,93.13999938964844,-219.9149932861328,110.45399475097656,0.0,-2453.286865234375,1987.8890380859375,17.010000228881836,-0.009587380103766918,-2.9429421424865723,0.0,1318.197021484375,276.6499938964844,8.310999870300293,-0.9990675737147106,0.06460480226304252,1.18849842969653
-156.09698486328125,4492.578125,93.13999938964844,-219.9149932861328,110.45399475097656,0.0,-2453.286865234375,1987.8890380859375,17.010000228881836,-0.009587380103766918,-2.9429421424865723,0.0,1318.197021484375,276.6499938964844,8.310999870300293,-750.5504760742188,4790.5498046875,93.13999938964844,-206.26795959472656,103.28447723388672,0.0,-212.3915252685547,4753.81884765625,17.010000228881836,-0.009587380103766918,-1.452871561050415,0.0,-114.08475494384766,1405.3997802734375,8.310999870300293,-0.9856137315497941,-0.2946826867607039,2.785908073180586
-750.5504760742188,4790.5498046875,93.13999938964844,-206.26795959472656,103.28447723388672,0.0,-212.3915252685547,4753.81884765625,17.010000228881836,-0.009587380103766918,-1.452871561050415,0.0,-114.08475494384766,1405.3997802734375,8.310999870300293,-1228.8580322265625,5011.07275390625,109.24695587158203,-178.33924865722656,-1.9682726860046387,18.972858428955078,661.9820556640625,3642.192626953125,17.010000228881836,-0.009587380103766918,-0.6397658586502075,0.0,1066.628173828125,-807.3043823242188,8.310999870300293,0.9846027227846882,0.2053675031765716,2.395447464988507
-1228.8580322265625,5011.07275390625,109.24695587158203,-178.33924865722656,-1.9682726860046387,18.972858428955078,661.9820556640625,3642.192626953125,17.010000228881836,-0.009587380103766918,-0.6397658586502075,0.0,1066.628173828125,-807.3043823242188,8.310999870300293,-1592.1688232421875,4751.91064453125,92.90999603271484,-158.60557556152344,-131.48556518554688,0.0,124.39474487304688,3094.868408203125,17.010000228881836,-0.009587380103766918,1.6694505214691162,0.0,-27.630207061767578,-989.698974609375,8.321000099182129,-0.6340511877888073,-0.7525081470383234,2.2066565236191167
-1592.1688232421875,4751.91064453125,92.90999603271484,-158.60557556152344,-131.48556518554688,0.0,124.39474487304688,3094.868408203125,17.010000228881836,-0.009587380103766918,1.6694505214691162,0.0,-27.630207061767578,-989.698974609375,8.321000099182129,-1948.97119140625,4457.3291015625,92.90999603271484,-150.28729248046875,-123.67728424072266,0.0,-1678.1964111328125,2260.3125,17.010000228881836,-0.009587380103766918,-0.9799261093139648,0.0,-842.74609375,1057.3760986328125,8.310999870300293,-0.703074483360248,0.6165666150406761,2.309391833402568
-1948.97119140625,4457.3291015625,92.90999603271484,-150.28729248046875,-123.67728424072266,0.0,-1678.1964111328125,2260.3125,17.010000228881836,-0.009587380103766918,-0.9799261093139648,0.0,-842.74609375,1057.3760986328125,8.310999870300293,-1964.9022216796875,4444.20166015625,92.90999603271484,-149.9049530029297,-123.32493591308594,0.0,-1754.792724609375,2367.743896484375,17.010000228881836,-0.009395631961524487,-1.082511067390442,-9.58738019107841e-05,-556.4202270507812,889.983154296875,8.310999870300293,0.16823086713808477,0.40672755769210883,0.11046265832229807
-1964.9022216796875,4444.20166015625,92.90999603271484,-149.9049530029297,-123.32493591308594,0.0,-1754.792724609375,2367.743896484375,17.010000228881836,-0.009395631961524487,-1.082511067390442,-9.58738019107841e-05,-556.4202270507812,889.983154296875,8.310999870300293,-2088.99951171875,4342.16259765625,92.90999603271484,-146.89430236816406,-120.58985900878906,0.0,-1800.213134765625,2443.4462890625,17.010000228881836,-0.009491506032645702,-1.1429115533828735,0.0,110.12420654296875,-241.55006408691406,8.310999870300293,0.3352911512836837,-0.0008978956961869698,0.8383916898368184
-2088.99951171875,4342.16259765625,92.90999603271484,-146.89430236816406,-120.58985900878906,0.0,-1800.213134765625,2443.4462890625,17.010000228881836,-0.009491506032645702,-1.1429115533828735,0.0,110.12420654296875,-241.55006408691406,8.310999870300293,-2093.857666015625,4338.1806640625,92.90999603271484,-146.7748260498047,-120.48021697998047,0.0,-1796.47705078125,2435.26806640625,17.010000228881836,-0.009491506032645702,-1.1428157091140747,0.0,117.37920379638672,-253.577880859375,8.310999870300293,0.2925127431267779,0.12743748688133358,0.02847160810345173
-2093.857666015625,4338.1806640625,92.90999603271484,-146.7748260498047,-120.48021697998047,0.0,-1796.47705078125,2435.26806640625,17.010000228881836,-0.009491506032645702,-1.1428157091140747,0.0,117.37920379638672,-253.577880859375,8.310999870300293,-2341.802001953125,4134.79541015625,92.90999603271484,-140.5599365234375,-115.22991943359375,0.0,-1290.6829833984375,1125.7144775390625,17.010000228881836,-0.009587380103766918,-1.2537416219711304,9.58738019107841e-05,368.94207763671875,-1120.9051513671875,8.310999870300293,0.6947534944660646,-0.03441847722340387,1.724981544580558
-2341.802001953125,4134.79541015625,92.90999603271484,-140.5599365234375,-115.22991943359375,0.0,-1290.6829833984375,1125.7144775390625,17.010000228881836,-0.009587380103766918,-1.2537416219711304,9.58738019107841e-05,368.94207763671875,-1120.9051513671875,8.310999870300293,-2558.539794921875,3957.012451171875,92.90999603271484,-134.89413452148438,-110.72412872314453,0.0,-1379.4716796875,1485.58544921875,17.010000228881836,-0.009683254174888134,-1.3682149648666382,0.0,-186.48414611816406,859.617431640625,8.310999870300293,-0.6683401120890136,0.06676086768481089,1.5774633489669938
-2558.539794921875,3957.012451171875,92.90999603271484,-134.89413452148438,-110.72412872314453,0.0,-1379.4716796875,1485.58544921875,17.010000228881836,-0.009683254174888134,-1.3682149648666382,0.0,-186.48414611816406,859.617431640625,8.310999870300293,-2747.153076171875,3801.8857421875,92.90999603271484,-129.76065063476562,-106.90741729736328,0.0,-1287.831787109375,1011.6868896484375,17.010000228881836,-0.009491506032645702,-1.377323031425476,0.0,180.9640350341797,-923.9404296875,8.310999870300293,0.785864296124161,1.7082552878970596e-05,1.52591843143518
-2747.153076171875,3801.8857421875,92.90999603271484,-129.76065063476562,-106.90741729736328,0.0,-1287.831787109375,1011.6868896484375,17.010000228881836,-0.009491506032645702,-1.377323031425476,0.0,180.9640350341797,-923.9404296875,8.310999870300293,-3098.623779296875,3511.20654296875,92.90999603271484,-120.49268341064453,-100.04212188720703,0.0,827.4052124023438,-146.0164031982422,17.010000228881836,-0.009587380103766918,0.4555923044681549,0.0,925.5059814453125,445.2212219238281,8.310999870300293,0.06744876516326215,0.30099434264867,2.844059563645068
-3098.623779296875,3511.20654296875,92.90999603271484,-120.49268341064453,-100.04212188720703,0.0,827.4052124023438,-146.0164031982422,17.010000228881836,-0.009587380103766918,0.4555923044681549,0.0,925.5059814453125,445.2212219238281,8.310999870300293,-3232.758544921875,3399.726806640625,92.90999603271484,-117.02030181884766,-97.33030700683594,0.0,761.7681884765625,-358.6048889160156,17.010000228881836,-0.009683254174888134,1.717674970626831,0.0,-32.44493103027344,-832.4630737304688,8.3410005569458,-0.9967768956274085,-0.9347871427551321,1.131955611849186
-3232.758544921875,3399.726806640625,92.90999603271484,-117.02030181884766,-97.33030700683594,0.0,761.7681884765625,-358.6048889160156,17.010000228881836,-0.009683254174888134,1.717674970626831,0.0,-32.44493103027344,-832.4630737304688,8.3410005569458,-3513.7822265625,3165.79833984375,92.90999603271484,-109.8596420288086,-91.37964630126953,0.0,480.1965637207031,-1263.5994873046875,17.010000228881836,-0.009587380103766918,-0.18033862113952637,0.0,1128.2330322265625,-245.55062866210938,8.331000328063965,0.8515351108522309,0.8787928718612574,2.620669843235831
-3513.7822265625,3165.79833984375,92.90999603271484,-109.8596420288086,-91.37964630126953,0.0,480.1965637207031,-1263.5994873046875,17.010000228881836,-0.009587380103766918,-0.18033862113952637,0.0,1128.2330322265625,-245.55062866210938,8.331000328063965,-3712.2041015625,3001.00048828125,92.90999603271484,-105.03434753417969,-86.94434356689453,0.0,2951.135986328125,-1487.2835693359375,17.010000228881836,-0.009587380103766918,-0.15895876288414001,0.0,1392.57763671875,-220.93692016601562,8.310999870300293,0.9277381262285244,-0.04049025640079412,1.87628568507904
-3712.2041015625,3001.00048828125,92.90999603271484,-105.03434753417969,-86.94434356689453,0.0,2951.135986328125,-1487.2835693359375,17.010000228881836,-0.009587380103766918,-0.15895876288414001,0.0,1392.57763671875,-220.93692016601562,8.310999870300293,-3886.4755859375,2845.373291015625,100.8837661743164,-49.70035171508789,-87.62657165527344,15.445756912231445,3817.681884765625,91.2751693725586,15.430656433105469,-0.011025486513972282,2.4075827598571777,0.007478156127035618,-1000.6695556640625,983.0166015625,-0.7800993919372559,0.986526033310078,0.7028553087826518,1.8036051709720837
-3886.4755859375,2845.373291015625,100.8837661743164,-49.70035171508789,-87.62657165527344,15.445756912231445,3817.681884765625,91.2751693725586,15.430656433105469,-0.011025486513972282,2.4075827598571777,0.007478156127035618,-1000.6695556640625,983.0166015625,-0.7800993919372559,-3821.5966796875,2716.719482421875,92.93999481201172,97.76128387451172,-79.08128356933594,0.0,2045.433837890625,1295.609375,17.010000228881836,-0.009587380103766918,2.5804433822631836,-9.58738019107841e-05,-1193.202880859375,750.9407348632812,8.301000595092773,0.28896116866843535,0.01797332212704277,1.5203485334631353
-3821.5966796875,2716.719482421875,92.93999481201172,97.76128387451172,-79.08128356933594,0.0,2045.433837890625,1295.609375,17.010000228881836,-0.009587380103766918,2.5804433822631836,-9.58738019107841e-05,-1193.202880859375,750.9407348632812,8.301000595092773,-3728.39453125,2641.563720703125,92.93999481201172,95.44611358642578,-76.76611328125,0.0,1375.24072265625,2393.851806640625,17.010000228881836,-0.009491506032645702,1.5190244913101196,0.0,38.158756256103516,1401.568359375,8.310999870300293,0.6774162129749746,-0.5518984059888061,0.9667423006142215
-3728.39453125,2641.563720703125,92.93999481201172,95.44611358642578,-76.76611328125,0.0,1375.24072265625,2393.851806640625,17.010000228881836,-0.009491506032645702,1.5190244913101196,0.0,38.158756256103516,1401.568359375,8.310999870300293,-3551.443115234375,2499.983642578125,92.93999481201172,90.8884506225586,-72.41844940185547,0.0,1046.5660400390625,1903.6458740234375,17.010000228881836,-0.009587380103766918,0.7928763031959534,0.0,-691.844970703125,-766.255859375,8.310999870300293,-0.7295990465502498,0.27341743487902526,1.8961484452848794
-3551.443115234375,2499.983642578125,92.93999481201172,90.8884506225586,-72.41844940185547,0.0,1046.5660400390625,1903.6458740234375,17.010000228881836,-0.009587380103766918,0.7928763031959534,0.0,-691.844970703125,-766.255859375,8.310999870300293,-3394.87939453125,2375.767578125,92.93999481201172,86.65792846679688,-68.55792999267578,0.0,1750.8533935546875,1935.5513916015625,17.010000228881836,-0.009587380103766918,-0.2929903268814087,0.0,997.03759765625,-290.08477783203125,8.310999870300293,0.7705944401893845,-0.4020085126671287,1.7649236878671104
-3394.87939453125,2375.767578125,92.93999481201172,86.65792846679688,-68.55792999267578,0.0,1750.8533935546875,1935.5513916015625,17.010000228881836,-0.009587380103766918,-0.2929903268814087,0.0,997.03759765625,-290.08477783203125,8.310999870300293,-3308.02294921875,2307.146484375,92.93999481201172,84.218505859375,-66.43850708007812,0.0,1706.7369384765625,1985.41455078125,17.010000228881836,-0.009587380103766918,-0.8333350419998169,0.0,-484.56488037109375,419.7566223144531,8.321000099182129,-0.7584604533569775,0.584538122852201,1.0145075029385637
-3308.02294921875,2307.146484375,92.93999481201172,84.218505859375,-66.43850708007812,0.0,1706.7369384765625,1985.41455078125,17.010000228881836,-0.009587380103766918,-0.8333350419998169,0.0,-484.56488037109375,419.7566223144531,8.321000099182129,-3214.09619140625,2233.12744140625,92.93999481201172,81.49882507324219,-64.17882537841797,0.0,1175.3740234375,2715.58740234375,17.010000228881836,-0.009683254174888134,-1.0037987232208252,0.0,-510.02655029296875,789.5848388671875,8.321000099182129,-0.3401540723871721,0.037439636269517074,1.137944314045967
-3214.09619140625,2233.12744140625,92.93999481201172,81.49882507324219,-64.17882537841797,0.0,1175.3740234375,2715.58740234375,17.010000228881836,-0.009683254174888134,-1.0037987232208252,0.0,-510.02655029296875,789.5848388671875,8.321000099182129,-3205.627197265625,2226.526611328125,92.93999481201172,81.24974060058594,-63.979740142822266,0.0,1121.5343017578125,2798.901611328125,17.010000228881836,-0.009587380103766918,-1.0287258625030518,9.58738019107841e-05,-525.6790161132812,823.3526000976562,8.321000099182129,-0.6403648854154391,0.20978194827392282,0.10316657336309021
-3205.627197265625,2226.526611328125,92.93999481201172,81.24974060058594,-63.979740142822266,0.0,1121.5343017578125,2798.901611328125,17.010000228881836,-0.009587380103766918,-1.0287258625030518,9.58738019107841e-05,-525.6790161132812,823.3526000976562,8.321000099182129,-3016.233642578125,2077.322998046875,92.93999481201172,75.45111083984375,-59.611114501953125,0.0,463.972412109375,1640.28515625,17.010000228881836,-0.009587380103766918,-2.716871738433838,0.0,-1083.168212890625,-508.4349060058594,8.310999870300293,0.7278691490460092,-0.3975103893384208,2.4107758695143104
-3016.233642578125,2077.322998046875,92.93999481201172,75.45111083984375,-59.611114501953125,0.0,463.972412109375,1640.28515625,17.010000228881836,-0.009587380103766918,-2.716871738433838,0.0,-1083.168212890625,-508.4349060058594,8.310999870300293,-2874.621826171875,1965.462890625,92.93999481201172,71.19750213623047,-56.354251861572266,0.0,648.1212768554688,44.172142028808594,17.010000228881836,-0.009587380103766918,0.06174272671341896,0.0,1227.6904296875,42.63656997680664,8.321000099182129,0.4159355118193413,0.6698519412362769,1.9370131471679173
-2874.621826171875,1965.462890625,92.93999481201172,71.19750213623047,-56.354251861572266,0.0,648.1212768554688,44.172142028808594,17.010000228881836,-0.009587380103766918,0.06174272671341896,0.0,1227.6904296875,42.63656997680664,8.321000099182129,-2756.968017578125,1872.0159912109375,92.93999481201172,67.51846313476562,-53.81846618652344,0.0,2525.29736328125,970.4215698242188,17.010000228881836,-0.009587380103766918,0.7725510597229004,-9.58738019107841e-05,926.613037109375,892.4329833984375,8.321000099182129,0.15079261705158709,0.16013043147620123,1.6984776650489337
-2756.968017578125,1872.0159912109375,92.93999481201172,67.51846313476562,-53.81846618652344,0.0,2525.29736328125,970.4215698242188,17.010000228881836,-0.009587380103766918,0.7725510597229004,-9.58738019107841e-05,926.613037109375,892.4329833984375,8.321000099182129,-2671.9970703125,1804.044189453125,92.93999481201172,64.91607666015625,-52.058536529541016,0.0,3901.679443359375,2072.337890625,26.248586654663086,0.22166022658348083,0.5499321222305298,0.1046941876411438,1135.7911376953125,735.5942993164062,291.55548095703125,0.9150347781279179,-0.09892212333018423,1.278467431387881
-2671.9970703125,1804.044189453125,92.93999481201172,64.91607666015625,-52.058536529541016,0.0,3901.679443359375,2072.337890625,26.248586654663086,0.22166022658348083,0.5499321222305298,0.1046941876411438,1135.7911376953125,735.5942993164062,291.55548095703125,-2647.893310546875,1784.850341796875,92.93999481201172,64.19216918945312,-51.562171936035156,0.0,4060.609130859375,2223.179931640625,175.43765258789062,0.9484794735908508,1.1171214580535889,0.9775292277336121,-18.976133346557617,13.851041793823242,-1.1964101791381836,-0.8647982995541589,0.08915799978486234,0.3693131185963523
-2647.893310546875,1784.850341796875,92.93999481201172,64.19216918945312,-51.562171936035156,0.0,4060.609130859375,2223.179931640625,175.43765258789062,0.9484794735908508,1.1171214580535889,0.9775292277336121,-18.976133346557617,13.851041793823242,-1.1964101791381836,-2630.7412109375,1770.943603515625,92.93999481201172,63.67876052856445,-51.20875930786133,0.0,4050.55322265625,2211.623046875,151.76669311523438,0.8946942687034607,0.9576833844184875,0.8148314356803894,-89.62808227539062,-96.00489807128906,-138.90408325195312,-0.12913302357984335,0.16328014651533565,0.2731062276103273
-2630.7412109375,1770.943603515625,92.93999481201172,63.67876052856445,-51.20875930786133,0.0,4050.55322265625,2211.623046875,151.76669311523438,0.8946942687034607,0.9576833844184875,0.8148314356803894,-89.62808227539062,-96.00489807128906,-138.90408325195312,-2495.70361328125,1661.910888671875,92.93999481201172,59.77554702758789,-48.503273010253906,0.0,4078.989990234375,2467.461181640625,661.1428833007812,1.230827808380127,1.5420341491699219,1.5436640977859497,-8.371000289916992,152.11056518554688,405.65869140625,0.5914545745589896,-0.03520148440133734,2.2996579623914357
-2495.70361328125,1661.910888671875,92.93999481201172,59.77554702758789,-48.503273010253906,0.0,4078.989990234375,2467.461181640625,661.1428833007812,1.230827808380127,1.5420341491699219,1.5436640977859497,-8.371000289916992,152.11056518554688,405.65869140625,-2441.66259765625,1618.0389404296875,92.93999481201172,58.24171829223633,-47.40635681152344,0.0,4078.010009765625,2253.81103515625,260.8282470703125,0.845127522945404,1.525447964668274,1.4998496770858765,-45.29882049560547,-676.2376098632812,-840.4779052734375,-0.827733794064189,-0.28269309485354527,0.9169790708322836
-2441.66259765625,1618.0389404296875,92.93999481201172,58.24171829223633,-47.40635681152344,0.0,4078.010009765625,2253.81103515625,260.8282470703125,0.845127522945404,1.525447964668274,1.4998496770858765,-45.29882049560547,-676.2376098632812,-840.4779052734375,-2370.4150390625,1560.004150390625,92.93999481201172,56.19110870361328,-45.911109924316406,0.0,2909.359375,1363.4346923828125,17.010000228881836,-0.009587380103766918,0.3261626660823822,0.0,-1302.5328369140625,-481.5373229980469,8.321000099182129,-0.7078548452465272,0.22209475133591344,1.2505329913806804
-2370.4150390625,1560.004150390625,92.93999481201172,56.19110870361328,-45.911109924316406,0.0,2909.359375,1363.4346923828125,17.010000228881836,-0.009587380103766918,0.3261626660823822,0.0,-1302.5328369140625,-481.5373229980469,8.321000099182129,-2363.12255859375,1554.1080322265625,92.93999481201172,55.98089599609375,-45.75594711303711,0.0,2738.61962890625,1305.5474853515625,17.010000228881836,-0.009587380103766918,0.298455148935318,0.0,-1336.3121337890625,-420.5539245605469,8.321000099182129,-0.6166257263635417,-0.0008335657885250074,0.12914461148476164
-2363.12255859375,1554.1080322265625,92.93999481201172,55.98089599609375,-45.75594711303711,0.0,2738.61962890625,1305.5474853515625,17.010000228881836,-0.009587380103766918,0.298455148935318,0.0,-1336.3121337890625,-420.5539245605469,8.321000099182129,-2259.82080078125,1469.4188232421875,92.93999481201172,52.88874435424805,-43.47874450683594,0.0,2809.447021484375,1665.6407470703125,17.010000228881836,-0.009587380103766918,1.4893035888671875,0.0,60.21039581298828,756.46875,8.310999870300293,0.47631118366138836,0.5724507393583291,1.8922795324230606
-2259.82080078125,1469.4188232421875,92.93999481201172,52.88874435424805,-43.47874450683594,0.0,2809.447021484375,1665.6407470703125,17.010000228881836,-0.009587380103766918,1.4893035888671875,0.0,60.21039581298828,756.46875,8.310999870300293,-2217.619873046875,1434.6292724609375,92.93999481201172,51.58867645263672,-42.50983810424805,0.0,2765.341064453125,2417.703857421875,17.010000228881836,-0.009587380103766918,1.6953363418579102,0.0,-133.2791290283203,1078.7296142578125,8.310999870300293,0.6483016834237219,0.061528657727861584,0.8079585828389924
-2217.619873046875,1434.6292724609375,92.93999481201172,51.58867645263672,-42.50983810424805,0.0,2765.341064453125,2417.703857421875,17.010000228881836,-0.009587380103766918,1.6953363418579102,0.0,-133.2791290283203,1078.7296142578125,8.310999870300293,-2099.13916015625,1336.7208251953125,92.93999481201172,47.67196273803711,-39.646480560302734,0.0,2209.088623046875,5104.4287109375,230.10377502441406,1.3845134973526,-3.1403462886810303,1.5810548067092896,-146.3043212890625,-28.67098045349121,730.2540283203125,0.4780307742408769,0.02134067151100015,2.3854474168500843
-2099.13916015625,1336.7208251953125,92.93999481201172,47.67196273803711,-39.646480560302734,0.0,2209.088623046875,5104.4287109375,230.10377502441406,1.3845134973526,-3.1403462886810303,1.5810548067092896,-146.3043212890625,-28.67098045349121,730.2540283203125,-2098.7060546875,1336.363525390625,92.93999481201172,47.6556510925293,-39.635650634765625,0.0,2207.767822265625,5104.24462890625,236.6436767578125,1.3842259645462036,3.136798858642578,1.5743436813354492,-145.388671875,-27.07563018798828,728.2672729492188,0.2558688544065545,0.0025742974802944866,0.021487290183756613
-2098.7060546875,1336.363525390625,92.93999481201172,47.6556510925293,-39.635650634765625,0.0,2207.767822265625,5104.24462890625,236.6436767578125,1.3842259645462036,3.136798858642578,1.5743436813354492,-145.388671875,-27.07563018798828,728.2672729492188,-2077.082275390625,1318.231201171875,92.93999481201172,46.906185150146484,-39.086185455322266,0.0,2200.152587890625,5102.97998046875,255.66696166992188,1.3454928398132324,3.0981619358062744,1.528132438659668,80.39289855957031,-8.261000633239746,-460.9737854003906,-0.8694025997147792,-0.20056446414047574,0.44501502626518175
-2077.082275390625,1318.231201171875,92.93999481201172,46.906185150146484,-39.086185455322266,0.0,2200.152587890625,5102.97998046875,255.66696166992188,1.3454928398132324,3.0981619358062744,1.528132438659668,80.39289855957031,-8.261000633239746,-460.9737854003906,-1979.0150146484375,1236.19091796875,92.93999481201172,43.36906051635742,-36.48003005981445,0.0,3517.346435546875,3236.767822265625,17.010000228881836,-0.009587380103766918,2.4258947372436523,0.0,1047.709716796875,-943.4027709960938,8.321000099182129,-0.9585450492663702,-0.142868390740682,2.1804734724760095
-1979.0150146484375,1236.19091796875,92.93999481201172,43.36906051635742,-36.48003005981445,0.0,3517.346435546875,3236.767822265625,17.010000228881836,-0.009587380103766918,2.4258947372436523,0.0,1047.709716796875,-943.4027709960938,8.321000099182129,-1953.7716064453125,1215.1546630859375,92.93999481201172,42.65882110595703,-35.7788200378418,0.0,3748.724853515625,3024.693603515625,17.010000228881836,-0.009491506032645702,2.0881314277648926,-9.58738019107841e-05,-47.11182403564453,52.84499740600586,8.301000595092773,0.34113339744866455,0.9109035256193768,0.646356219186103
-1953.7716064453125,1215.1546630859375,92.93999481201172,42.65882110595703,-35.7788200378418,0.0,3748.724853515625,3024.693603515625,17.010000228881836,-0.009491506032645702,2.0881314277648926,-9.58738019107841e-05,-47.11182403564453,52.84499740600586,8.301000595092773,-1865.2332763671875,1141.3197021484375,92.93999481201172,40.09170913696289,-33.211708068847656,0.0,2640.17236328125,4687.3271484375,17.010000228881836,-0.009587380103766918,2.1735548973083496,-9.58738019107841e-05,-784.4608154296875,1140.7437744140625,8.301000595092773,0.9949253722457487,0.007305012012495469,2.114166767898922
-1865.2332763671875,1141.3197021484375,92.93999481201172,40.09170913696289,-33.211708068847656,0.0,2640.17236328125,4687.3271484375,17.010000228881836,-0.009587380103766918,2.1735548973083496,-9.58738019107841e-05,-784.4608154296875,1140.7437744140625,8.301000595092773,-1762.0548095703125,1056.6103515625,92.93999481201172,36.8734130859375,-29.9934139251709,0.0,3607.129638671875,3140.826904296875,17.010000228881836,-0.009587380103766918,2.09206223487854,9.58738019107841e-05,700.5626831054688,-1211.6328125,8.310999870300293,-0.988070231935664,0.0217073975068155,2.6792463676025164
-1762.0548095703125,1056.6103515625,92.93999481201172,36.8734130859375,-29.9934139251709,0.0,3607.129638671875,3140.826904296875,17.010000228881836,-0.009587380103766918,2.09206223487854,9.58738019107841e-05,700.5626831054688,-1211.6328125,8.310999870300293,-1695.7696533203125,1003.050048828125,92.93999481201172,34.649261474609375,-27.769262313842773,0.0,3192.82275390625,826.416015625,17.010000228881836,-0.009587380103766918,0.5349758267402649,0.0,-1167.76220703125,-789.1654052734375,8.321000099182129,-0.8380545669732655,0.4700320402639173,1.8547771573585408
-1695.7696533203125,1003.050048828125,92.93999481201172,34.649261474609375,-27.769262313842773,0.0,3192.82275390625,826.416015625,17.010000228881836,-0.009587380103766918,0.5349758267402649,0.0,-1167.76220703125,-789.1654052734375,8.321000099182129,-1636.9005126953125,956.180419921875,92.93999481201172,32.54768753051758,-25.667688369750977,0.0,3412.895263671875,998.8872680664062,17.010000228881836,-0.009587380103766918,0.6975777745246887,9.58738019107841e-05,622.5445556640625,521.8663940429688,8.321000099182129,0.5398350237086527,0.12200943148156705,1.754396948817245
-1636.9005126953125,956.180419921875,92.93999481201172,32.54768753051758,-25.667688369750977,0.0,3412.895263671875,998.8872680664062,17.010000228881836,-0.009587380103766918,0.6975777745246887,9.58738019107841e-05,622.5445556640625,521.8663940429688,8.321000099182129,-1605.2615966796875,931.3758544921875,92.93999481201172,31.360292434692383,-24.48029327392578,0.0,3470.269775390625,1049.3612060546875,17.010000228881836,-0.009587380103766918,0.7790704965591431,0.0,-85.30181121826172,-65.97733306884766,8.321000099182129,-0.09511211282002696,-0.5336159446172243,0.9854395448031283
-1605.2615966796875,931.3758544921875,92.93999481201172,31.360292434692383,-24.48029327392578,0.0,3470.269775390625,1049.3612060546875,17.010000228881836,-0.009587380103766918,0.7790704965591431,0.0,-85.30181121826172,-65.97733306884766,8.321000099182129,-1548.336181640625,887.3966064453125,92.93999481201172,29.112926483154297,-22.22292709350586,0.0,2725.6455078125,1264.4366455078125,17.010000228881836,-0.009587380103766918,-1.975671410560608,0.0,-432.736083984375,-938.8585205078125,8.331000328063965,0.765903301026909,0.9027625434396908,1.8831371976022524
-1548.336181640625,887.3966064453125,92.93999481201172,29.112926483154297,-22.22292709350586,0.0,2725.6455078125,1264.4366455078125,17.010000228881836,-0.009587380103766918,-1.975671410560608,0.0,-432.736083984375,-938.8585205078125,8.331000328063965,-1548.2899169921875,887.3599853515625,92.93999481201172,0.0,0.0,0.0,1889.798583984375,1478.0618896484375,17.010000228881836,-0.009587380103766918,0.9363034963607788,0.0,533.8551635742188,761.9972534179688,8.3410005569458,0.29426441809006054,-0.9945540994407474,1.6073791095695498
-1548.2899169921875,887.3599853515625,92.93999481201172,0.0,0.0,0.0,1889.798583984375,1478.0618896484375,17.010000228881836,-0.009587380103766918,0.9363034963607788,0.0,533.8551635742188,761.9972534179688,8.3410005569458,-1548.2899169921875,887.3599853515625,92.93999481201172,0.0,0.0,0.0,1906.7928466796875,1501.004638671875,17.010000228881836,-0.009587380103766918,0.8642064332962036,0.0,584.899658203125,722.5826416015625,8.337510108947754,0.5637426555503577,-0.3590795025340864,0.029455897140096
-1548.2899169921875,887.3599853515625,92.93999481201172,0.0,0.0,0.0,1906.7928466796875,1501.004638671875,17.010000228881836,-0.009587380103766918,0.8642064332962036,0.0,584.899658203125,722.5826416015625,8.337510108947754,-1548.2899169921875,887.3599853515625,92.93999481201172,0.0,0.0,0.0,2001.007080078125,1601.130615234375,17.010000228881836,-0.009683254174888134,0.7218338251113892,0.0,-84.44522094726562,-76.23980712890625,8.310999870300293,-0.36503960907233934,0.0564970842554554,0.48296112426423576
-1548.2899169921875,887.3599853515625,92.93999481201172,0.0,0.0,0.0,2001.007080078125,1601.130615234375,17.010000228881836,-0.009683254174888134,0.7218338251113892,0.0,-84.44522094726562,-76.23980712890625,8.310999870300293,-1548.2899169921875,887.3599853515625,92.93999481201172,0.0,0.0,0.0,2641.51953125,1059.0404052734375,17.010000228881836,-0.009587380103766918,-2.3547563552856445,0.0,828.7279052734375,628.9317626953125,8.331000328063965,-0.6742150432093337,-0.8445898406079986,1.904698111246745
-1548.2899169921875,887.3599853515625,92.93999481201172,0.0,0.0,0.0,2641.51953125,1059.0404052734375,17.010000228881836,-0.009587380103766918,-2.3547563552856445,0.0,828.7279052734375,628.9317626953125,8.331000328063965,-1548.2899169921875,887.3599853515625,92.93999481201172,0.0,0.0,0.0,2755.43603515625,1173.24072265625,17.010000228881836,-0.009299758821725845,-2.1892781257629395,9.58738019107841e-05,205.5743865966797,261.6370849609375,8.321000099182129,0.9567370782009748,-0.1818554683968087,0.21785776683620384
-1548.2899169921875,887.3599853515625,92.93999481201172,0.0,0.0,0.0,2755.43603515625,1173.24072265625,17.010000228881836,-0.009299758821725845,-2.1892781257629395,9.58738019107841e-05,205.5743865966797,261.6370849609375,8.321000099182129,-1548.2899169921875,887.3599853515625,92.93999481201172,0.0,0.0,0.0,4078.989990234375,1775.375,1052.6524658203125,-1.1304479837417603,1.5480742454528809,1.5916008949279785,-8.371000289916992,-343.0915832519531,790.7096557617188,-0.7166151228947528,0.2328339063141662,2.883404790565322
-1548.2899169921875,887.3599853515625,92.93999481201172,0.0,0.0,0.0,4078.989990234375,1775.375,1052.6524658203125,-1.1304479837417603,1.5480742454528809,1.5916008949279785,-8.371000289916992,-343.0915832519531,790.7096557617188,-1548.2899169921875,887.3599853515625,92.93999481201172,0.0,0.0,0.0,4078.989990234375,1737.2835693359375,1118.8431396484375,-1.1032198667526245,1.5496082305908203,1.5899710655212402,-8.361000061035156,107.19322967529297,-277.3187255859375,0.3785240073865519,0.44684312529325165,0.5084931741141077
-1548.2899169921875,887.3599853515625,92.93999481201172,0.0,0.0,0.0,4078.989990234375,1737.2835693359375,1118.8431396484375,-1.1032198667526245,1.5496082305908203,1.5899710655212402,-8.361000061035156,107.19322967529297,-277.3187255859375,-1548.2899169921875,887.3599853515625,92.93999481201172,0.0,0.0,0.0,2440.713623046875,4225.64892578125,17.0,-0.009587380103766918,2.1176605224609375,0.0,-765.1843872070312,1246.14794921875,8.421000480651855,0.9379000691844127,-0.09574679698754988,2.8624339972753603
-1548.2899169921875,887.3599853515625,92.93999481201172,0.0,0.0,0.0,2440.713623046875,4225.64892578125,17.0,-0.009587380103766918,2.1176605224609375,0.0,-765.1843872070312,1246.14794921875,8.421000480651855,-3197.013671875,2708.93212890625,207.9482879638672,-1130.733154296875,1248.1328125,-379.02886962890625,2376.748046875,5102.97998046875,562.4984130859375,0.7027549743652344,0.012559467926621437,-1.5628387928009033,379.7357482910156,-8.261000633239746,278.8520202636719,0.3010771174481316,-0.4588682561717188,1.7262288959057628
-3197.013671875,2708.93212890625,207.9482879638672,-1130.733154296875,1248.1328125,-379.02886962890625,2376.748046875,5102.97998046875,562.4984130859375,0.7027549743652344,0.012559467926621437,-1.5628387928009033,379.7357482910156,-8.261000633239746,278.8520202636719,-3143.03173828125,4547.8740234375,129.91378784179688,480.9025573730469,317.0496826171875,-670.4033203125,2961.32421875,4127.15869140625,2025.7362060546875,-0.03528155758976936,-2.1429712772369385,3.1286497116088867,-573.083984375,-899.1757202148438,-51.4677619934082,0.8620561987709677,0.09571058658737606,2.917260538986028
-3143.03173828125,4547.8740234375,129.91378784179688,480.9025573730469,317.0496826171875,-670.4033203125,2961.32421875,4127.15869140625,2025.7362060546875,-0.03528155758976936,-2.1429712772369385,3.1286497116088867,-573.083984375,-899.1757202148438,-51.4677619934082,-2184.272705078125,4947.32177734375,105.58465576171875,338.5551452636719,-79.93746948242188,42.11359405517578,1939.66015625,2719.07373046875,43.74873733520508,-0.0013422331539914012,-2.411705493927002,-3.0288450717926025,-185.4348602294922,-244.50552368164062,49.15458297729492,-0.9170022573469265,0.9439320448508187,2.6661065620307483
-2184.272705078125,4947.32177734375,105.58465576171875,338.5551452636719,-79.93746948242188,42.11359405517578,1939.66015625,2719.07373046875,43.74873733520508,-0.0013422331539914012,-2.411705493927002,-3.0288450717926025,-185.4348602294922,-244.50552368164062,49.15458297729492,-1973.9052734375,4898.28076171875,94.02368927001953,325.5782775878906,-75.01373291015625,-21.44687271118164,1857.765380859375,2589.677490234375,35.29016876220703,-0.04764927923679352,-2.086789131164551,-0.7434054613113403,0.029389381408691406,-100.37422943115234,-71.13665008544922,-0.8363227820500848,-0.3247098130677525,0.6394877166334965
-1973.9052734375,4898.28076171875,94.02368927001953,325.5782775878906,-75.01373291015625,-21.44687271118164,1857.765380859375,2589.677490234375,35.29016876220703,-0.04764927923679352,-2.086789131164551,-0.7434054613113403,0.029389381408691406,-100.37422943115234,-71.13665008544922,-1715.9935302734375,4839.0458984375,93.12999725341797,320.0478210449219,-73.38660430908203,0.0,1848.68408203125,2546.6064453125,17.010000228881836,-0.009491506032645702,-2.241816997528076,0.0,-36.21735382080078,-45.77613830566406,8.321000099182129,0.015683931408975837,0.00654017304000149,0.799089787491539
-1715.9935302734375,4839.0458984375,93.12999725341797,320.0478210449219,-73.38660430908203,0.0,1848.68408203125,2546.6064453125,17.010000228881836,-0.009491506032645702,-2.241816997528076,0.0,-36.21735382080078,-45.77613830566406,8.321000099182129,-856.126953125,4643.923828125,93.12999725341797,300.0792541503906,-67.34040832519531,0.0,617.924072265625,183.7481689453125,17.010000228881836,-0.009587380103766918,-1.9146956205368042,0.0,-476.8174133300781,-1322.3575439453125,8.321000099182129,0.8164026573958449,0.05519703924669114,2.8340923628968255
-856.126953125,4643.923828125,93.12999725341797,300.0792541503906,-67.34040832519531,0.0,617.924072265625,183.7481689453125,17.010000228881836,-0.009587380103766918,-1.9146956205368042,0.0,-476.8174133300781,-1322.3575439453125,8.321000099182129,-778.8005981445312,4626.5576171875,93.12999725341797,298.2185974121094,-66.80059814453125,0.0,495.8005065917969,-159.16282653808594,17.010000228881836,-0.009587380103766918,-1.9170924425125122,0.0,-477.3370666503906,-1326.392578125,8.321000099182129,0.582663558746884,-0.03010393196431312,0.34843152296075175
-778.8005981445312,4626.5576171875,93.12999725341797,298.2185974121094,-66.80059814453125,0.0,495.8005065917969,-159.16282653808594,17.010000228881836,-0.009587380103766918,-1.9170924425125122,0.0,-477.3370666503906,-1326.392578125,8.321000099182129,-215.10643005371094,4500.9853515625,93.12999725341797,284.7399597167969,-62.9987907409668,0.0,-1660.648681640625,-968.6509399414062,17.010000228881836,-0.009587380103766918,2.5047988891601562,0.0,-1127.676513671875,799.8797607421875,8.321000099182129,0.3119772955990189,-0.461641654384144,1.9315318805159194
-215.10643005371094,4500.9853515625,93.12999725341797,284.7399597167969,-62.9987907409668,0.0,-1660.648681640625,-968.6509399414062,17.010000228881836,-0.009587380103766918,2.5047988891601562,0.0,-1127.676513671875,799.8797607421875,8.321000099182129,469.81024169921875,4350.6044921875,93.12999725341797,268.8251647949219,-58.624656677246094,0.0,-4079.016845703125,915.7626953125,538.9364013671875,1.1547999382019043,1.591313362121582,-1.5529638528823853,9.18392562866211,496.2760925292969,1090.0797119140625,0.917431848473322,0.05207302114861363,2.4777106388449255
469.81024169921875,4350.6044921875,93.12999725341797,268.8251647949219,-58.624656677246094,0.0,-4079.016845703125,915.7626953125,538.9364013671875,1.1547999382019043,1.591313362121582,-1.5529638528823853,9.18392562866211,496.2760925292969,1090.0797119140625,472.19769287109375,4350.08251953125,93.12999725341797,268.7718505859375,-58.6071662902832,0.0,-4079.006103515625,920.1675415039062,548.5675659179688,1.1561421155929565,1.5917927026748657,-1.552484393119812,8.999735832214355,493.9777526855469,1088.634033203125,0.996761029477945,-0.4571297596039975,0.014690428921781518
472.19769287109375,4350.08251953125,93.12999725341797,268.7718505859375,-58.6071662902832,0.0,-4079.006103515625,920.1675415039062,548.5675659179688,1.1561421155929565,1.5917927026748657,-1.552484393119812,8.999735832214355,493.9777526855469,1088.634033203125,774.2011108398438,4284.46240234375,93.12999725341797,261.9423522949219,-56.69126892089844,0.0,-4078.921630859375,984.3632202148438,289.29156494140625,0.9691882133483887,-1.5899710655212402,1.5529638528823853,27.354026794433594,447.7673034667969,-930.3182373046875,-0.7633617535214665,-0.858954005075682,1.1355982741528265
774.2011108398438,4284.46240234375,93.12999725341797,261.9423522949219,-56.69126892089844,0.0,-4078.921630859375,984.3632202148438,289.29156494140625,0.9691882133483887,-1.5899710655212402,1.5529638528823853,27.354026794433594,447.7673034667969,-930.3182373046875,1152.29248046875,4202.80908203125,93.12999725341797,253.1331329345703,-54.45942306518555,0.0,-4079.0185546875,932.6571655273438,359.52056884765625,1.2487562894821167,-1.598791480064392,1.5454856157302856,9.137359619140625,-139.0216064453125,417.2503662109375,0.6902131995663734,-0.3279231990506751,1.4618988679826543
1152.29248046875,4202.80908203125,93.12999725341797,253.1331329345703,-54.45942306518555,0.0,-4079.0185546875,932.6571655273438,359.52056884765625,1.2487562894821167,-1.598791480064392,1.5454856157302856,9.137359619140625,-139.0216064453125,417.2503662109375,1504.3499755859375,4127.25830078125,93.12999725341797,244.64541625976562,-52.46187973022461,0.0,-4078.97998046875,1269.5,1179.7591552734375,0.6079357862472534,1.5823971033096313,-1.5641810894012451,8.310999870300293,739.8554077148438,491.83978271484375,0.9984498835947551,-0.38832805567422474,1.4142565602043078
1504.3499755859375,4127.25830078125,93.12999725341797,244.64541625976562,-52.46187973022461,0.0,-4078.97998046875,1269.5,1179.7591552734375,0.6079357862472534,1.5823971033096313,-1.5641810894012451,8.310999870300293,739.8554077148438,491.83978271484375,1952.343017578125,4031.22314453125,93.12999725341797,233.59893798828125,-50.01496505737305,0.0,-4078.97998046875,227.68069458007812,409.430419921875,0.6321918368339539,1.5826846361160278,-1.5637975931167603,8.301000595092773,-1163.1063232421875,-873.4907836914062,-0.7946261335309088,-0.015132518408790513,1.8771884219745516
1952.343017578125,4031.22314453125,93.12999725341797,233.59893798828125,-50.01496505737305,0.0,-4078.97998046875,227.68069458007812,409.430419921875,0.6321918368339539,1.5826846361160278,-1.5637975931167603,8.301000595092773,-1163.1063232421875,-873.4907836914062,2362.17041015625,3943.5654296875,93.12999725341797,223.8465576171875,-47.862388610839844,0.0,-2833.750244140625,-2104.27490234375,17.010000228881836,-0.009587380103766918,2.1560099124908447,-9.58738019107841e-05,864.912109375,-1310.088623046875,8.321000099182129,-0.9995650808527846,-0.01607489670262979,1.8029796547229608
2362.17041015625,3943.5654296875,93.12999725341797,223.8465576171875,-47.862388610839844,0.0,-2833.750244140625,-2104.27490234375,17.010000228881836,-0.009587380103766918,2.1560099124908447,-9.58738019107841e-05,864.912109375,-1310.088623046875,8.321000099182129,2610.580322265625,3890.46630859375,93.12999725341797,218.0078125,-46.512699127197266,0.0,-2645.740234375,-2390.287841796875,17.010000228881836,-0.009587380103766918,2.1416289806365967,-9.58738019107841e-05,-107.4290542602539,162.2506103515625,8.321000099182129,0.2241236157571992,0.09794711210869235,1.1234903297000187
2610.580322265625,3890.46630859375,93.12999725341797,218.0078125,-46.512699127197266,0.0,-2645.740234375,-2390.287841796875,17.010000228881836,-0.009587380103766918,2.1416289806365967,-9.58738019107841e-05,-107.4290542602539,162.2506103515625,8.321000099182129,3132.85009765625,3779.483642578125,93.12999725341797,206.04029846191406,-43.555824279785156,0.0,-2757.169189453125,-1391.0086669921875,17.010000228881836,-0.009587380103766918,1.285571813583374,0.0,177.2495880126953,592.2789916992188,8.321000099182129,0.14572114289475802,-0.2022783212124307,2.4610380398263345
3132.85009765625,3779.483642578125,93.12999725341797,206.04029846191406,-43.555824279785156,0.0,-2757.169189453125,-1391.0086669921875,17.010000228881836,-0.009587380103766918,1.285571813583374,0.0,177.2495880126953,592.2789916992188,8.321000099182129,3329.77734375,3737.937255859375,93.12999725341797,201.4001007080078,-42.395774841308594,0.0,-2260.195556640625,-695.6561279296875,17.010000228881836,-0.009587380103766918,0.6541469097137451,0.0,886.1401977539062,691.2526245117188,8.321000099182129,0.8160780287309943,-0.2805933644939284,0.9688538781016405
3329.77734375,3737.937255859375,93.12999725341797,201.4001007080078,-42.395774841308594,0.0,-2260.195556640625,-695.6561279296875,17.010000228881836,-0.009587380103766918,0.6541469097137451,0.0,886.1401977539062,691.2526245117188,8.321000099182129,3648.515380859375,3671.11376953125,93.12999725341797,193.65440368652344,-40.4593505859375,0.0,-2202.956787109375,-1175.015625,17.010000228881836,-0.009683254174888134,2.3836143016815186,0.0,587.0283813476562,-752.2499389648438,8.331000328063965,-0.8371936493639413,-0.8445133669867299,1.6119440473025008
3648.515380859375,3671.11376953125,93.12999725341797,193.65440368652344,-40.4593505859375,0.0,-2202.956787109375,-1175.015625,17.010000228881836,-0.009683254174888134,2.3836143016815186,0.0,587.0283813476562,-752.2499389648438,8.331000328063965,3800.583984375,3639.444091796875,93.12999725341797,189.84698486328125,-39.50749206542969,0.0,-2224.916015625,-1217.4898681640625,17.010000228881836,-0.009491506032645702,2.854738235473633,0.0,-531.95068359375,139.3445281982422,8.310999870300293,0.8579762108400636,0.6096286665916592,0.7921136814193801
3800.583984375,3639.444091796875,93.12999725341797,189.84698486328125,-39.50749206542969,0.0,-2224.916015625,-1217.4898681640625,17.010000228881836,-0.009491506032645702,2.854738235473633,0.0,-531.95068359375,139.3445281982422,8.310999870300293,3710.93603515625,3457.067626953125,93.02999877929688,-177.49603271484375,-40.70475769042969,0.0,-1357.2808837890625,446.04522705078125,17.010000228881836,-0.009587380103766918,-1.13121497631073,0.0,-484.4969787597656,1210.837646484375,8.321000099182129,-0.7350923579935915,-0.4280739576211621,2.8288483903221504
3710.93603515625,3457.067626953125,93.02999877929688,-177.49603271484375,-40.70475769042969,0.0,-1357.2808837890625,446.04522705078125,17.010000228881836,-0.009587380103766918,-1.13121497631073,0.0,-484.4969787597656,1210.837646484375,8.321000099182129,3518.45556640625,3413.0302734375,93.02999877929688,-172.69921875,-39.38555145263672,0.0,-2077.907470703125,1784.8402099609375,17.010000228881836,-0.009587380103766918,-1.0689928531646729,9.58738019107841e-05,-678.2509765625,1236.1309814453125,8.321000099182129,-0.9964602903198378,0.0003028985585781367,1.100989301095325
3518.45556640625,3413.0302734375,93.02999877929688,-172.69921875,-39.38555145263672,0.0,-2077.907470703125,1784.8402099609375,17.010000228881836,-0.009587380103766918,-1.0689928531646729,9.58738019107841e-05,-678.2509765625,1236.1309814453125,8.321000099182129,3410.811279296875,3388.541748046875,93.02999877929688,-170.09498596191406,-38.63199234008789,0.0,-2225.762939453125,2060.286865234375,17.010000228881836,-0.009491506032645702,-1.1564297676086426,0.0,29.16059684753418,-58.862186431884766,8.321000099182129,0.22600224247705225,0.22031893609481884,0.6249405702929778
3410.811279296875,3388.541748046875,93.02999877929688,-170.09498596191406,-38.63199234008789,0.0,-2225.762939453125,2060.286865234375,17.010000228881836,-0.009491506032645702,-1.1564297676086426,0.0,29.16059684753418,-58.862186431884766,8.321000099182129,2947.552001953125,3284.410888671875,93.02999877929688,-159.03421020507812,-35.25206756591797,0.0,-1090.0125732421875,-294.1287841796875,17.010000228881836,-0.009587380103766918,-1.1014940738677979,-9.58738019107841e-05,621.5882568359375,-1226.5615234375,8.321000099182129,0.7303023578195973,0.010644053881004104,2.816997278480443
2947.552001953125,3284.410888671875,93.02999877929688,-159.03421020507812,-35.25206756591797,0.0,-1090.0125732421875,-294.1287841796875,17.010000228881836,-0.009587380103766918,-1.1014940738677979,-9.58738019107841e-05,621.5882568359375,-1226.5615234375,8.321000099182129,2719.86328125,3234.437744140625,93.02999877929688,-153.79257202148438,-33.504852294921875,0.0,-1230.3155517578125,-30.012218475341797,17.010000228881836,-0.009683254174888134,-1.077333927154541,0.0,-478.9941711425781,895.8958129882812,8.321000099182129,-0.9918179479763374,-0.017752550320346165,1.4554729556959387
2719.86328125,3234.437744140625,93.02999877929688,-153.79257202148438,-33.504852294921875,0.0,-1230.3155517578125,-30.012218475341797,17.010000228881836,-0.009683254174888134,-1.077333927154541,0.0,-478.9941711425781,895.8958129882812,8.321000099182129,2572.588623046875,3202.540771484375,93.02999877929688,-150.3055419921875,-32.34251022338867,0.0,-1194.14990234375,-106.6136245727539,17.010000228881836,-0.009491506032645702,-1.1145329475402832,9.58738019107841e-05,320.4133605957031,-654.2033081054688,8.321000099182129,0.9373877785296559,-0.04877169222189226,0.9714411764122985
2572.588623046875,3202.540771484375,93.02999877929688,-150.3055419921875,-32.34251022338867,0.0,-1194.14990234375,-106.6136245727539,17.010000228881836,-0.009491506032645702,-1.1145329475402832,9.58738019107841e-05,320.4133605957031,-654.2033081054688,8.321000099182129,2180.406982421875,3119.70263671875,93.02999877929688,-140.59759521484375,-29.10652732849121,0.0,-130.1275634765625,283.3083801269531,17.010000228881836,-0.009587380103766918,2.2411458492279053,0.0,737.9165649414062,-758.6480102539062,8.321000099182129,-0.5229850542235208,0.638033343817653,2.6989916134383236
2180.406982421875,3119.70263671875,93.02999877929688,-140.59759521484375,-29.10652732849121,0.0,-130.1275634765625,283.3083801269531,17.010000228881836,-0.009587380103766918,2.2411458492279053,0.0,737.9165649414062,-758.6480102539062,8.321000099182129,2004.8316650390625,3083.783203125,93.02999877929688,-136.0279541015625,-27.583314895629883,0.0,-44.859493255615234,481.7934265136719,17.010000228881836,-0.009491506032645702,1.173974633216858,0.0,271.47491455078125,624.8195190429688,8.321000099182129,0.6223233628132212,-0.7398331309769592,1.2775006987149595
2004.8316650390625,3083.783203125,93.02999877929688,-136.0279541015625,-27.583314895629883,0.0,-44.859493255615234,481.7934265136719,17.010000228881836,-0.009491506032645702,1.173974633216858,0.0,271.47491455078125,624.8195190429688,8.321000099182129,1639.8203125,3011.587890625,93.02999877929688,-126.2607192993164,-24.240907669067383,0.0,-508.5148620605469,-1901.4476318359375,17.010000228881836,-0.009587380103766918,1.633785367012024,0.0,67.10575103759766,-1408.349853515625,8.310999870300293,-0.9958122143035628,-0.12754367505855335,2.785653222739569
1639.8203125,3011.587890625,93.02999877929688,-126.2607192993164,-24.240907669067383,0.0,-508.5148620605469,-1901.4476318359375,17.010000228881836,-0.009587380103766918,1.633785367012024,0.0,67.10575103759766,-1408.349853515625,8.310999870300293,1585.3431396484375,3001.17138671875,93.02999877929688,-124.83820343017578,-23.720067977905273,0.0,-453.0585021972656,-2510.744384765625,17.010000228881836,-0.009587380103766918,1.712593674659729,0.0,183.0980987548828,-1398.0767822265625,8.310999870300293,-0.9215950208961757,-0.09591558373864335,0.43478759489994445
1585.3431396484375,3001.17138671875,93.02999877929688,-124.83820343017578,-23.720067977905273,0.0,-453.0585021972656,-2510.744384765625,17.010000228881836,-0.009587380103766918,1.712593674659729,0.0,183.0980987548828,-1398.0767822265625,8.310999870300293,1315.93115234375,2951.3251953125,93.02999877929688,-117.72684478759766,-21.052949905395508,0.0,-1372.0455322265625,-2890.632080078125,17.010000228881836,-0.009587380103766918,-1.7711725234985352,0.0,-265.6424865722656,-1128.9117431640625,8.331000328063965,0.9435772982767665,0.8109077891646017,2.2148907413684356
1315.93115234375,2951.3251953125,93.02999877929688,-117.72684478759766,-21.052949905395508,0.0,-1372.0455322265625,-2890.632080078125,17.010000228881836,-0.009587380103766918,-1.7711725234985352,0.0,-265.6424865722656,-1128.9117431640625,8.331000328063965,1186.5799560546875,2928.583984375,93.02999877929688,-114.3902587890625,-19.7656307220459,0.0,-1395.5054931640625,-2803.171142578125,17.010000228881836,-0.009683254174888134,-1.4656227827072144,9.58738019107841e-05,-51.607852935791016,731.701171875,8.301000595092773,-0.8175214153428656,-0.17848196298759686,1.1210689673431773
1186.5799560546875,2928.583984375,93.02999877929688,-114.3902587890625,-19.7656307220459,0.0,-1395.5054931640625,-2803.171142578125,17.010000228881836,-0.009683254174888134,-1.4656227827072144,9.58738019107841e-05,-51.607852935791016,731.701171875,8.301000595092773,1178.52197265625,2927.22705078125,93.02999877929688,-114.18062591552734,-19.69080924987793,0.0,-1400.302734375,-2754.79296875,17.010000228881836,-0.009587380103766918,-1.464088797569275,0.0001917476038215682,-81.20027160644531,553.0964965820312,8.25100040435791,0.2778434595433509,0.9158071291025943,0.06516242609691858
1178.52197265625,2927.22705078125,93.02999877929688,-114.18062591552734,-19.69080924987793,0.0,-1400.302734375,-2754.79296875,17.010000228881836,-0.009587380103766918,-1.464088797569275,0.0001917476038215682,-81.20027160644531,553.0964965820312,8.25100040435791,1017.6840209960938,2900.2294921875,93.02999877929688,-110.12825775146484,-18.11962890625,0.0,-1397.2764892578125,-1365.5313720703125,17.010000228881836,-0.009587380103766918,-1.6327308416366577,9.58738019107841e-05,73.4451675415039,1296.2725830078125,8.301000595092773,-0.9952884666142418,0.03707367969251128,1.4339182717289134
