ballLocX_0,ballLocY_0,ballLocZ_0,ballVelX_0,ballVelY_0,ballVelZ_0,carLocX_0,carLocY_0,carLocZ_0,carPitch_0,carYaw_0,carRoll_0,carVelX_0,carVelY_0,carVelZ_0,ballLocX_1,ballLocY_1,ballLocZ_1,ballVelX_1,ballVelY_1,ballVelZ_1,carLocX_1,carLocY_1,carLocZ_1,carPitch_1,carYaw_1,carRoll_1,carVelX_1,carVelY_1,carVelZ_1,throttle,steer,time
-1369.9674072265625,337.5384216308594,92.8699951171875,-53.38355255126953,85.04611206054688,0.0,2234.18017578125,-122.33738708496094,17.010000228881836,-0.009587380103766918,1.6725183725357056,0.0,-73.6748046875,1256.05322265625,8.3410005569458,-1143.9205322265625,627.83837890625,193.21527099609375,1631.8033447265625,453.7588195800781,400.64105224609375,365.2807922363281,2914.806640625,17.010000228881836,-0.009587380103766918,2.146902084350586,9.58738019107841e-05,-768.1009521484375,1182.4010009765625,8.310999870300293,0.9875991964076102,-0.00031192985149786225,2.547200991764649
-1143.9205322265625,627.83837890625,193.21527099609375,1631.8033447265625,453.7588195800781,400.64105224609375,365.2807922363281,2914.806640625,17.010000228881836,-0.009587380103766918,2.146902084350586,9.58738019107841e-05,-768.1009521484375,1182.4010009765625,8.310999870300293,1807.8697509765625,1462.3741455078125,169.6614990234375,1247.794921875,373.7635192871094,-22.107681274414062,170.93399047851562,3248.84814453125,17.010000228881836,-0.009587380103766918,1.9908194541931152,9.58738019107841e-05,9.86249828338623,-49.64299392700195,8.321000099182129,-0.026324097065635654,-0.9265547716165009,1.9556891538200807
1807.8697509765625,1462.3741455078125,169.6614990234375,1247.794921875,373.7635192871094,-22.107681274414062,170.93399047851562,3248.84814453125,17.010000228881836,-0.009587380103766918,1.9908194541931152,9.58738019107841e-05,9.86249828338623,-49.64299392700195,8.321000099182129,2577.285400390625,1696.9300537109375,116.18775939941406,1047.537109375,335.11968994140625,68.59393310546875,69.82669067382812,3457.528564453125,17.010000228881836,-0.009491506032645702,2.017951726913452,0.0,-307.094970703125,640.4927978515625,8.321000099182129,0.9765371456967614,-0.0011780537986666262,0.6512108369203533
2577.285400390625,1696.9300537109375,116.18775939941406,1047.537109375,335.11968994140625,68.59393310546875,69.82669067382812,3457.528564453125,17.010000228881836,-0.009491506032645702,2.017951726913452,0.0,-307.094970703125,640.4927978515625,8.321000099182129,4002.748046875,2231.746337890625,340.2818298339844,6.889650344848633,139.1656036376953,192.54295349121094,1246.9091796875,2444.059326171875,17.010000228881836,-0.009587380103766918,2.737292766571045,0.0,1200.4664306640625,-551.3313598632812,8.321000099182129,-0.9540163304774214,-0.19596107621630365,2.18346116914622
4002.748046875,2231.746337890625,340.2818298339844,6.889650344848633,139.1656036376953,192.54295349121094,1246.9091796875,2444.059326171875,17.010000228881836,-0.009587380103766918,2.737292766571045,0.0,1200.4664306640625,-551.3313598632812,8.321000099182129,3608.3056640625,2570.451416015625,93.13999938964844,-309.02197265625,159.2014923095703,0.0,2226.1669921875,4149.45458984375,17.010000228881836,-0.009587380103766918,-0.40362870693206787,9.58738019107841e-05,-1216.21044921875,663.8028564453125,8.321000099182129,-0.7334919280671439,-0.7337162191437964,2.2965170722894603
3608.3056640625,2570.451416015625,93.13999938964844,-309.02197265625,159.2014923095703,0.0,2226.1669921875,4149.45458984375,17.010000228881836,-0.009587380103766918,-0.40362870693206787,9.58738019107841e-05,-1216.21044921875,663.8028564453125,8.321000099182129,3333.473388671875,2712.080810546875,93.13999938964844,-302.5494079589844,155.9652099609375,0.0,2033.040771484375,4232.52783203125,17.010000228881836,-0.009491506032645702,-0.2936614453792572,0.0,368.0398864746094,-106.5802001953125,8.310999870300293,0.5682797802863174,0.129535045367197,0.9001580922235775
3333.473388671875,2712.080810546875,93.13999938964844,-302.5494079589844,155.9652099609375,0.0,2033.040771484375,4232.52783203125,17.010000228881836,-0.009491506032645702,-0.2936614453792572,0.0,368.0398864746094,-106.5802001953125,8.310999870300293,3052.012939453125,2857.217041015625,93.13999938964844,-295.7754821777344,152.5782470703125,0.0,2634.93505859375,3967.070556640625,17.010000228881836,-0.009587380103766918,-0.5410158634185791,9.58738019107841e-05,825.4652099609375,-493.557373046875,8.310999870300293,0.712017074914839,-0.13319750919692683,0.9377876093414574
3052.012939453125,2857.217041015625,93.13999938964844,-295.7754821777344,152.5782470703125,0.0,2634.93505859375,3967.070556640625,17.010000228881836,-0.009587380103766918,-0.5410158634185791,9.58738019107841e-05,825.4652099609375,-493.557373046875,8.310999870300293,2650.56787109375,3064.34912109375,93.13999938964844,-286.1856689453125,147.60980224609375,0.0,4064.42724609375,3743.694091796875,231.56004333496094,1.373679757118225,1.247701644897461,1.0858666896820068,80.92838287353516,184.6692352294922,977.343505859375,0.9905645842353532,0.30412455261399574,1.473415842579449
2650.56787109375,3064.34912109375,93.13999938964844,-286.1856689453125,147.60980224609375,0.0,4064.42724609375,3743.694091796875,231.56004333496094,1.373679757118225,1.247701644897461,1.0858666896820068,80.92838287353516,184.6692352294922,977.343505859375,2268.04736328125,3261.489990234375,93.13999938964844,-277.23016357421875,142.7205810546875,0.0,4078.989990234375,3148.791748046875,1138.80615234375,0.09472331404685974,-1.561208963394165,-1.5698375701904297,-8.371000289916992,-1003.4678955078125,79.16809844970703,0.7990809250824175,-0.5660793672462672,1.3562925263975512
2268.04736328125,3261.489990234375,93.13999938964844,-277.23016357421875,142.7205810546875,0.0,4078.989990234375,3148.791748046875,1138.80615234375,0.09472331404685974,-1.561208963394165,-1.5698375701904297,-8.371000289916992,-1003.4678955078125,79.16809844970703,1761.982421875,3521.4208984375,93.13999938964844,-265.6666259765625,136.00637817382812,0.0,4078.989990234375,820.9425659179688,1386.3873291015625,0.2603932321071625,-1.5608254671096802,-1.5682077407836914,-8.371000289916992,-1325.60498046875,320.8959655761719,0.9219114462912963,0.045646031421533256,1.8684532815250687
1761.982421875,3521.4208984375,93.13999938964844,-265.6666259765625,136.00637817382812,0.0,4078.989990234375,820.9425659179688,1386.3873291015625,0.2603932321071625,-1.5608254671096802,-1.5682077407836914,-8.371000289916992,-1325.60498046875,320.8959655761719,1706.908935546875,3549.603271484375,93.13999938964844,-264.41961669921875,135.2581787109375,0.0,4078.989990234375,602.7777709960938,1424.72265625,0.07372695207595825,-1.5608254671096802,-1.5699334144592285,-8.381000518798828,-680.597412109375,21.47118377685547,-0.933043216176995,-0.8340047263092187,0.20953944844135108
1706.908935546875,3549.603271484375,93.13999938964844,-264.41961669921875,135.2581787109375,0.0,4078.989990234375,602.7777709960938,1424.72265625,0.07372695207595825,-1.5608254671096802,-1.5699334144592285,-8.381000518798828,-680.597412109375,21.47118377685547,1214.569091796875,3800.492919921875,93.13999938964844,-252.999267578125,128.4459686279297,0.0,3633.09033203125,-803.0029907226562,2025.142822265625,0.08753278106451035,-2.716200590133667,-3.1052565574645996,-927.7741088867188,-451.33447265625,109.14954376220703,0.8082321507110277,0.2609798610872705,1.9357366296255698
1214.569091796875,3800.492919921875,93.13999938964844,-252.999267578125,128.4459686279297,0.0,3633.09033203125,-803.0029907226562,2025.142822265625,0.08753278106451035,-2.716200590133667,-3.1052565574645996,-927.7741088867188,-451.33447265625,109.14954376220703,1060.18798828125,3878.842041015625,93.13999938964844,-249.31089782714844,126.4089584350586,0.0,3486.6083984375,-870.3538208007812,1980.5003662109375,-0.16519056260585785,-2.731252908706665,3.1006546020507812,33.31196594238281,7.567406177520752,-221.19329833984375,-0.9998801546046837,-0.018488548527112476,0.6196999957241758
1060.18798828125,3878.842041015625,93.13999938964844,-249.31089782714844,126.4089584350586,0.0,3486.6083984375,-870.3538208007812,1980.5003662109375,-0.16519056260585785,-2.731252908706665,3.1006546020507812,33.31196594238281,7.567406177520752,-221.19329833984375,1035.2474365234375,3891.46044921875,93.13999938964844,-248.71002197265625,126.07860565185547,0.0,3490.125732421875,-869.5166015625,1954.8629150390625,-0.1823519617319107,-2.7254045009613037,3.0977783203125,36.05013656616211,8.74437141418457,-285.7044372558594,-0.3168289915859469,-0.05237788495378971,0.09700995304238802
1035.2474365234375,3891.46044921875,93.13999938964844,-248.71002197265625,126.07860565185547,0.0,3490.125732421875,-869.5166015625,1954.8629150390625,-0.1823519617319107,-2.7254045009613037,3.0977783203125,36.05013656616211,8.74437141418457,-285.7044372558594,333.28271484375,4246.35693359375,93.13999938964844,-231.5355682373047,116.7419204711914,0.0,3552.504638671875,-921.8195190429688,18.323949813842773,-0.01888713799417019,-2.580155611038208,-0.043718453496694565,-9.634892463684082,-118.98751068115234,-64.41777801513672,0.4881838857184261,-0.24293301877811632,2.9264040064754653
333.28271484375,4246.35693359375,93.13999938964844,-231.5355682373047,116.7419204711914,0.0,3552.504638671875,-921.8195190429688,18.323949813842773,-0.01888713799417019,-2.580155611038208,-0.043718453496694565,-9.634892463684082,-118.98751068115234,-64.41777801513672,-33.435489654541016,4430.962890625,93.13999938964844,-222.80149841308594,112.01319885253906,0.0,3301.59228515625,-105.55927276611328,17.010000228881836,-0.009683254174888134,-0.14898788928985596,9.58738019107841e-05,-1069.5894775390625,298.864013671875,8.331000328063965,-0.9076729146994393,-0.783807919271607,1.6279800865528742
-33.435489654541016,4430.962890625,93.13999938964844,-222.80149841308594,112.01319885253906,0.0,3301.59228515625,-105.55927276611328,17.010000228881836,-0.009683254174888134,-0.14898788928985596,9.58738019107841e-05,-1069.5894775390625,298.864013671875,8.331000328063965,-493.0464172363281,4661.68359375,93.13999938964844,-212.17633056640625,106.29866027832031,0.0,1620.9658203125,-1641.211669921875,17.010000228881836,-0.009587380103766918,1.6309092044830322,0.0,6.946784019470215,-1319.3245849609375,8.321000099182129,-0.41383863953082434,-0.4056657640875879,2.12002889437667
-493.0464172363281,4661.68359375,93.13999938964844,-212.17633056640625,106.29866027832031,0.0,1620.9658203125,-1641.211669921875,17.010000228881836,-0.009587380103766918,1.6309092044830322,0.0,6.946784019470215,-1319.3245849609375,8.321000099182129,-882.7794189453125,4856.78662109375,93.13999938964844,-203.1675262451172,101.73426055908203,0.0,1623.031982421875,-968.7471923828125,17.010000228881836,-0.009587380103766918,1.5052186250686646,0.0,69.55370330810547,1088.5020751953125,8.321000099182129,0.7990041964208147,-0.07096801406132415,1.8799272147140478
-882.7794189453125,4856.78662109375,93.13999938964844,-203.1675262451172,101.73426055908203,0.0,1623.031982421875,-968.7471923828125,17.010000228881836,-0.009587380103766918,1.5052186250686646,0.0,69.55370330810547,1088.5020751953125,8.321000099182129,-1414.647216796875,4899.50390625,92.90999603271484,-162.7651824951172,-135.46517944335938,0.0,4080.50439453125,607.9879150390625,354.9278564453125,1.176275610923767,-1.5840269327163696,-1.5990791320800781,-31.44535255432129,-448.5174560546875,1064.725341796875,0.5846448007125251,-0.3144283695904817,2.8461507530972128
-1414.647216796875,4899.50390625,92.90999603271484,-162.7651824951172,-135.46517944335938,0.0,4080.50439453125,607.9879150390625,354.9278564453125,1.176275610923767,-1.5840269327163696,-1.5990791320800781,-31.44535255432129,-448.5174560546875,1064.725341796875,-1494.108642578125,4833.34423828125,92.90999603271484,-160.8362579345703,-133.69625854492188,0.0,4078.989990234375,448.7887878417969,841.5842895507812,1.4532550573349,-1.4890159368515015,-1.4896870851516724,-8.371000289916992,-121.04479217529297,934.853271484375,0.41055574623428637,0.3406063968410878,0.492203133924189
-1494.108642578125,4833.34423828125,92.90999603271484,-160.8362579345703,-133.69625854492188,0.0,4078.989990234375,448.7887878417969,841.5842895507812,1.4532550573349,-1.4890159368515015,-1.4896870851516724,-8.371000289916992,-121.04479217529297,934.853271484375,-1553.0941162109375,4784.34521484375,92.90999603271484,-159.4901580810547,-132.3701629638672,0.0,4078.989990234375,404.03717041015625,1142.599365234375,1.3400280475616455,-1.5288994312286377,-1.5300499200820923,-8.371000289916992,-169.91258239746094,693.3751220703125,0.023962880537401032,-0.25417083507913624,0.36707496538989304
-1553.0941162109375,4784.34521484375,92.90999603271484,-159.4901580810547,-132.3701629638672,0.0,4078.989990234375,404.03717041015625,1142.599365234375,1.3400280475616455,-1.5288994312286377,-1.5300499200820923,-8.371000289916992,-169.91258239746094,693.3751220703125,-1958.482666015625,4449.49169921875,92.90999603271484,-150.05902099609375,-123.46900939941406,0.0,2938.269775390625,-747.721923828125,1904.8955078125,-0.16998425126075745,-2.4138145446777344,3.0816714763641357,-797.9801635742188,-691.967529296875,-383.9437255859375,0.712577175498597,-0.09132889484540277,2.6186117843410237
-1958.482666015625,4449.49169921875,92.90999603271484,-150.05902099609375,-123.46900939941406,0.0,2938.269775390625,-747.721923828125,1904.8955078125,-0.16998425126075745,-2.4138145446777344,3.0816714763641357,-797.9801635742188,-691.967529296875,-383.9437255859375,-1972.014892578125,4438.34130859375,92.90999603271484,-149.73423767089844,-123.17315673828125,0.0,2866.258056640625,-810.1680908203125,1867.368408203125,-0.17583255469799042,-2.412855863571167,3.0807127952575684,-797.5682373046875,-691.5960693359375,-442.48016357421875,-0.376613866751932,0.9988839563332594,0.09148734398551284
-1972.014892578125,4438.34130859375,92.90999603271484,-149.73423767089844,-123.17315673828125,0.0,2866.258056640625,-810.1680908203125,1867.368408203125,-0.17583255469799042,-2.412855863571167,3.0807127952575684,-797.5682373046875,-691.5960693359375,-442.48016357421875,-2159.8974609375,4283.9912109375,92.90999603271484,-145.14527893066406,-119.07527923583984,0.0,1856.794189453125,-1684.5911865234375,774.0875244140625,-0.19280220568180084,-2.41036319732666,3.0787954330444336,-786.5809326171875,-680.6709594726562,-1267.212158203125,-0.16981830095570616,0.18558611272846667,1.2748533689670936
-2159.8974609375,4283.9912109375,92.90999603271484,-145.14527893066406,-119.07527923583984,0.0,1856.794189453125,-1684.5911865234375,774.0875244140625,-0.19280220568180084,-2.41036319732666,3.0787954330444336,-786.5809326171875,-680.6709594726562,-1267.212158203125,-2389.088623046875,4095.9951171875,92.90999603271484,-139.34327697753906,-114.22584533691406,0.0,1177.00537109375,-2303.117919921875,16.854257583618164,-0.009683254174888134,-2.5943450927734375,0.03461044281721115,129.78038024902344,36.43767166137695,-2.646164655685425,-0.797450221599359,-0.03722048305354621,1.6129014354592712
-2389.088623046875,4095.9951171875,92.90999603271484,-139.34327697753906,-114.22584533691406,0.0,1177.00537109375,-2303.117919921875,16.854257583618164,-0.009683254174888134,-2.5943450927734375,0.03461044281721115,129.78038024902344,36.43767166137695,-2.646164655685425,-2404.439697265625,4083.42333984375,92.90999603271484,-138.94625854492188,-113.90116882324219,0.0,1184.2598876953125,-2300.519775390625,16.78473663330078,-0.008916263468563557,-2.625216484069824,-0.0013422331539914012,2.037144422531128,-3.3039803504943848,11.502930641174316,0.14663292970087327,0.07383705312437697,0.1225366227162894
-2404.439697265625,4083.42333984375,92.90999603271484,-138.94625854492188,-113.90116882324219,0.0,1184.2598876953125,-2300.519775390625,16.78473663330078,-0.008916263468563557,-2.625216484069824,-0.0013422331539914012,2.037144422531128,-3.3039803504943848,11.502930641174316,-2706.458984375,3835.397216796875,92.90999603271484,-130.88525390625,-107.7371597290039,0.0,536.5225219726562,-1027.1973876953125,17.010000228881836,-0.009587380103766918,0.07430219650268555,0.0,-1293.4466552734375,17.40187644958496,8.321000099182129,-0.9295537699172685,-0.6217895190080298,2.300895969200475
-2706.458984375,3835.397216796875,92.90999603271484,-130.88525390625,-107.7371597290039,0.0,536.5225219726562,-1027.1973876953125,17.010000228881836,-0.009587380103766918,0.07430219650268555,0.0,-1293.4466552734375,17.40187644958496,8.321000099182129,-2721.270751953125,3823.16748046875,92.90999603271484,-130.4775848388672,-107.43538665771484,0.0,389.53570556640625,-1035.262939453125,17.010000228881836,-0.009587380103766918,0.20306070148944855,9.58738019107841e-05,-1292.888671875,-192.1575927734375,8.310999870300293,-0.9939486451728696,0.232773424025761,0.08343038887628751
-2721.270751953125,3823.16748046875,92.90999603271484,-130.4775848388672,-107.43538665771484,0.0,389.53570556640625,-1035.262939453125,17.010000228881836,-0.009587380103766918,0.20306070148944855,9.58738019107841e-05,-1292.888671875,-192.1575927734375,8.310999870300293,-2758.55712890625,3792.488037109375,92.90999603271484,-129.4638671875,-106.67623901367188,0.0,133.03988647460938,-1085.8741455078125,17.010000228881836,-0.009299758821725845,0.1998009979724884,0.0,-391.0765075683594,-80.89022827148438,8.310999870300293,0.9210026349715676,0.019799226458401625,0.34652750699918755
-2758.55712890625,3792.488037109375,92.90999603271484,-129.4638671875,-106.67623901367188,0.0,133.03988647460938,-1085.8741455078125,17.010000228881836,-0.009299758821725845,0.1998009979724884,0.0,-391.0765075683594,-80.89022827148438,8.310999870300293,-3054.222900390625,3548.09423828125,92.90999603271484,-121.66328430175781,-100.92252349853516,0.0,-2099.93310546875,-2020.134765625,17.010000228881836,-0.009683254174888134,0.5560680627822876,0.0,-1204.515869140625,-732.6094360351562,8.310999870300293,-0.9996679822302743,-0.07520628488532576,2.378511520514188
-3054.222900390625,3548.09423828125,92.90999603271484,-121.66328430175781,-100.92252349853516,0.0,-2099.93310546875,-2020.134765625,17.010000228881836,-0.009683254174888134,0.5560680627822876,0.0,-1204.515869140625,-732.6094360351562,8.310999870300293,-3177.884521484375,3445.367431640625,92.90999603271484,-118.4329833984375,-98.44898223876953,0.0,-3455.510009765625,-2476.887939453125,17.010000228881836,-0.009587380103766918,-0.03393932431936264,0.0,-1409.2569580078125,-11.529182434082031,8.310999870300293,-0.6839756185559013,0.3384978528390328,1.0367853958237987
-3177.884521484375,3445.367431640625,92.90999603271484,-118.4329833984375,-98.44898223876953,0.0,-3455.510009765625,-2476.887939453125,17.010000228881836,-0.009587380103766918,-0.03393932431936264,0.0,-1409.2569580078125,-11.529182434082031,8.310999870300293,-3281.056640625,3359.510986328125,92.90999603271484,-115.7701644897461,-96.33377838134766,0.0,-4078.97998046875,-2406.867431640625,576.0051879882812,-1.5186409950256348,-1.758900761604309,1.758996605873108,8.492111206054688,54.24433517456055,962.95458984375,-0.20981812250723386,-0.024833048966682144,0.8741913807881829
-3281.056640625,3359.510986328125,92.90999603271484,-115.7701644897461,-96.33377838134766,0.0,-4078.97998046875,-2406.867431640625,576.0051879882812,-1.5186409950256348,-1.758900761604309,1.758996605873108,8.492111206054688,54.24433517456055,962.95458984375,-3533.775634765625,3149.108642578125,92.90999603271484,-109.38015747070312,-90.9404296875,0.0,-3893.26611328125,-873.492431640625,25.34056854248047,0.09549030661582947,1.9859298467636108,-0.16634103655815125,-495.58935546875,1272.52294921875,139.0013885498047,0.8526316131394444,0.49526384672759616,2.398939765531935
-3533.775634765625,3149.108642578125,92.90999603271484,-109.38015747070312,-90.9404296875,0.0,-3893.26611328125,-873.492431640625,25.34056854248047,0.09549030661582947,1.9859298467636108,-0.16634103655815125,-495.58935546875,1272.52294921875,139.0013885498047,-3737.45654296875,2980.10205078125,92.90999603271484,-104.44383239746094,-86.36383819580078,0.0,-4078.97998046875,1328.135498046875,958.8318481445312,0.4711238443851471,1.5815341472625732,-1.5659067630767822,8.301000595092773,1078.220458984375,520.5994262695312,0.6481126769564163,-0.008227531318069886,1.9326251889078847
-3737.45654296875,2980.10205078125,92.90999603271484,-104.44383239746094,-86.36383819580078,0.0,-4078.97998046875,1328.135498046875,958.8318481445312,0.4711238443851471,1.5815341472625732,-1.5659067630767822,8.301000595092773,1078.220458984375,520.5994262695312,-3743.22265625,2975.330078125,92.90999603271484,-104.311279296875,-86.23127746582031,0.0,-4078.97998046875,1387.6734619140625,987.1119384765625,0.4675765335559845,1.5815341472625732,-1.5659067630767822,8.310999870300293,1083.6485595703125,499.0218200683594,0.6674732751580282,-0.7950311033028759,0.04962929171681907
-3743.22265625,2975.330078125,92.90999603271484,-104.311279296875,-86.23127746582031,0.0,-4078.97998046875,1387.6734619140625,987.1119384765625,0.4675765335559845,1.5815341472625732,-1.5659067630767822,8.310999870300293,1083.6485595703125,499.0218200683594,-3895.129638671875,2806.317138671875,103.5632095336914,9.70079231262207,-86.54981231689453,-3.0112102031707764,-4078.97998046875,327.6592712402344,330.0181579589844,0.5742840766906738,1.5822052955627441,-1.5647562742233276,8.301000595092773,-1223.40869140625,-806.7982177734375,-0.9353820984372826,-0.043417190673055876,1.959369760522705
-3895.129638671875,2806.317138671875,103.5632095336914,9.70079231262207,-86.54981231689453,-3.0112102031707764,-4078.97998046875,327.6592712402344,330.0181579589844,0.5742840766906738,1.5822052955627441,-1.5647562742233276,8.301000595092773,-1223.40869140625,-806.7982177734375,-3662.828125,2588.8740234375,92.93999481201172,93.78223419189453,-75.11223602294922,0.0,-4078.166748046875,-1764.885498046875,1524.1649169921875,-0.6796493530273438,-1.604543924331665,1.6219929456710815,30.97713279724121,595.99658203125,564.690185546875,-0.5376315624110748,0.5967801351958885,2.7322108020907976
-3662.828125,2588.8740234375,92.93999481201172,93.78223419189453,-75.11223602294922,0.0,-4078.166748046875,-1764.885498046875,1524.1649169921875,-0.6796493530273438,-1.604543924331665,1.6219929456710815,30.97713279724121,595.99658203125,564.690185546875,-3474.4873046875,2438.817626953125,92.93999481201172,88.83362579345703,-70.54363250732422,0.0,-4026.21337890625,-3001.766357421875,1750.9842529296875,0.6782112717628479,-1.163716197013855,2.1614747047424316,293.9191589355469,-773.2662963867188,620.641845703125,0.8186598383372761,-0.3380603537802974,2.0610199737617307
-3474.4873046875,2438.817626953125,92.93999481201172,88.83362579345703,-70.54363250732422,0.0,-4026.21337890625,-3001.766357421875,1750.9842529296875,0.6782112717628479,-1.163716197013855,2.1614747047424316,293.9191589355469,-773.2662963867188,620.641845703125,-3408.273681640625,2386.34033203125,92.93999481201172,87.0289077758789,-68.89891052246094,0.0,-3904.442626953125,-3757.728759765625,1891.918701171875,-0.3777427673339844,-1.7953327894210815,2.4879250526428223,-230.6211700439453,-1112.5234375,-415.3887023925781,0.9924549202934695,0.7694859319543131,0.7579926053728698
-3408.273681640625,2386.34033203125,92.93999481201172,87.0289077758789,-68.89891052246094,0.0,-3904.442626953125,-3757.728759765625,1891.918701171875,-0.3777427673339844,-1.7953327894210815,2.4879250526428223,-230.6211700439453,-1112.5234375,-415.3887023925781,-3283.20947265625,2287.650146484375,92.93999481201172,83.50955200195312,-65.83955383300781,0.0,-3807.596435546875,-3602.9150390625,1972.4586181640625,-0.33776339888572693,-2.2856314182281494,2.8007612228393555,456.9613037109375,591.1824951171875,249.48988342285156,-0.9973987525487188,-0.1697990294912323,1.4618702680998297
-3283.20947265625,2287.650146484375,92.93999481201172,83.50955200195312,-65.83955383300781,0.0,-3807.596435546875,-3602.9150390625,1972.4586181640625,-0.33776339888572693,-2.2856314182281494,2.8007612228393555,456.9613037109375,591.1824951171875,249.48988342285156,-3170.46484375,2198.829833984375,92.93999481201172,80.20458221435547,-63.154579162597656,0.0,-2504.796142578125,-3161.691650390625,1808.234619140625,0.17832526564598083,3.111680030822754,-3.129225015640259,1122.4342041015625,179.23458862304688,-525.3792114257812,-0.9883113952852404,-0.5544043112919317,1.3814609896182475
-3170.46484375,2198.829833984375,92.93999481201172,80.20458221435547,-63.154579162597656,0.0,-2504.796142578125,-3161.691650390625,1808.234619140625,0.17832526564598083,3.111680030822754,-3.129225015640259,1122.4342041015625,179.23458862304688,-525.3792114257812,-3142.9609375,2177.241943359375,92.93999481201172,79.37799835205078,-62.51449966430664,0.0,-2120.9814453125,-3099.89501953125,1588.33154296875,0.18609105050563812,3.0979700088500977,-3.1310465335845947,1104.1695556640625,179.78399658203125,-745.7581176757812,0.9327389310332367,-0.45298722267539787,0.3470935581454029
-3142.9609375,2177.241943359375,92.93999481201172,79.37799835205078,-62.51449966430664,0.0,-2120.9814453125,-3099.89501953125,1588.33154296875,0.18609105050563812,3.0979700088500977,-3.1310465335845947,1104.1695556640625,179.78399658203125,-745.7581176757812,-3020.018310546875,2080.32666015625,92.93999481201172,75.5712661743164,-59.70125961303711,0.0,-517.5989990234375,-2831.46044921875,54.249855041503906,0.0006711165769957006,2.9212746620178223,-2.7146666049957275,538.0787353515625,96.40206146240234,88.41746520996094,0.20609157904972042,-0.026648124374472837,1.5769499669119185
-3020.018310546875,2080.32666015625,92.93999481201172,75.5712661743164,-59.70125961303711,0.0,-517.5989990234375,-2831.46044921875,54.249855041503906,0.0006711165769957006,2.9212746620178223,-2.7146666049957275,538.0787353515625,96.40206146240234,88.41746520996094,-2820.405029296875,1922.46875,92.93999481201172,69.50703430175781,-55.18901443481445,0.0,296.229736328125,-3790.44287109375,17.010000228881836,-0.009491506032645702,0.32050612568855286,0.0,1190.27978515625,353.2496337890625,8.3410005569458,0.9990801407566205,0.7661483667110657,2.755437871285231
-2820.405029296875,1922.46875,92.93999481201172,69.50703430175781,-55.18901443481445,0.0,296.229736328125,-3790.44287109375,17.010000228881836,-0.009491506032645702,0.32050612568855286,0.0,1190.27978515625,353.2496337890625,8.3410005569458,-2690.28857421875,1818.7626953125,92.93999481201172,65.48112487792969,-52.43606185913086,0.0,-358.13031005859375,-4138.83251953125,32.72877502441406,-0.011600730009377003,0.36988112330436707,0.014764565043151379,-184.55824279785156,-44.60493087768555,121.90506744384766,-0.8593657592693351,-6.590077511043953e-05,1.9279685050161675
-2690.28857421875,1818.7626953125,92.93999481201172,65.48112487792969,-52.43606185913086,0.0,-358.13031005859375,-4138.83251953125,32.72877502441406,-0.011600730009377003,0.36988112330436707,0.014764565043151379,-184.55824279785156,-44.60493087768555,121.90506744384766,-2544.666259765625,1701.6055908203125,92.93999481201172,61.1740608215332,-49.47406005859375,0.0,1141.5653076171875,-4114.4677734375,17.010000228881836,-0.009491506032645702,0.053881075233221054,0.0,1303.2950439453125,69.51778411865234,8.321000099182129,0.9429986940655286,0.0170208871920535,2.2974679476016178
-2544.666259765625,1701.6055908203125,92.93999481201172,61.1740608215332,-49.47406005859375,0.0,1141.5653076171875,-4114.4677734375,17.010000228881836,-0.009491506032645702,0.053881075233221054,0.0,1303.2950439453125,69.51778411865234,8.321000099182129,-2518.197509765625,1680.2481689453125,92.93999481201172,60.41530227661133,-48.95315170288086,0.0,1422.544921875,-4123.177734375,17.010000228881836,-0.009875001385807991,-0.22616629302501678,-9.58738019107841e-05,-11.257413864135742,15.49559497833252,8.321000099182129,-0.3153532676687901,-0.7152178127970308,0.5505468948880576
-2518.197509765625,1680.2481689453125,92.93999481201172,60.41530227661133,-48.95315170288086,0.0,1422.544921875,-4123.177734375,17.010000228881836,-0.009875001385807991,-0.22616629302501678,-9.58738019107841e-05,-11.257413864135742,15.49559497833252,8.321000099182129,-2360.684326171875,1552.13671875,92.93999481201172,55.90713882446289,-45.704071044921875,0.0,2224.096435546875,-4668.37158203125,17.020000457763672,-0.009779127314686775,-1.9460463523864746,0.0001917476038215682,596.1668090820312,1093.738037109375,8.230999946594238,-0.8111045346978701,-0.8411962249509662,2.708064855472898
-2360.684326171875,1552.13671875,92.93999481201172,55.90713882446289,-45.704071044921875,0.0,2224.096435546875,-4668.37158203125,17.020000457763672,-0.009779127314686775,-1.9460463523864746,0.0001917476038215682,596.1668090820312,1093.738037109375,8.230999946594238,-2325.329833984375,1523.0791015625,92.93999481201172,54.867733001708984,-44.9377326965332,0.0,2480.26171875,-3912.812744140625,17.020000457763672,-0.009587380103766918,-1.9460463523864746,0.0,449.1063537597656,1188.64599609375,8.201000213623047,-0.22916201210262455,0.10596971278871221,0.646062008510313
-2325.329833984375,1523.0791015625,92.93999481201172,54.867733001708984,-44.9377326965332,0.0,2480.26171875,-3912.812744140625,17.020000457763672,-0.009587380103766918,-1.9460463523864746,0.0,449.1063537597656,1188.64599609375,8.201000213623047,-2223.207275390625,1439.2158203125,92.93999481201172,51.74977111816406,-42.6397705078125,0.0,1162.5089111328125,-2507.81201171875,17.020000457763672,-0.009587380103766918,0.5483022332191467,0.0,-1242.0462646484375,-609.7078857421875,8.201000213623047,-0.7554213793137526,-0.7004879406807005,1.9143583587971449
-2223.207275390625,1439.2158203125,92.93999481201172,51.74977111816406,-42.6397705078125,0.0,1162.5089111328125,-2507.81201171875,17.020000457763672,-0.009587380103766918,0.5483022332191467,0.0,-1242.0462646484375,-609.7078857421875,8.201000213623047,-2106.094970703125,1342.45947265625,92.93999481201172,47.910377502441406,-39.820377349853516,0.0,-1111.2174072265625,-4230.75244140625,16.959999084472656,-0.010546118021011353,1.6044480800628662,0.0023968450259417295,-32.32524871826172,6.172330379486084,8.58975601196289,-0.6072874173018534,-0.013996305098180393,2.34699388330624
-2106.094970703125,1342.45947265625,92.93999481201172,47.910377502441406,-39.820377349853516,0.0,-1111.2174072265625,-4230.75244140625,16.959999084472656,-0.010546118021011353,1.6044480800628662,0.0023968450259417295,-32.32524871826172,6.172330379486084,8.58975601196289,-1984.7864990234375,1241.0498046875,92.93999481201172,43.589698791503906,-36.640350341796875,0.0,-2233.51220703125,-2300.8505859375,17.010000228881836,-0.009587380103766918,2.48207688331604,-9.58738019107841e-05,-871.1668090820312,681.2689208984375,8.321000099182129,0.21113045922916607,0.14917239482876982,2.64740931784182
-1984.7864990234375,1241.0498046875,92.93999481201172,43.589698791503906,-36.640350341796875,0.0,-2233.51220703125,-2300.8505859375,17.010000228881836,-0.009587380103766918,2.48207688331604,-9.58738019107841e-05,-871.1668090820312,681.2689208984375,8.321000099182129,-1921.59375,1188.1715087890625,92.93999481201172,41.74139404296875,-34.861392974853516,0.0,-3090.64306640625,-1632.553466796875,17.010000228881836,-0.009683254174888134,2.441809892654419,9.58738019107841e-05,-260.8160095214844,220.399169921875,8.321000099182129,-0.006370712322424921,-0.02156107043360642,1.5277366477482701
-1921.59375,1188.1715087890625,92.93999481201172,41.74139404296875,-34.861392974853516,0.0,-3090.64306640625,-1632.553466796875,17.010000228881836,-0.009683254174888134,2.441809892654419,9.58738019107841e-05,-260.8160095214844,220.399169921875,8.321000099182129,-1876.62939453125,1150.7783203125,92.93999481201172,40.42951583862305,-33.54951477050781,0.0,-2948.848388671875,-2024.9515380859375,17.010000228881836,-0.009587380103766918,1.3455888032913208,0.0,-88.63265991210938,-826.5890502929688,8.321000099182129,-0.7978711043265848,0.6253748067093691,1.0928836412351473
-1876.62939453125,1150.7783203125,92.93999481201172,40.42951583862305,-33.54951477050781,0.0,-2948.848388671875,-2024.9515380859375,17.010000228881836,-0.009587380103766918,1.3455888032913208,0.0,-88.63265991210938,-826.5890502929688,8.321000099182129,-1762.0548095703125,1056.6103515625,92.93999481201172,36.8734130859375,-29.9934139251709,0.0,-4078.97998046875,-2690.412109375,1437.542724609375,-0.6112913489341736,-1.582588791847229,1.5776033401489258,8.310999870300293,750.0623779296875,571.7764282226562,-0.7813422965581607,0.3652013824462464,2.9614425441096444
-1762.0548095703125,1056.6103515625,92.93999481201172,36.8734130859375,-29.9934139251709,0.0,-4078.97998046875,-2690.412109375,1437.542724609375,-0.6112913489341736,-1.582588791847229,1.5776033401489258,8.310999870300293,750.0623779296875,571.7764282226562,-1662.2144775390625,976.2850341796875,92.93999481201172,33.46759033203125,-26.58759307861328,0.0,-2941.34716796875,383.4114074707031,1763.8712158203125,0.061167482286691666,-2.0178558826446533,-2.90277099609375,589.1658935546875,1271.43115234375,-573.7943725585938,-0.9527050056875273,0.005630601619409918,2.837980531125311
-1662.2144775390625,976.2850341796875,92.93999481201172,33.46759033203125,-26.58759307861328,0.0,-2941.34716796875,383.4114074707031,1763.8712158203125,0.061167482286691666,-2.0178558826446533,-2.90277099609375,589.1658935546875,1271.43115234375,-573.7943725585938,-1625.967041015625,947.6765747070312,92.93999481201172,32.14274215698242,-25.262744903564453,0.0,-2276.10498046875,1818.2301025390625,729.4944458007812,0.06366020441055298,-2.0182392597198486,-2.900949478149414,615.716064453125,1327.207763671875,-1294.53173828125,-0.8418592348151878,-0.003852524712471546,1.1054851460420423
-1625.967041015625,947.6765747070312,92.93999481201172,32.14274215698242,-25.262744903564453,0.0,-2276.10498046875,1818.2301025390625,729.4944458007812,0.06366020441055298,-2.0182392597198486,-2.900949478149414,615.716064453125,1327.207763671875,-1294.53173828125,-1576.8660888671875,909.2905883789062,92.93999481201172,30.25524139404297,-23.375240325927734,0.0,-1602.39697265625,3233.478515625,24.62213706970215,0.042280346155166626,-2.2628133296966553,0.25176459550857544,235.19894409179688,190.15435791015625,-44.348670959472656,0.3778725939845975,0.5716196994213872,1.5706582758574825
-1576.8660888671875,909.2905883789062,92.93999481201172,30.25524139404297,-23.375240325927734,0.0,-1602.39697265625,3233.478515625,24.62213706970215,0.042280346155166626,-2.2628133296966553,0.25176459550857544,235.19894409179688,190.15435791015625,-44.348670959472656,-1548.2899169921875,887.3599853515625,92.93999481201172,0.0,0.0,0.0,-975.4899291992188,4107.29638671875,17.010000228881836,-0.009683254174888134,-2.0419201850891113,0.0,559.7197265625,1053.9532470703125,8.321000099182129,-0.9500965352794175,-0.11998655456345556,1.3386483808643561
-1548.2899169921875,887.3599853515625,92.93999481201172,0.0,0.0,0.0,-975.4899291992188,4107.29638671875,17.010000228881836,-0.009683254174888134,-2.0419201850891113,0.0,559.7197265625,1053.9532470703125,8.321000099182129,-1548.2899169921875,887.3599853515625,92.93999481201172,0.0,0.0,0.0,-876.7393798828125,4305.59814453125,17.010000228881836,-0.009299758821725845,-1.8349286317825317,9.58738019107841e-05,29.167593002319336,77.50810241699219,8.310999870300293,0.9476981861316821,-0.5585011636594316,0.33573430765488865
-1548.2899169921875,887.3599853515625,92.93999481201172,0.0,0.0,0.0,-876.7393798828125,4305.59814453125,17.010000228881836,-0.009299758821725845,-1.8349286317825317,9.58738019107841e-05,29.167593002319336,77.50810241699219,8.310999870300293,-1548.2899169921875,887.3599853515625,92.93999481201172,0.0,0.0,0.0,-1484.9869384765625,5097.3662109375,125.96795654296875,0.6944139003753662,0.161259725689888,-1.2549880743026733,844.0612182617188,154.37806701660156,630.8196411132812,0.9916165720728041,-0.8112714359425272,2.177855025778115
-1548.2899169921875,887.3599853515625,92.93999481201172,0.0,0.0,0.0,-1484.9869384765625,5097.3662109375,125.96795654296875,0.6944139003753662,0.161259725689888,-1.2549880743026733,844.0612182617188,154.37806701660156,630.8196411132812,-1548.2899169921875,887.3599853515625,92.93999481201172,0.0,0.0,0.0,-358.2065124511719,5128.00537109375,258.7521057128906,-0.17822939157485962,0.4623034596443176,-1.634648323059082,1085.24462890625,52.122344970703125,-295.5041809082031,0.47805088071663027,-0.45349849392747565,1.0948927122118448
-1548.2899169921875,887.3599853515625,92.93999481201172,0.0,0.0,0.0,-358.2065124511719,5128.00537109375,258.7521057128906,-0.17822939157485962,0.4623034596443176,-1.634648323059082,1085.24462890625,52.122344970703125,-295.5041809082031,-1548.2899169921875,887.3599853515625,92.93999481201172,0.0,0.0,0.0,448.3276062011719,5184.857421875,28.33641815185547,-0.17477793991565704,0.6599952578544617,0.14707040786743164,523.5684204101562,150.9020538330078,-98.51084899902344,-0.12382795574845329,-0.5388550242480338,0.8412474306120146
-1548.2899169921875,887.3599853515625,92.93999481201172,0.0,0.0,0.0,448.3276062011719,5184.857421875,28.33641815185547,-0.17477793991565704,0.6599952578544617,0.14707040786743164,523.5684204101562,150.9020538330078,-98.51084899902344,-1548.2899169921875,887.3599853515625,92.93999481201172,0.0,0.0,0.0,-335.2820739746094,3928.378662109375,17.010000228881836,-0.009587380103766918,0.7927804589271545,0.0,-897.5146484375,-940.5558471679688,8.321000099182129,-0.9604190212242497,0.120510746001581,1.9812362115292643
-1548.2899169921875,887.3599853515625,92.93999481201172,0.0,0.0,0.0,-335.2820739746094,3928.378662109375,17.010000228881836,-0.009587380103766918,0.7927804589271545,0.0,-897.5146484375,-940.5558471679688,8.321000099182129,-1548.2899169921875,887.3599853515625,92.93999481201172,0.0,0.0,0.0,-3963.8994140625,2131.803466796875,51.15461730957031,-0.45808500051498413,0.10920025408267975,-0.03959587961435318,-1109.32763671875,-162.81166076660156,692.0486450195312,-0.7775127179985203,0.12909666285087873,2.9665825943378508
-1548.2899169921875,887.3599853515625,92.93999481201172,0.0,0.0,0.0,-3963.8994140625,2131.803466796875,51.15461730957031,-0.45808500051498413,0.10920025408267975,-0.03959587961435318,-1109.32763671875,-162.81166076660156,692.0486450195312,-1548.2899169921875,887.3599853515625,92.93999481201172,0.0,0.0,0.0,-4068.23681640625,2110.382080078125,200.27032470703125,-1.317785382270813,-0.04899151250720024,0.044677190482616425,110.04850769042969,23.92700958251953,-370.8399658203125,0.9898566496148745,0.6777680147745224,0.5274996368381153
-1548.2899169921875,887.3599853515625,92.93999481201172,0.0,0.0,0.0,-4068.23681640625,2110.382080078125,200.27032470703125,-1.317785382270813,-0.04899151250720024,0.044677190482616425,110.04850769042969,23.92700958251953,-370.8399658203125,-2058.36865234375,1452.002685546875,269.42608642578125,-1165.9146728515625,1286.905029296875,263.88958740234375,-4079.06591796875,2045.691650390625,297.4584045410156,-0.4549211859703064,1.581917643547058,-1.5734808444976807,2.427081823348999,-374.6010437011719,273.95709228515625,-0.9412277798074759,-0.9874087006533828,0.9296578802729556
-2058.36865234375,1452.002685546875,269.42608642578125,-1165.9146728515625,1286.905029296875,263.88958740234375,-4079.06591796875,2045.691650390625,297.4584045410156,-0.4549211859703064,1.581917643547058,-1.5734808444976807,2.427081823348999,-374.6010437011719,273.95709228515625,-3608.22802734375,3161.734619140625,129.95248413085938,-917.9539184570312,1005.1033935546875,238.4010772705078,-3720.4404296875,2363.435791015625,16.472333908081055,-0.003834951901808381,0.03202185034751892,0.0010546117555350065,924.27685546875,38.863304138183594,17.348316192626953,0.5124308690265403,-0.5473986976242032,1.3863889476460685
-3608.22802734375,3161.734619140625,129.95248413085938,-917.9539184570312,1005.1033935546875,238.4010772705078,-3720.4404296875,2363.435791015625,16.472333908081055,-0.003834951901808381,0.03202185034751892,0.0010546117555350065,924.27685546875,38.863304138183594,17.348316192626953,-3642.0087890625,3198.7314453125,138.18885803222656,-916.8932495117188,1003.9542846679688,214.1815948486328,-3686.2578125,2364.29541015625,16.747440338134766,-0.006327670533210039,-0.014189322479069233,0.0007669904152862728,934.8152465820312,6.894001007080078,13.221449851989746,0.4300897650832626,-0.03484267873823666,0.03778950656140978
-3642.0087890625,3198.7314453125,138.18885803222656,-916.8932495117188,1003.9542846679688,214.1815948486328,-3686.2578125,2364.29541015625,16.747440338134766,-0.006327670533210039,-0.014189322479069233,0.0007669904152862728,934.8152465820312,6.894001007080078,13.221449851989746,-3256.178955078125,4473.31005859375,270.3434753417969,484.5590515136719,319.31964111328125,-522.4008178710938,-3724.965087890625,2372.58154296875,17.010000228881836,-0.009683254174888134,-0.06970024853944778,0.0,-198.89324951171875,13.871907234191895,8.310999870300293,-0.07212917319595813,0.0009769650729711183,2.2562894965089697
-3256.178955078125,4473.31005859375,270.3434753417969,484.5590515136719,319.31964111328125,-522.4008178710938,-3724.965087890625,2372.58154296875,17.010000228881836,-0.009683254174888134,-0.06970024853944778,0.0,-198.89324951171875,13.871907234191895,8.310999870300293,-2459.756591796875,5014.40673828125,123.99462890625,326.325439453125,227.38063049316406,-136.57725524902344,-4022.511474609375,3856.518798828125,171.9701690673828,0.5582731366157532,-2.0911035537719727,1.1526906490325928,570.6216430664062,1052.162841796875,-649.3560791015625,-0.9953138547767519,0.45472182608676043,2.1450860729047747
-2459.756591796875,5014.40673828125,123.99462890625,326.325439453125,227.38063049316406,-136.57725524902344,-4022.511474609375,3856.518798828125,171.9701690673828,0.5582731366157532,-2.0911035537719727,1.1526906490325928,570.6216430664062,1052.162841796875,-649.3560791015625,-1605.489013671875,4813.67236328125,93.12999725341797,317.55206298828125,-72.62468719482422,0.0,-4078.97998046875,3282.383056640625,1006.2901611328125,1.225746512413025,-1.598887324333191,1.5440475940704346,8.301000595092773,-299.17388916015625,799.6961059570312,0.8915886512870198,-0.14042209550740922,2.547163613699965
-1605.489013671875,4813.67236328125,93.12999725341797,317.55206298828125,-72.62468719482422,0.0,-4078.97998046875,3282.383056640625,1006.2901611328125,1.225746512413025,-1.598887324333191,1.5440475940704346,8.301000595092773,-299.17388916015625,799.6961059570312,-1512.891357421875,4792.59130859375,93.12999725341797,315.4451599121094,-71.98237609863281,0.0,-4078.97998046875,3195.9580078125,1234.9034423828125,1.1966967582702637,-1.5969698429107666,1.5461567640304565,8.301000595092773,-310.3444519042969,763.4096069335938,0.6684560374508642,0.11648456461325367,0.29054649279071043
-1512.891357421875,4792.59130859375,93.12999725341797,315.4451599121094,-71.98237609863281,0.0,-4078.97998046875,3195.9580078125,1234.9034423828125,1.1966967582702637,-1.5969698429107666,1.5461567640304565,8.301000595092773,-310.3444519042969,763.4096069335938,-1357.30029296875,4757.14794921875,93.12999725341797,311.8733215332031,-70.90177154541016,0.0,-4078.97998046875,3168.0283203125,1294.0555419921875,1.2356215715408325,-1.6001336574554443,1.5429929494857788,8.291000366210938,130.54234313964844,-249.74476623535156,-0.36290596852914647,0.8694115175380714,0.4985268228673334
-1357.30029296875,4757.14794921875,93.12999725341797,311.8733215332031,-70.90177154541016,0.0,-4078.97998046875,3168.0283203125,1294.0555419921875,1.2356215715408325,-1.6001336574554443,1.5429929494857788,8.291000366210938,130.54234313964844,-249.74476623535156,-536.511962890625,4572.42919921875,93.12999725341797,292.3498229980469,-65.1406021118164,0.0,-4078.97998046875,1880.165771484375,1388.0955810546875,-0.8703423738479614,-1.5857526063919067,1.5822052955627441,8.321000099182129,374.5362548828125,584.9439086914062,-0.4371414111201868,0.7404736872108155,2.8572531709766054
-536.511962890625,4572.42919921875,93.12999725341797,292.3498229980469,-65.1406021118164,0.0,-4078.97998046875,1880.165771484375,1388.0955810546875,-0.8703423738479614,-1.5857526063919067,1.5822052955627441,8.321000099182129,374.5362548828125,584.9439086914062,95.04318237304688,4432.64697265625,93.12999725341797,277.47930908203125,-60.99466323852539,0.0,-4073.677001953125,3682.402587890625,761.9310302734375,1.1640996932983398,-1.6886252164840698,1.550087571144104,68.74234008789062,658.47265625,-1411.885009765625,-0.5793090016725858,0.41664357739048663,2.2187630522361275
95.04318237304688,4432.64697265625,93.12999725341797,277.47930908203125,-60.99466323852539,0.0,-4073.677001953125,3682.402587890625,761.9310302734375,1.1640996932983398,-1.6886252164840698,1.550087571144104,68.74234008789062,658.47265625,-1411.885009765625,638.7651977539062,4313.85400390625,93.12999725341797,265.02685546875,-57.55533981323242,0.0,-1608.532470703125,3803.899169921875,17.010000228881836,-0.009587380103766918,3.0786993503570557,0.0,1505.378173828125,-93.52626037597656,8.321000099182129,-0.9918082163369374,0.011722110529944705,2.0038199249437127
638.7651977539062,4313.85400390625,93.12999725341797,265.02685546875,-57.55533981323242,0.0,-1608.532470703125,3803.899169921875,17.010000228881836,-0.009587380103766918,3.0786993503570557,0.0,1505.378173828125,-93.52626037597656,8.321000099182129,766.4458618164062,4286.134765625,93.12999725341797,262.1202087402344,-56.73684310913086,0.0,-888.9558715820312,3849.0625,17.010000228881836,-0.009587380103766918,-2.7808196544647217,0.0,1419.6416015625,426.95343017578125,8.310999870300293,-0.4148935946182015,-0.582943069498667,0.48328365165569664
766.4458618164062,4286.134765625,93.12999725341797,262.1202087402344,-56.73684310913086,0.0,-888.9558715820312,3849.0625,17.010000228881836,-0.009587380103766918,-2.7808196544647217,0.0,1419.6416015625,426.95343017578125,8.310999870300293,1357.826171875,4158.654296875,93.12999725341797,248.21307373046875,-53.259830474853516,0.0,-1770.16259765625,3388.289794921875,17.010000228881836,-0.009491506032645702,-2.659635066986084,0.0,-1041.625732421875,-544.2841186523438,8.310999870300293,0.7340784141035979,0.015950968083447252,2.314912460289335
1357.826171875,4158.654296875,93.12999725341797,248.21307373046875,-53.259830474853516,0.0,-1770.16259765625,3388.289794921875,17.010000228881836,-0.009491506032645702,-2.659635066986084,0.0,-1041.625732421875,-544.2841186523438,8.310999870300293,1887.725341796875,4045.11669921875,93.12999725341797,235.15489196777344,-50.36377716064453,0.0,-2364.47900390625,4089.966064453125,17.010000228881836,-0.009587380103766918,0.3556917905807495,0.0,-1113.76708984375,-244.00440979003906,8.331000328063965,-0.8873714543900526,-0.8943080342867755,2.1933366237356893
1887.725341796875,4045.11669921875,93.12999725341797,235.15489196777344,-50.36377716064453,0.0,-2364.47900390625,4089.966064453125,17.010000228881836,-0.009587380103766918,0.3556917905807495,0.0,-1113.76708984375,-244.00440979003906,8.331000328063965,2483.212646484375,3917.625244140625,93.12999725341797,220.9633331298828,-47.20907974243164,0.0,-2726.603515625,1215.455810546875,17.010000228881836,-0.009587380103766918,2.448425054550171,0.0,1037.6387939453125,-953.0996704101562,8.321000099182129,-0.6733231620448616,-0.3982304900780715,2.619161411792163
2483.212646484375,3917.625244140625,93.12999725341797,220.9633331298828,-47.20907974243164,0.0,-2726.603515625,1215.455810546875,17.010000228881836,-0.009587380103766918,2.448425054550171,0.0,1037.6387939453125,-953.0996704101562,8.321000099182129,2494.13134765625,3915.310791015625,93.12999725341797,220.70596313476562,-47.14973831176758,0.0,-2674.586181640625,1169.12109375,17.010000228881836,-0.009587380103766918,2.484377861022949,0.0,1071.740478515625,-913.2265014648438,8.321000099182129,-0.06225967492410045,-0.3487621172956836,0.050978583218437734
2494.13134765625,3915.310791015625,93.12999725341797,220.70596313476562,-47.14973831176758,0.0,-2674.586181640625,1169.12109375,17.010000228881836,-0.009587380103766918,2.484377861022949,0.0,1071.740478515625,-913.2265014648438,8.321000099182129,3017.179931640625,3804.0009765625,93.12999725341797,208.7173309326172,-44.22507858276367,0.0,135.34011840820312,-809.5694580078125,17.010000228881836,-0.009587380103766918,2.530876636505127,9.58738019107841e-05,1155.0509033203125,-808.5609741210938,8.321000099182129,-0.6192800179111979,-0.0006641628142422812,2.440371368062671
3017.179931640625,3804.0009765625,93.12999725341797,208.7173309326172,-44.22507858276367,0.0,135.34011840820312,-809.5694580078125,17.010000228881836,-0.009587380103766918,2.530876636505127,9.58738019107841e-05,1155.0509033203125,-808.5609741210938,8.321000099182129,3058.291748046875,3795.23681640625,93.12999725341797,207.76986694335938,-43.98821258544922,0.0,320.110595703125,-938.8212890625,17.010000228881836,-0.009299758821725845,2.414677619934082,9.58738019107841e-05,625.9884033203125,-474.1971435546875,8.310999870300293,0.9935839905419686,0.5358278084238199,0.18977381457023057
3058.291748046875,3795.23681640625,93.12999725341797,207.76986694335938,-43.98821258544922,0.0,320.110595703125,-938.8212890625,17.010000228881836,-0.009299758821725845,2.414677619934082,9.58738019107841e-05,625.9884033203125,-474.1971435546875,8.310999870300293,3059.975830078125,3794.876708984375,93.12999725341797,207.73092651367188,-43.97848129272461,0.0,325.19451904296875,-942.6722412109375,17.010000228881836,-0.009299758821725845,2.4077746868133545,9.58738019107841e-05,601.0277709960938,-459.770263671875,8.310999870300293,0.4026991908545734,-0.09903592008844117,0.01805643691332648
3059.975830078125,3794.876708984375,93.12999725341797,207.73092651367188,-43.97848129272461,0.0,325.19451904296875,-942.6722412109375,17.010000228881836,-0.009299758821725845,2.4077746868133545,9.58738019107841e-05,601.0277709960938,-459.770263671875,8.310999870300293,3651.74951171875,3670.430908203125,93.12999725341797,193.57406616210938,-40.43926239013672,0.0,-12.934198379516602,-625.6721801757812,17.010000228881836,-0.009587380103766918,-3.055497884750366,0.0,1068.4195556640625,244.56597900390625,8.331000328063965,-0.4696905999812444,0.8763779768526434,2.9414806753989637
3651.74951171875,3670.430908203125,93.12999725341797,193.57406616210938,-40.43926239013672,0.0,-12.934198379516602,-625.6721801757812,17.010000228881836,-0.009587380103766918,-3.055497884750366,0.0,1068.4195556640625,244.56597900390625,8.331000328063965,3847.61962890625,3628.952392578125,94.59407806396484,184.267578125,-47.80805969238281,18.57924461364746,-94.580810546875,-599.141845703125,17.010000228881836,-0.009491506032645702,3.0925052165985107,0.0,-729.004638671875,35.80209732055664,8.321000099182129,0.8845659585220357,0.00030142604484911025,1.0296957397218023
3847.61962890625,3628.952392578125,94.59407806396484,184.267578125,-47.80805969238281,18.57924461364746,-94.580810546875,-599.141845703125,17.010000228881836,-0.009491506032645702,3.0925052165985107,0.0,-729.004638671875,35.80209732055664,8.321000099182129,3674.43505859375,3448.65625,93.02999877929688,-176.59007263183594,-40.457359313964844,0.0,-572.4616088867188,1056.464111328125,17.010000228881836,-0.009587380103766918,0.6071687936782837,0.0,726.6323852539062,510.40643310546875,8.321000099182129,0.10708345868415725,-0.3901159433513847,2.8086854729301933
3674.43505859375,3448.65625,93.02999877929688,-176.59007263183594,-40.457359313964844,0.0,-572.4616088867188,1056.464111328125,17.010000228881836,-0.009587380103766918,0.6071687936782837,0.0,726.6323852539062,510.40643310546875,8.321000099182129,3175.46923828125,3335.3544921875,93.02999877929688,-164.45822143554688,-36.94340133666992,0.0,-380.1882019042969,424.53948974609375,17.010000228881836,-0.009587380103766918,2.915330410003662,9.58738019107841e-05,585.9588012695312,-220.00648498535156,8.321000099182129,-0.21039112400083193,-0.6494424282038604,2.899679256561626
3175.46923828125,3335.3544921875,93.02999877929688,-164.45822143554688,-36.94340133666992,0.0,-380.1882019042969,424.53948974609375,17.010000228881836,-0.009587380103766918,2.915330410003662,9.58738019107841e-05,585.9588012695312,-220.00648498535156,8.321000099182129,2725.567626953125,3235.685791015625,93.02999877929688,-153.92625427246094,-33.54941940307617,0.0,2825.958740234375,-45.504058837890625,17.010000228881836,-0.009683254174888134,2.999028205871582,9.58738019107841e-05,1395.3172607421875,-200.281005859375,8.321000099182129,-0.6913317553657794,-0.002890854157376304,2.831439369805821
2725.567626953125,3235.685791015625,93.02999877929688,-153.92625427246094,-33.54941940307617,0.0,2825.958740234375,-45.504058837890625,17.010000228881836,-0.009683254174888134,2.999028205871582,9.58738019107841e-05,1395.3172607421875,-200.281005859375,8.321000099182129,2423.698486328125,3170.722900390625,93.02999877929688,-146.695556640625,-31.139184951782227,0.0,3098.547119140625,618.0744018554688,17.010000228881836,-0.009587380103766918,0.3297100067138672,0.0,925.5889282226562,343.29248046875,8.331000328063965,0.7861885229395822,-0.9377028724636978,2.012150136359139
2423.698486328125,3170.722900390625,93.02999877929688,-146.695556640625,-31.139184951782227,0.0,3098.547119140625,618.0744018554688,17.010000228881836,-0.009587380103766918,0.3297100067138672,0.0,925.5889282226562,343.29248046875,8.331000328063965,2268.811279296875,3138.103271484375,93.02999877929688,-142.84339904785156,-29.855125427246094,0.0,3089.1318359375,647.8016967773438,17.010000228881836,-0.009587380103766918,-0.3217524588108063,0.0,-452.9277648925781,80.9594955444336,8.321000099182129,-0.4705904743417163,0.6617285759758998,1.0697879616014063
2268.811279296875,3138.103271484375,93.02999877929688,-142.84339904785156,-29.855125427246094,0.0,3089.1318359375,647.8016967773438,17.010000228881836,-0.009587380103766918,-0.3217524588108063,0.0,-452.9277648925781,80.9594955444336,8.321000099182129,2226.792236328125,3129.246337890625,93.02999877929688,-141.78054809570312,-29.5008487701416,0.0,3055.06201171875,649.058837890625,17.010000228881836,-0.009491506032645702,-0.5274976491928101,9.58738019107841e-05,95.38497161865234,-89.11788940429688,8.29115104675293,0.6231233779999513,-0.9788552929963407,0.29390287309891505
2226.792236328125,3129.246337890625,93.02999877929688,-141.78054809570312,-29.5008487701416,0.0,3055.06201171875,649.058837890625,17.010000228881836,-0.009491506032645702,-0.5274976491928101,9.58738019107841e-05,95.38497161865234,-89.11788940429688,8.29115104675293,1842.397705078125,3051.1494140625,93.02999877929688,-131.65867614746094,-26.12688636779785,0.0,1721.488037109375,567.5458374023438,17.010000228881836,-0.009587380103766918,0.6511748433113098,0.0,-746.7803955078125,-516.6879272460938,8.301000595092773,-0.31948451257263033,-0.26869731517659695,2.8180393336170653
1842.397705078125,3051.1494140625,93.02999877929688,-131.65867614746094,-26.12688636779785,0.0,1721.488037109375,567.5458374023438,17.010000228881836,-0.009587380103766918,0.6511748433113098,0.0,-746.7803955078125,-516.6879272460938,8.301000595092773,1747.635009765625,3032.518798828125,93.02999877929688,-129.08224487304688,-25.254749298095703,0.0,1059.962646484375,351.9749450683594,17.010000228881836,-0.009587380103766918,-0.326066792011261,0.0,-1052.52978515625,224.04318237304688,8.321000099182129,-0.5859469586726503,0.7296279525991654,0.727524951981934
1747.635009765625,3032.518798828125,93.02999877929688,-129.08224487304688,-25.254749298095703,0.0,1059.962646484375,351.9749450683594,17.010000228881836,-0.009587380103766918,-0.326066792011261,0.0,-1052.52978515625,224.04318237304688,8.321000099182129,1594.5137939453125,3002.93505859375,93.02999877929688,-125.07273864746094,-23.808246612548828,0.0,-190.01150512695312,907.1203002929688,17.010000228881836,-0.009587380103766918,-0.43104860186576843,-9.58738019107841e-05,-1090.5718994140625,501.60455322265625,8.321000099182129,-0.2672386039614003,-0.0019193742072703013,1.2058928217975051
1594.5137939453125,3002.93505859375,93.02999877929688,-125.07273864746094,-23.808246612548828,0.0,-190.01150512695312,907.1203002929688,17.010000228881836,-0.009587380103766918,-0.43104860186576843,-9.58738019107841e-05,-1090.5718994140625,501.60455322265625,8.321000099182129,1269.5458984375,2943.19482421875,93.02999877929688,-116.53128051757812,-20.577760696411133,0.0,-3531.90283203125,1728.9521484375,17.010000228881836,-0.009587380103766918,-0.030775489285588264,0.0,-1357.2569580078125,55.360137939453125,8.321000099182129,-0.22078111065896522,-0.07959678221760391,2.687984622890724
1269.5458984375,2943.19482421875,93.02999877929688,-116.53128051757812,-20.577760696411133,0.0,-3531.90283203125,1728.9521484375,17.010000228881836,-0.009587380103766918,-0.030775489285588264,0.0,-1357.2569580078125,55.360137939453125,8.321000099182129,965.8129272460938,2891.70361328125,93.02999877929688,-108.87149810791016,-17.60125160217285,0.0,-3551.127685546875,161.0782470703125,17.010000228881836,-0.009587380103766918,-2.527329206466675,0.0,-1066.3714599609375,-790.1099853515625,8.321000099182129,0.9656042874807655,-0.5482782305188317,2.6993976751410287
965.8129272460938,2891.70361328125,93.02999877929688,-108.87149810791016,-17.60125160217285,0.0,-3551.127685546875,161.0782470703125,17.010000228881836,-0.009587380103766918,-2.527329206466675,0.0,-1066.3714599609375,-790.1099853515625,8.321000099182129,734.001220703125,2855.84033203125,93.02999877929688,-103.3133544921875,-15.217177391052246,0.0,-3959.987060546875,-117.31685638427734,1854.3389892578125,0.7717840671539307,0.5862683057785034,-2.7158172130584717,556.6875610351562,385.5841064453125,623.656982421875,0.874903406790341,-0.18403238941951808,2.1880278058821148
734.001220703125,2855.84033203125,93.02999877929688,-103.3133544921875,-15.217177391052246,0.0,-3959.987060546875,-117.31685638427734,1854.3389892578125,0.7717840671539307,0.5862683057785034,-2.7158172130584717,556.6875610351562,385.5841064453125,623.656982421875,685.0632934570312,2848.735595703125,93.02999877929688,-102.17024993896484,-14.730999946594238,0.0,-3893.316650390625,-72.37659454345703,1905.0003662109375,0.6420668363571167,0.5410158634185791,-2.876309871673584,-184.87940979003906,-184.74217224121094,-193.43206787109375,-0.8668260232879372,-0.9145295134515824,0.47501318851030305
685.0632934570312,2848.735595703125,93.02999877929688,-102.17024993896484,-14.730999946594238,0.0,-3893.316650390625,-72.37659454345703,1905.0003662109375,0.6420668363571167,0.5410158634185791,-2.876309871673584,-184.87940979003906,-184.74217224121094,-193.43206787109375,504.57470703125,2823.775390625,93.02999877929688,-97.84013366699219,-13.020569801330566,0.0,-4078.97998046875,-284.9955139160156,1420.900634765625,1.028630018234253,1.590066909790039,-1.5538266897201538,8.487557411193848,-154.35252380371094,-299.9140319824219,0.004489848145562525,0.12679677179325355,1.8098897828475913
504.57470703125,2823.775390625,93.02999877929688,-97.84013366699219,-13.020569801330566,0.0,-4078.97998046875,-284.9955139160156,1420.900634765625,1.028630018234253,1.590066909790039,-1.5538266897201538,8.487557411193848,-154.35252380371094,-299.9140319824219,433.4940185546875,2814.400390625,93.02999877929688,-96.07909393310547,-12.380050659179688,0.0,-4078.97998046875,-412.6089172363281,840.0806274414062,1.379432201385498,-1.6215136051177979,1.5207501649856567,8.301000595092773,141.39080810546875,-1246.06591796875,-0.9932347546359069,-0.5235977392803655,0.7330362343525394
433.4940185546875,2814.400390625,93.02999877929688,-96.07909393310547,-12.380050659179688,0.0,-4078.97998046875,-412.6089172363281,840.0806274414062,1.379432201385498,-1.6215136051177979,1.5207501649856567,8.301000595092773,141.39080810546875,-1246.06591796875,245.86985778808594,2791.339599609375,93.02999877929688,-91.27204895019531,-10.770999908447266,0.0,-2368.894775390625,-1351.813720703125,17.010000228881836,-0.009587380103766918,1.977972388267517,0.0,624.9513549804688,-1263.4356689453125,8.321000099182129,-0.8357587992121879,0.41613490855308377,2.005465409291247
